[{
"label": "La Presumida", "lat": 19.801101, "lng": -88.754044
},{
"label": "Su'ukil Naj", "lat": 19.787094, "lng": -88.746555
},{
"label": "Insurgentes", "lat": 19.593788, "lng": -88.785116
},{
"label": "Huay Max", "lat": 20.041691, "lng": -88.525798
},{
"label": "Bulukax", "lat": 19.964543, "lng": -88.772169
},{
"label": "Ermilo Góngora Caamal", "lat": 19.699167, "lng": -88.684722
},{
"label": "Casa de los Nares", "lat": 19.841197, "lng": -88.776417
},{
"label": "X-Querol", "lat": 20.132743, "lng": -88.617427
},{
"label": "San Carlos [Rancho]", "lat": 19.700823, "lng": -88.651439
},{
"label": "Ninguno [Rastro Municipal]", "lat": 19.734349, "lng": -88.689446
},{
"label": "Santa Amalia", "lat": 19.686174, "lng": -88.697158
},{
"label": "San Roque", "lat": 19.921111, "lng": -88.808889
},{
"label": "Cacatziu", "lat": 19.802589, "lng": -88.980493
},{
"label": "TEPYOCSA [Centro de Acopio]", "lat": 19.792942, "lng": -88.749017
},{
"label": "Santa Alicia", "lat": 19.833252, "lng": -88.879629
},{
"label": "San Luis", "lat": 19.800278, "lng": -88.845664
},{
"label": "Humberto Piña", "lat": 19.623056, "lng": -88.703333
},{
"label": "Aguada San Antonio", "lat": 19.686944, "lng": -88.756111
},{
"label": "Santa Leonor", "lat": 19.851275, "lng": -88.859389
},{
"label": "San Valerio", "lat": 19.929738, "lng": -88.600482
},{
"label": "Cecilio Chí", "lat": 19.818146, "lng": -88.722021
},{
"label": "Ninguno", "lat": 19.883468, "lng": -88.799971
},{
"label": "El Triunfo", "lat": 19.425556, "lng": -88.764766
},{
"label": "San Agustín", "lat": 19.871111, "lng": -88.706111
},{
"label": "Venadito", "lat": 19.554722, "lng": -89.175
},{
"label": "Quizás", "lat": 19.607222, "lng": -89.003333
},{
"label": "San Román", "lat": 19.918783, "lng": -88.562238
},{
"label": "Guadalupe", "lat": 19.71546, "lng": -88.653919
},{
"label": "Gavilanes", "lat": 19.490448, "lng": -88.753493
},{
"label": "San José Ignacio", "lat": 19.658576, "lng": -88.901933
},{
"label": "Adolfo López Mateos", "lat": 19.632611, "lng": -88.688141
},{
"label": "El Lucero", "lat": 19.350278, "lng": -88.711389
},{
"label": "Kilómetro Sesenta y Uno", "lat": 19.682939, "lng": -88.636491
},{
"label": "Adriana", "lat": 19.805263, "lng": -88.814858
},{
"label": "San Antonio Zuctuk", "lat": 19.815, "lng": -88.82
},{
"label": "Matemore", "lat": 19.709636, "lng": -88.763895
},{
"label": "Jerónimo Chab Pat", "lat": 19.749089, "lng": -88.697397
},{
"label": "La Pimientita", "lat": 19.504756, "lng": -88.670185
},{
"label": "María de Jesús", "lat": 19.802636, "lng": -88.767036
},{
"label": "San Carlos", "lat": 19.633743, "lng": -88.938935
},{
"label": "Cafetal Grande", "lat": 19.716096, "lng": -88.821281
},{
"label": "Dos Aguadas", "lat": 19.66649, "lng": -88.698148
},{
"label": "Chan Tabasquito", "lat": 19.979769, "lng": -88.704681
},{
"label": "Chimay", "lat": 19.750889, "lng": -88.925281
},{
"label": "Los Cascabeles [Rancho]", "lat": 19.667767, "lng": -88.623508
},{
"label": "Nuevo San Marcos", "lat": 19.841556, "lng": -88.778771
},{
"label": "La Ceibita", "lat": 19.664465, "lng": -88.750762
},{
"label": "Tres Palmas", "lat": 20.004722, "lng": -88.688611
},{
"label": "San Francisco de Castro", "lat": 19.716364, "lng": -88.828871
},{
"label": "Sacalaca", "lat": 20.062267, "lng": -88.595322
},{
"label": "San Felipe Segundo", "lat": 19.828354, "lng": -88.891834
},{
"label": "El Paraíso del Edén", "lat": 19.805556, "lng": -88.759444
},{
"label": "San Ignacio", "lat": 19.642222, "lng": -88.908056
},{
"label": "El Tesoro", "lat": 19.670159, "lng": -89.033664
},{
"label": "Monte Grande", "lat": 19.509233, "lng": -88.848286
},{
"label": "Los Tres Reyes", "lat": 19.820866, "lng": -88.78568
},{
"label": "Kancabchén", "lat": 19.714106, "lng": -88.861742
},{
"label": "Centro Integrador de Desarrollo Comunitario", "lat": 19.799502, "lng": -88.784124
},{
"label": "Carlos Tuc", "lat": 19.790833, "lng": -88.747222
},{
"label": "El Huanal", "lat": 19.255367, "lng": -88.821321
},{
"label": "Colmenitas", "lat": 19.504046, "lng": -88.778371
},{
"label": "San Miguel", "lat": 19.630833, "lng": -88.656944
},{
"label": "Los Lagartos", "lat": 19.45, "lng": -88.976667
},{
"label": "X-Peten Hay", "lat": 19.829938, "lng": -88.827656
},{
"label": "Nemesio Salazar", "lat": 19.747553, "lng": -88.722313
},{
"label": "Sacrificio", "lat": 19.698687, "lng": -88.661106
},{
"label": "Camarones", "lat": 19.499006, "lng": -88.853016
},{
"label": "Santa María", "lat": 19.487222, "lng": -88.698333
},{
"label": "San Eustaquio", "lat": 19.81848, "lng": -88.769317
},{
"label": "Arturo Xicum Can", "lat": 19.782993, "lng": -88.657395
},{
"label": "Chan X-Cunei", "lat": 20.008286, "lng": -88.696449
},{
"label": "El Lucero Dos", "lat": 19.631106, "lng": -88.927982
},{
"label": "Antonio Sosa Nieto", "lat": 19.789939, "lng": -88.747885
},{
"label": "San Felipe III", "lat": 19.461667, "lng": -89.025556
},{
"label": "San Salvador Segundo", "lat": 19.849467, "lng": -88.866347
},{
"label": "Rancho Viejo", "lat": 19.913106, "lng": -88.544014
},{
"label": "La Ceiba", "lat": 19.741757, "lng": -88.769488
},{
"label": "José María Morelos [Vivero]", "lat": 19.753429, "lng": -88.696283
},{
"label": "San Martín", "lat": 19.828172, "lng": -88.767194
},{
"label": "Los Compadres", "lat": 19.820278, "lng": -88.735556
},{
"label": "X-Canil", "lat": 20.003333, "lng": -88.5175
},{
"label": "Mina de Oro", "lat": 19.659985, "lng": -88.775711
},{
"label": "Dziuché", "lat": 19.899049, "lng": -88.80982
},{
"label": "Juan Vázquez", "lat": 19.619452, "lng": -88.704721
},{
"label": "Pozo Blanco", "lat": 19.771278, "lng": -88.716306
},{
"label": "El Vergel", "lat": 19.821389, "lng": -88.741944
},{
"label": "San Ángel", "lat": 19.814937, "lng": -88.810497
},{
"label": "San Felipe Oriente", "lat": 19.975995, "lng": -88.627037
},{
"label": "Sabán", "lat": 20.035376, "lng": -88.538713
},{
"label": "Adolfo de la Huerta", "lat": 19.418438, "lng": -88.829156
},{
"label": "Santo Domingo", "lat": 19.792255, "lng": -88.710929
},{
"label": "Nachi Cocom", "lat": 19.379444, "lng": -88.678056
},{
"label": "El Verdón", "lat": 19.685689, "lng": -88.99664
},{
"label": "Preciliano Martín Traconis", "lat": 19.730141, "lng": -88.721788
},{
"label": "Santa Gertrudis", "lat": 19.799248, "lng": -88.773976
},{
"label": "El Pitallo", "lat": 19.822114, "lng": -88.765558
},{
"label": "San Francisco", "lat": 19.875652, "lng": -88.615973
},{
"label": "Zafarrancho", "lat": 19.514076, "lng": -88.889329
},{
"label": "Carlos Salinas de Gortari", "lat": 19.726308, "lng": -88.725263
},{
"label": "Xnoh Cruz", "lat": 19.607232, "lng": -89.166019
},{
"label": "Grano de Oro", "lat": 19.351389, "lng": -88.691944
},{
"label": "Ninguno [Universidad Intercultural Maya de Quintana Roo (UIMQROO)]", "lat": 19.758951, "lng": -88.724226
},{
"label": "La Concepción", "lat": 20.013374, "lng": -88.670637
},{
"label": "Chan Catzimil", "lat": 19.994443, "lng": -88.76571
},{
"label": "Mariano Matamoros", "lat": 19.633576, "lng": -88.752149
},{
"label": "Plan de la Noria Poniente", "lat": 19.309212, "lng": -88.788145
},{
"label": "Leona Vicario", "lat": 19.679444, "lng": -88.825833
},{
"label": "La Conchita Primero", "lat": 19.819042, "lng": -88.747136
},{
"label": "Los Girasoles", "lat": 19.809545, "lng": -88.781352
},{
"label": "Venustiano Carranza", "lat": 19.274209, "lng": -88.755683
},{
"label": "San Nicolás Uno", "lat": 19.654364, "lng": -88.988752
},{
"label": "Chanchén", "lat": 19.9786, "lng": -88.712705
},{
"label": "Juárez", "lat": 19.801419, "lng": -88.78984
},{
"label": "San Benito", "lat": 19.837389, "lng": -88.815044
},{
"label": "San Diego", "lat": 19.844744, "lng": -88.729737
},{
"label": "La Gloria", "lat": 19.81546, "lng": -88.761322
},{
"label": "El Mercado", "lat": 19.391667, "lng": -88.671667
},{
"label": "Nuevo Cunduacán", "lat": 19.270929, "lng": -88.866122
},{
"label": "Las Moras", "lat": 19.451667, "lng": -88.993889
},{
"label": "San Isidro", "lat": 19.472425, "lng": -88.715744
},{
"label": "Santa Lucía", "lat": 19.833853, "lng": -88.767433
},{
"label": "San Marcelo [Rancho]", "lat": 19.803657, "lng": -88.774353
},{
"label": "Othón P. Blanco", "lat": 19.621187, "lng": -89.004367
},{
"label": "San Bernardino", "lat": 19.809942, "lng": -88.848266
},{
"label": "Pedro Moreno", "lat": 19.534082, "lng": -88.736552
},{
"label": "Aguada la Presumida", "lat": 19.443406, "lng": -89.018679
},{
"label": "Santa Mercedes", "lat": 19.735833, "lng": -88.821944
},{
"label": "San Lorenzo", "lat": 19.801505, "lng": -88.765854
},{
"label": "San Cosme", "lat": 19.904616, "lng": -88.819279
},{
"label": "Kantemó", "lat": 19.929722, "lng": -88.806111
},{
"label": "Sabana San Francisco", "lat": 19.548551, "lng": -89.077587
},{
"label": "San Felipe Primero", "lat": 19.813202, "lng": -88.832509
},{
"label": "San Isidro Poniente", "lat": 19.330557, "lng": -88.88814
},{
"label": "Nueva Reforma", "lat": 19.799283, "lng": -88.856953
},{
"label": "San José de la Montaña", "lat": 19.807415, "lng": -88.609444
},{
"label": "Rancho Vázquez", "lat": 19.794893, "lng": -88.718756
},{
"label": "Piedras Negras", "lat": 19.437676, "lng": -88.798093
},{
"label": "Garita Aduanal", "lat": 19.904167, "lng": -88.817392
},{
"label": "Esteban Torres Lozada", "lat": 19.810409, "lng": -88.73559
},{
"label": "San Juan Oriente", "lat": 20.018339, "lng": -88.610059
},{
"label": "Las Palmas", "lat": 19.686899, "lng": -88.758762
},{
"label": "Pozo Pirata", "lat": 19.615162, "lng": -88.890113
},{
"label": "San Nicolás", "lat": 19.812778, "lng": -88.761389
},{
"label": "Santa Rita", "lat": 20.028746, "lng": -88.561762
},{
"label": "San Francisco [Rancho]", "lat": 19.795039, "lng": -88.618389
},{
"label": "Kankabchén", "lat": 19.47073, "lng": -88.625623
},{
"label": "Otto Ventura Osorio [Rancho]", "lat": 19.680468, "lng": -88.636676
},{
"label": "El Roble", "lat": 19.860484, "lng": -88.889863
},{
"label": "San Antonio", "lat": 19.819283, "lng": -88.835283
},{
"label": "El Crucero [Restaurante]", "lat": 19.806564, "lng": -88.757534
},{
"label": "Juan Interián Mejía [Vivero]", "lat": 19.791811, "lng": -88.601535
},{
"label": "La Esmeralda", "lat": 19.781202, "lng": -88.736114
},{
"label": "San Rafael", "lat": 19.5425, "lng": -88.629722
},{
"label": "Los Cuatro Pozos", "lat": 19.803106, "lng": -88.767272
},{
"label": "Polo Primero", "lat": 19.772778, "lng": -88.953056
},{
"label": "El Paraíso Naciente", "lat": 19.654965, "lng": -89.002225
},{
"label": "La Trinidad", "lat": 19.969444, "lng": -88.756944
},{
"label": "Benito Juárez", "lat": 19.711061, "lng": -88.770793
},{
"label": "Mis Angelitos", "lat": 19.616111, "lng": -88.705556
},{
"label": "El Naranjal", "lat": 19.642682, "lng": -88.784801
},{
"label": "Los Cuatro Hermanos", "lat": 19.733611, "lng": -88.69
},{
"label": "San Luis Panal", "lat": 19.489848, "lng": -89.018061
},{
"label": "El Martirio", "lat": 19.641525, "lng": -88.836397
},{
"label": "San José", "lat": 19.841364, "lng": -88.822052
},{
"label": "Chanbarbachano", "lat": 19.694816, "lng": -88.852523
},{
"label": "Nuevo Plan de la Noria", "lat": 19.288996, "lng": -88.63891
},{
"label": "San Felipe", "lat": 19.833056, "lng": -88.793611
},{
"label": "Sazil Ha", "lat": 19.968889, "lng": -88.743056
},{
"label": "San Salvador", "lat": 19.464722, "lng": -88.865278
},{
"label": "Cafetalito", "lat": 19.727268, "lng": -88.797864
},{
"label": "José María Morelos", "lat": 19.749393, "lng": -88.710515
},{
"label": "Santa Lucía Esperanza", "lat": 19.720394, "lng": -88.744381
},{
"label": "El Mirador", "lat": 19.275556, "lng": -88.723889
},{
"label": "Saczuquil", "lat": 19.785232, "lng": -88.977626
},{
"label": "La Voluntad de Dios", "lat": 19.788713, "lng": -88.726885
},{
"label": "San Sebastián", "lat": 19.686672, "lng": -88.641373
},{
"label": "La Carolina", "lat": 19.606192, "lng": -89.057415
},{
"label": "La Estrella", "lat": 19.573889, "lng": -89.073333
},{
"label": "La Herradura", "lat": 19.791371, "lng": -88.742376
},{
"label": "Puerto Arturo", "lat": 19.660632, "lng": -89.067191
},{
"label": "Sinaí", "lat": 19.783902, "lng": -88.742525
},{
"label": "La Coqueta", "lat": 19.80049, "lng": -88.811516
},{
"label": "San Pedro", "lat": 19.877803, "lng": -88.622456
},{
"label": "Villa de Guadalupe", "lat": 19.826865, "lng": -88.71174
},{
"label": "Los Cuatitos", "lat": 19.724571, "lng": -88.70887
},{
"label": "Tierra de Cristo [Rancho]", "lat": 19.727668, "lng": -88.712282
},{
"label": "Santa Teresita", "lat": 19.813765, "lng": -88.736923
},{
"label": "Candelaria", "lat": 19.737954, "lng": -88.958911
},{
"label": "San Juan Cenote", "lat": 19.991627, "lng": -88.709266
},{
"label": "Tabasco", "lat": 19.977078, "lng": -88.684968
},{
"label": "San Luis Polo Segundo", "lat": 19.784225, "lng": -88.954633
},{
"label": "Santa Cruz", "lat": 19.954722, "lng": -88.782778
},{
"label": "Ninguno [Asociación Ganadera Local]", "lat": 19.74276, "lng": -88.700609
},{
"label": "Santa Elena", "lat": 20.109519, "lng": -88.598268
},{
"label": "Lázaro Cárdenas", "lat": 19.594555, "lng": -88.707865
},{
"label": "San Chablé", "lat": 19.706533, "lng": -88.657129
},{
"label": "Santa Margarita", "lat": 19.806874, "lng": -88.739872
},{
"label": "La Creación [Rancho]", "lat": 19.678076, "lng": -88.632508
},{
"label": "San Pablo", "lat": 19.996944, "lng": -88.736667
},{
"label": "San Antonio Tuk", "lat": 19.782676, "lng": -88.547557
},{
"label": "Las Bugambilias", "lat": 19.751661, "lng": -88.871059
},{
"label": "San José Sisal", "lat": 19.98301, "lng": -88.588631
},{
"label": "El Tarro", "lat": 19.661844, "lng": -88.843808
},{
"label": "Chantuk Águilas", "lat": 19.898305, "lng": -88.543597
},{
"label": "Porvenir", "lat": 19.565889, "lng": -88.820142
},{
"label": "El Paraíso [Rancho]", "lat": 19.767786, "lng": -88.725625
},{
"label": "X-Cabil", "lat": 20.165709, "lng": -88.464193
},{
"label": "X-Cunei", "lat": 20.012696, "lng": -88.694846
},{
"label": "Rancho Guadalupe", "lat": 19.807197, "lng": -88.756994
},{
"label": "San Juan", "lat": 19.505833, "lng": -88.687222
},{
"label": "Rancho Segovia", "lat": 19.686389, "lng": -89.114167
},{
"label": "Paraíso", "lat": 19.715606, "lng": -88.838653
},{
"label": "La Esperanza", "lat": 19.864827, "lng": -88.585464
},{
"label": "Juanas", "lat": 19.508333, "lng": -89.054722
},{
"label": "Javier Rojo Gómez", "lat": 19.887771, "lng": -88.593887
},{
"label": "Francisco Villa", "lat": 19.481944, "lng": -89.030278
},{
"label": "Santa Lucía (Los Cabes)", "lat": 19.715232, "lng": -88.81178
},{
"label": "San Esteban", "lat": 19.854621, "lng": -88.884183
},{
"label": "Esperancita", "lat": 19.574641, "lng": -88.781099
}]