[{
"label": "Santa Melva", "lat": 20.912567, "lng": -87.404771
},{
"label": "San Arturo", "lat": 20.794646, "lng": -87.480133
},{
"label": "Esperanza", "lat": 20.971902, "lng": -87.395714
},{
"label": "Ignacio Zaragoza", "lat": 20.882028, "lng": -87.52349
},{
"label": "San Valentín", "lat": 20.920531, "lng": -87.547224
},{
"label": "Héroe de Nacozari", "lat": 20.772437, "lng": -87.252648
},{
"label": "Santa Julia", "lat": 21.017185, "lng": -87.348205
},{
"label": "San Agustín Primero", "lat": 20.887468, "lng": -87.494542
},{
"label": "La Veleta", "lat": 20.978217, "lng": -87.450036
},{
"label": "Juárez", "lat": 20.823134, "lng": -87.330084
},{
"label": "San José Chumpús", "lat": 21.205492, "lng": -87.343842
},{
"label": "San Benito", "lat": 20.872735, "lng": -87.581448
},{
"label": "Nuevo Xcán", "lat": 20.869931, "lng": -87.601741
},{
"label": "El Pedregal", "lat": 20.927274, "lng": -87.484828
},{
"label": "Roberto Dzul", "lat": 20.910556, "lng": -87.547778
},{
"label": "Tres Marías", "lat": 20.848981, "lng": -87.226137
},{
"label": "Tulum", "lat": 21.144722, "lng": -87.432222
},{
"label": "La Curva", "lat": 21.38995, "lng": -87.342414
},{
"label": "Buenavista", "lat": 20.928746, "lng": -87.502708
},{
"label": "José Quintal", "lat": 21.323333, "lng": -87.430556
},{
"label": "San Isidro", "lat": 20.931371, "lng": -87.4834
},{
"label": "Arizona", "lat": 20.91784, "lng": -87.464113
},{
"label": "Ninguno [Rastro Municipal]", "lat": 21.115491, "lng": -87.499006
},{
"label": "Kantunilkín [Gasolinera]", "lat": 21.087728, "lng": -87.48832
},{
"label": "Sebastián Poot Gallo", "lat": 21.106011, "lng": -87.476765
},{
"label": "Santa Martha", "lat": 20.719041, "lng": -87.68788
},{
"label": "Los Cedros", "lat": 20.7, "lng": -87.241389
},{
"label": "Solferino", "lat": 21.351985, "lng": -87.429171
},{
"label": "Agua Azul", "lat": 20.857775, "lng": -87.32547
},{
"label": "Mariquita Linda", "lat": 20.698333, "lng": -87.254722
},{
"label": "San Juan de Dios", "lat": 20.769176, "lng": -87.547929
},{
"label": "San Luis", "lat": 20.851999, "lng": -87.445734
},{
"label": "José Cruz", "lat": 20.885856, "lng": -87.509784
},{
"label": "San Lorenzo", "lat": 20.848942, "lng": -87.257051
},{
"label": "Los Aluxes", "lat": 20.904299, "lng": -87.430426
},{
"label": "San Cosme", "lat": 20.807075, "lng": -87.504588
},{
"label": "Ninguno", "lat": 21.393056, "lng": -87.299444
},{
"label": "Chechen Ha", "lat": 21.315583, "lng": -87.101168
},{
"label": "Villa Catalina", "lat": 21.357726, "lng": -87.426811
},{
"label": "Yaax Ek", "lat": 21.321389, "lng": -87.432222
},{
"label": "Villa Infantil Maya", "lat": 20.874822, "lng": -87.55714
},{
"label": "Los Tres Balam", "lat": 21.187222, "lng": -87.110833
},{
"label": "Felicidad", "lat": 20.698056, "lng": -87.264722
},{
"label": "El Ideal", "lat": 20.882506, "lng": -87.54603
},{
"label": "La Carmelita", "lat": 21.176085, "lng": -87.159046
},{
"label": "San Román", "lat": 20.860421, "lng": -87.464613
},{
"label": "Santa Rosa", "lat": 20.874427, "lng": -87.351488
},{
"label": "San Bernardo", "lat": 20.900554, "lng": -87.367529
},{
"label": "Valle Verde", "lat": 21.323177, "lng": -87.433543
},{
"label": "Guadalupe", "lat": 20.877941, "lng": -87.591061
},{
"label": "Tres Reyes", "lat": 20.693664, "lng": -87.594593
},{
"label": "Asnar", "lat": 21.315388, "lng": -87.340869
},{
"label": "San Casimiro", "lat": 20.917089, "lng": -87.394846
},{
"label": "Ninguno [José Pat]", "lat": 20.937736, "lng": -87.329354
},{
"label": "Guadalupe Victoria", "lat": 20.790682, "lng": -87.280557
},{
"label": "Rancho Chan'ka", "lat": 21.394722, "lng": -87.340833
},{
"label": "La Ermita I", "lat": 20.933088, "lng": -87.548729
},{
"label": "Esmeralda", "lat": 20.701331, "lng": -87.609961
},{
"label": "Pacchen", "lat": 20.635311, "lng": -87.588301
},{
"label": "Cedralito Segundo", "lat": 20.900651, "lng": -87.549898
},{
"label": "San Carlos", "lat": 20.718611, "lng": -87.285278
},{
"label": "Nuevo Valladolid Uno", "lat": 20.92577, "lng": -87.32368
},{
"label": "San Clemente", "lat": 21.075008, "lng": -87.490273
},{
"label": "Colonia CAPA", "lat": 21.0996, "lng": -87.497367
},{
"label": "El Edén", "lat": 21.195, "lng": -87.166667
},{
"label": "El Roble", "lat": 21.408961, "lng": -87.339031
},{
"label": "Chiquilá", "lat": 21.432854, "lng": -87.335934
},{
"label": "San Antonio", "lat": 20.896395, "lng": -87.376026
},{
"label": "La Esmeralda", "lat": 20.902, "lng": -87.435799
},{
"label": "San Felipe de las Lomas", "lat": 21.324519, "lng": -87.394027
},{
"label": "Oxil-Kaax", "lat": 21.198999, "lng": -87.426526
},{
"label": "UEEE Número Uno", "lat": 20.881637, "lng": -87.468249
},{
"label": "Diego Caamal", "lat": 21.355556, "lng": -87.419444
},{
"label": "Aurora [Rancho]", "lat": 21.331569, "lng": -87.428894
},{
"label": "San Chabel", "lat": 21.341294, "lng": -87.430539
},{
"label": "Platanal", "lat": 20.780928, "lng": -87.623093
},{
"label": "Cándido [Rancho]", "lat": 21.408208, "lng": -87.338478
},{
"label": "Vicente Guerrero", "lat": 20.983779, "lng": -87.493735
},{
"label": "San Ignacio", "lat": 21.328611, "lng": -87.24
},{
"label": "Ninguno [Trituradora]", "lat": 21.287222, "lng": -87.428889
},{
"label": "El Tintal", "lat": 20.89314, "lng": -87.465443
},{
"label": "El Solazo", "lat": 21.31331, "lng": -87.432078
},{
"label": "El Naranjal", "lat": 20.804695, "lng": -87.476798
},{
"label": "Los Cuatro Hermanos", "lat": 21.41086, "lng": -87.343712
},{
"label": "Rancho Nuevo", "lat": 21.385885, "lng": -87.349692
},{
"label": "Planta de Gas LP", "lat": 21.08535, "lng": -87.488957
},{
"label": "El Cedral", "lat": 20.950062, "lng": -87.551044
},{
"label": "El Pocito", "lat": 20.889978, "lng": -87.483003
},{
"label": "David Gustavo Gutiérrez Ruiz", "lat": 21.415473, "lng": -87.337737
},{
"label": "Pustunich", "lat": 20.846069, "lng": -87.621188
},{
"label": "Rancho Talismán", "lat": 20.884373, "lng": -87.502773
},{
"label": "San José", "lat": 20.918426, "lng": -87.391071
},{
"label": "El Esfuerzo", "lat": 21.21515, "lng": -87.098059
},{
"label": "Banco de Cenotes", "lat": 20.670351, "lng": -87.613452
},{
"label": "Luferi [Rancho]", "lat": 21.267268, "lng": -87.436079
},{
"label": "San Eusebio", "lat": 21.399547, "lng": -87.336987
},{
"label": "Cristóbal Colón", "lat": 20.935267, "lng": -87.346802
},{
"label": "Poxil", "lat": 20.659305, "lng": -87.542253
},{
"label": "San Felipe", "lat": 20.916944, "lng": -87.397222
},{
"label": "Constituyentes del Setenta y Cuatro", "lat": 20.687151, "lng": -87.435189
},{
"label": "San Miguel", "lat": 21.243611, "lng": -87.338333
},{
"label": "Ninguno [Subestación Eléctrica]", "lat": 20.9863, "lng": -87.503334
},{
"label": "Mundo Maya", "lat": 21.393333, "lng": -87.344167
},{
"label": "Santa Rufina", "lat": 20.668056, "lng": -87.641667
},{
"label": "El Ché", "lat": 21.327619, "lng": -87.431608
},{
"label": "Ninguno [CBTA 186]", "lat": 21.128303, "lng": -87.483221
},{
"label": "San Candelario", "lat": 21.393487, "lng": -87.340184
},{
"label": "Ninguno [María Rosalba]", "lat": 20.938853, "lng": -87.322629
},{
"label": "La Hoyanca de Fátima", "lat": 20.934722, "lng": -87.513611
},{
"label": "Pio Papa May José", "lat": 21.08445, "lng": -87.488883
},{
"label": "Yaxcopil", "lat": 21.170999, "lng": -87.477111
},{
"label": "Chan Santa Cruz", "lat": 20.887222, "lng": -87.506944
},{
"label": "La Chaya", "lat": 21.111251, "lng": -87.117086
},{
"label": "La Morenita", "lat": 21.229556, "lng": -87.101027
},{
"label": "Parcela Ejidal", "lat": 21.325454, "lng": -87.431572
},{
"label": "Holbox", "lat": 21.523199, "lng": -87.378727
},{
"label": "El Corchal", "lat": 21.280468, "lng": -87.344429
},{
"label": "Villa de Guadalupe", "lat": 20.916549, "lng": -87.394832
},{
"label": "Jr. Aguilar", "lat": 20.822064, "lng": -87.602609
},{
"label": "Santa María", "lat": 21.271111, "lng": -87.255
},{
"label": "Los Danieles", "lat": 21.188076, "lng": -87.108988
},{
"label": "Kantunilkín", "lat": 21.101399, "lng": -87.487223
},{
"label": "San Jorge", "lat": 21.264448, "lng": -87.435106
},{
"label": "Ninguno [Asociación Ganadera Local]", "lat": 21.111043, "lng": -87.493634
},{
"label": "Monte Bravo", "lat": 21.328144, "lng": -87.375118
},{
"label": "Campo de Tiro", "lat": 21.187184, "lng": -87.109703
},{
"label": "San Marco", "lat": 20.896289, "lng": -87.399318
},{
"label": "Blanca Flor", "lat": 20.668979, "lng": -87.531305
},{
"label": "La Querencia [Finca]", "lat": 21.331442, "lng": -87.431256
},{
"label": "El Cairo", "lat": 20.976751, "lng": -87.44443
},{
"label": "La Gran Familia", "lat": 21.415677, "lng": -87.338273
},{
"label": "Ka'azihilkabo'ob", "lat": 20.928798, "lng": -87.55139
},{
"label": "Solferino [Huerta de Frutas y Verduras]", "lat": 21.264872, "lng": -87.435379
},{
"label": "Cedralito", "lat": 20.912969, "lng": -87.547938
},{
"label": "La Ceiba", "lat": 21.064438, "lng": -87.492393
},{
"label": "San Pablo", "lat": 21.286402, "lng": -87.105568
},{
"label": "San Javier", "lat": 20.903277, "lng": -87.429954
},{
"label": "Cacahuamilpa", "lat": 21.074405, "lng": -87.524602
},{
"label": "Pocito", "lat": 20.65047, "lng": -87.549946
},{
"label": "Zarco Grande", "lat": 21.363583, "lng": -87.131417
},{
"label": "Los Laureles", "lat": 21.405173, "lng": -87.350773
},{
"label": "Delirios", "lat": 20.845833, "lng": -87.192078
},{
"label": "San Martiniano", "lat": 20.828828, "lng": -87.282521
},{
"label": "Laguna Chabela", "lat": 20.662778, "lng": -87.615833
},{
"label": "San Ángel", "lat": 21.235454, "lng": -87.431483
},{
"label": "Rancho del General", "lat": 21.212697, "lng": -87.134743
},{
"label": "San Juan", "lat": 20.906944, "lng": -87.402778
},{
"label": "Santo Domingo", "lat": 20.920271, "lng": -87.384267
},{
"label": "La Limonaria", "lat": 20.94495, "lng": -87.544495
},{
"label": "La Ermita", "lat": 20.932222, "lng": -87.549722
},{
"label": "Lucas [Rancho]", "lat": 21.324283, "lng": -87.432679
},{
"label": "Nuevo Durango", "lat": 20.721503, "lng": -87.583819
},{
"label": "Ninguno [Quebradora]", "lat": 21.289161, "lng": -87.431125
},{
"label": "El Chaparral", "lat": 20.873889, "lng": -87.324722
},{
"label": "Diez de Mayo", "lat": 20.736331, "lng": -87.340949
},{
"label": "San Angelin", "lat": 21.261204, "lng": -87.447212
},{
"label": "La Esperanza", "lat": 20.790433, "lng": -87.632129
},{
"label": "Santa María (273)", "lat": 20.875841, "lng": -87.567144
},{
"label": "Ich-Ha", "lat": 20.845576, "lng": -87.315357
},{
"label": "Delagro", "lat": 20.876529, "lng": -87.571251
},{
"label": "Cupaima [Ecoturístico]", "lat": 21.315788, "lng": -87.43044
},{
"label": "Yokdzonot Nuevo", "lat": 20.657832, "lng": -87.623568
},{
"label": "San Francisco", "lat": 20.821011, "lng": -87.503609
},{
"label": "Vladimir Villanueva", "lat": 21.295851, "lng": -87.434309
},{
"label": "Francisco Villa", "lat": 20.922685, "lng": -87.32308
},{
"label": "Laguna Costa Rica", "lat": 20.716176, "lng": -87.34713
},{
"label": "La Concepción", "lat": 21.216668, "lng": -87.450429
},{
"label": "Chan Santa María", "lat": 20.873936, "lng": -87.521037
},{
"label": "Centro de Investigaciones", "lat": 21.210509, "lng": -87.19275
},{
"label": "Yokdzonot", "lat": 20.668059, "lng": -87.661921
},{
"label": "Nuevo Valladolid", "lat": 20.943475, "lng": -87.325426
},{
"label": "Jacinto Canek", "lat": 21.072943, "lng": -87.489397
},{
"label": "La Pequeña Tierra", "lat": 21.325371, "lng": -87.429474
},{
"label": "Montecristo", "lat": 20.913995, "lng": -87.556025
},{
"label": "San Mateo", "lat": 20.876631, "lng": -87.560381
}]