[{
"label": "Poblado C-11 José María Morelos y Pavón", "lat": 18.173917, "lng": -93.625907
},{
"label": "Cárdenas 2da. Sección", "lat": 18.001652, "lng": -93.315323
},{
"label": "Encrucijada 3ra. Sección (Las Calzadas)", "lat": 18.255457, "lng": -93.556351
},{
"label": "El Carmen", "lat": 18.103772, "lng": -93.36446
},{
"label": "Ignacio Zaragoza", "lat": 18.152131, "lng": -93.75677
},{
"label": "Habanero 2da. Sección (El Castaño)", "lat": 17.999557, "lng": -93.299372
},{
"label": "El Chocho (Boca del Río)", "lat": 18.270393, "lng": -93.746736
},{
"label": "Buenavista 1ra. Sección", "lat": 18.096772, "lng": -93.853819
},{
"label": "Río Seco 1ra. Sección", "lat": 18.025554, "lng": -93.390008
},{
"label": "Ley Federal de la Reforma Agraria (San Ramón)", "lat": 18.247471, "lng": -93.932921
},{
"label": "Azucena 5ta. Sección (El Apompal)", "lat": 18.269788, "lng": -93.621227
},{
"label": "La Península", "lat": 17.943527, "lng": -93.361646
},{
"label": "Calzada 1ra. Sección Sur", "lat": 18.001151, "lng": -93.354127
},{
"label": "Las Flores (La Palma)", "lat": 18.2016, "lng": -93.771594
},{
"label": "Paylebot", "lat": 18.257584, "lng": -93.951624
},{
"label": "Madrigal Pérez (Las Cuatro R)", "lat": 18.144745, "lng": -93.540823
},{
"label": "Cuauhtemoczín 2da. Sección", "lat": 18.218412, "lng": -94.07203
},{
"label": "Poblado C-27 Ingeniero Eduardo Chávez Ramírez", "lat": 18.021809, "lng": -93.563463
},{
"label": "El Jobo (Punta Brava)", "lat": 18.165877, "lng": -93.71922
},{
"label": "Santana 3ra. Sección B", "lat": 18.196651, "lng": -93.461418
},{
"label": "Poza Redonda 1ra. Sección", "lat": 18.209359, "lng": -93.498602
},{
"label": "Zapotal 1ra. Sección", "lat": 18.070758, "lng": -93.402916
},{
"label": "Santuario 3ra. Sección (Piedras Negras)", "lat": 18.292405, "lng": -93.500181
},{
"label": "Puerto Escondido", "lat": 18.207762, "lng": -93.688058
},{
"label": "Arroyo Hondo 1ra. Sección (Santa Teresa A)", "lat": 18.015175, "lng": -93.435395
},{
"label": "Santa Isidra", "lat": 18.002314, "lng": -93.464051
},{
"label": "Azucena 7ma. Sección (El Lechugal)", "lat": 18.253644, "lng": -93.679803
},{
"label": "Ampliación Carrizal (Las Palomas)", "lat": 18.001629, "lng": -93.409228
},{
"label": "Cuauhtémoc (W-65)", "lat": 18.002557, "lng": -93.532473
},{
"label": "Arroyo Hondo (San Rosendo)", "lat": 17.99858, "lng": -93.451844
},{
"label": "Paso y Playa", "lat": 17.95444, "lng": -93.365711
},{
"label": "Mario Morales (De los Morales)", "lat": 18.030339, "lng": -93.555366
},{
"label": "El Capricho", "lat": 18.173481, "lng": -93.775996
},{
"label": "El Parnaso", "lat": 18.005242, "lng": -93.469574
},{
"label": "Poblado C-21 Licenciado Benito Juárez García", "lat": 18.066957, "lng": -93.561807
},{
"label": "El Bronce", "lat": 18.116612, "lng": -93.730938
},{
"label": "Santa Rosalía (Miguel Hidalgo 2da. Sección)", "lat": 18.091054, "lng": -93.348687
},{
"label": "Poblado C-09 Licenciado Francisco I. Madero", "lat": 18.176236, "lng": -93.489984
},{
"label": "Chicozapote 2da. Sección (El Retiro)", "lat": 18.1913, "lng": -93.878825
},{
"label": "El Barí 2da. Sección", "lat": 18.231112, "lng": -94.032285
},{
"label": "Santana 4ta. Sección", "lat": 18.138836, "lng": -93.460353
},{
"label": "Azucena 4ta. Sección (Torno Alegre)", "lat": 18.256552, "lng": -93.598074
},{
"label": "Naranjeño 2da. Sección B", "lat": 18.229021, "lng": -93.635188
},{
"label": "Poblado C-14 General Plutarco Elías Calles", "lat": 18.120051, "lng": -93.612586
},{
"label": "Calzada 2da. Sección", "lat": 18.035411, "lng": -93.330889
},{
"label": "Naranjeño 2da. Sección A", "lat": 18.214987, "lng": -93.628339
},{
"label": "Las Esperanzas", "lat": 17.987262, "lng": -93.578562
},{
"label": "Rosique Palavicini", "lat": 18.152982, "lng": -93.570748
},{
"label": "Chicozapote 1ra. Sección", "lat": 18.216631, "lng": -93.860228
},{
"label": "Encrucijada 4ta. Sección B (La Lucha)", "lat": 18.212479, "lng": -93.542562
},{
"label": "El Golpe", "lat": 18.328003, "lng": -93.531296
},{
"label": "Azucena 6ta. Sección", "lat": 18.237288, "lng": -93.597822
},{
"label": "Ignacio Gutiérrez Gómez (San Felipe)", "lat": 18.153649, "lng": -93.74156
},{
"label": "Encrucijada 4ta. Sección A", "lat": 18.218848, "lng": -93.57516
},{
"label": "Ampliación Carrizal", "lat": 18.021478, "lng": -93.395062
},{
"label": "Nueva Zelandia (El Ingenio)", "lat": 17.948178, "lng": -93.35139
},{
"label": "Ojoshal", "lat": 18.24185, "lng": -94.000389
},{
"label": "Las Coloradas la Victoria", "lat": 18.266878, "lng": -93.566122
},{
"label": "Poblado C-28 Coronel Gregorio Méndez Magaña", "lat": 18.022454, "lng": -93.497238
},{
"label": "Río Seco 2da. Sección (Norte 10)", "lat": 18.089246, "lng": -93.384083
},{
"label": "Santana 3ra. Sección A (El Filero)", "lat": 18.168389, "lng": -93.447691
},{
"label": "Río Seco 2da. Sección A", "lat": 18.049264, "lng": -93.378957
},{
"label": "Río Seco 2da. Sección B", "lat": 18.064965, "lng": -93.384593
},{
"label": "Río Seco 2da. Sección C", "lat": 18.082324, "lng": -93.37622
},{
"label": "Ingenio Presidente Benito Juárez", "lat": 18.005328, "lng": -93.581311
},{
"label": "Benito Juárez (Campo Magallanes)", "lat": 18.177342, "lng": -93.90825
},{
"label": "Miguel Hidalgo 1ra. Sección", "lat": 18.070952, "lng": -93.357099
},{
"label": "Poza Redonda 4ta. Sección (Rincón Brujo)", "lat": 18.231565, "lng": -93.532814
},{
"label": "Poblado C-29 General Vicente Guerrero", "lat": 18.049887, "lng": -93.438907
},{
"label": "Arroyo Hondo 2da. Sección Santa Teresa B", "lat": 18.024449, "lng": -93.417181
},{
"label": "Las Coloradas 1ra. Sección", "lat": 18.281289, "lng": -93.531779
},{
"label": "Poblado C-10 General Lázaro Cárdenas del Río", "lat": 18.174748, "lng": -93.567917
},{
"label": "San Rafael", "lat": 18.307878, "lng": -93.831016
},{
"label": "Las Coloradas 2da. Sección B", "lat": 18.287719, "lng": -93.557015
},{
"label": "Luis Donaldo Colosio Murrieta", "lat": 18.077808, "lng": -93.341753
},{
"label": "El Alacrán", "lat": 18.381088, "lng": -93.615689
},{
"label": "Campo Magallanes", "lat": 18.17343, "lng": -93.917023
},{
"label": "Santana 2da. Sección B (La Palma)", "lat": 18.174699, "lng": -93.431399
},{
"label": "La Trinidad", "lat": 18.136055, "lng": -93.897116
},{
"label": "Calzada 1ra. Sección Norte A", "lat": 18.018962, "lng": -93.351629
},{
"label": "Pedro Sánchez Magallanes", "lat": 18.286863, "lng": -93.877354
},{
"label": "Santuario 4ta. Sección", "lat": 18.253871, "lng": -93.581204
},{
"label": "Poblado C-28 Coronel Gregorio Méndez Magaña Uno", "lat": 18.021329, "lng": -93.512817
},{
"label": "El Porvenir", "lat": 18.116287, "lng": -93.766532
},{
"label": "Julián Montejo Velázquez", "lat": 18.303746, "lng": -93.526388
},{
"label": "De los Santos", "lat": 18.061154, "lng": -93.371407
},{
"label": "Encrucijada 1ra. Sección Rincón Brujo", "lat": 18.243212, "lng": -93.537944
},{
"label": "Miguel Hidalgo 2da. Sección B (La Natividad)", "lat": 18.080972, "lng": -93.349848
},{
"label": "Islas Encantadas 1ra. Sección (El Zapote)", "lat": 18.187162, "lng": -93.71892
},{
"label": "Poblado C-15 Adolfo López Mateos Uno", "lat": 18.109886, "lng": -93.570365
},{
"label": "Cartagena", "lat": 18.053033, "lng": -93.354444
},{
"label": "Encrucijada 2da. Sección (Los García)", "lat": 18.242979, "lng": -93.560853
},{
"label": "Las Limas", "lat": 18.113651, "lng": -93.748981
},{
"label": "Nueva Esperanza", "lat": 18.163744, "lng": -93.676921
},{
"label": "Miguel Hidalgo Zapotal 2da. Sección", "lat": 18.038125, "lng": -93.417703
},{
"label": "Encrucijada 5ta. Sección", "lat": 18.226153, "lng": -93.611654
},{
"label": "Poblado C-22 Licenciado José María Pino Suárez Uno", "lat": 18.050497, "lng": -93.626939
},{
"label": "La Alianza", "lat": 17.999475, "lng": -93.314719
},{
"label": "Sinaloa 1ra. Sección", "lat": 18.343141, "lng": -93.726943
},{
"label": "Zapotal 2da. Sección", "lat": 18.050642, "lng": -93.436907
},{
"label": "Poblado C-16 General Emiliano Zapata Dos", "lat": 18.141175, "lng": -93.490011
},{
"label": "Los Arévalos", "lat": 18.144297, "lng": -93.513385
},{
"label": "Santana 5ta. Sección (El Espino)", "lat": 18.117419, "lng": -93.43796
},{
"label": "Poblado C-10 General Lázaro Cárdenas del Río Uno", "lat": 18.207075, "lng": -93.550525
},{
"label": "Poblado C-20 Miguel Hidalgo y Costilla", "lat": 18.067503, "lng": -93.497181
},{
"label": "Santana 1ra. Sección B", "lat": 18.105596, "lng": -93.438032
},{
"label": "El Yucateco (Paylebot 2da. Sección)", "lat": 18.21134, "lng": -94.019038
},{
"label": "Bajío 1ra. Sección A (Perifércio Sur)", "lat": 17.985021, "lng": -93.355926
},{
"label": "Poza Redonda 2da. Sección", "lat": 18.237991, "lng": -93.476707
},{
"label": "5 de Mayo", "lat": 18.049871, "lng": -93.325684
},{
"label": "Santana 1ra. Sección A", "lat": 18.107041, "lng": -93.401312
},{
"label": "Campo Nuevo", "lat": 18.08945, "lng": -93.737866
},{
"label": "Cuauhtemoczín", "lat": 18.205209, "lng": -94.12584
},{
"label": "Buenavista 2da. Sección", "lat": 18.098591, "lng": -93.885316
},{
"label": "General Francisco Villa", "lat": 17.97763, "lng": -93.29744
},{
"label": "Santuario 5ta. Sección Buena Vista", "lat": 18.226728, "lng": -93.581839
},{
"label": "Azucenita 1ra. Sección B", "lat": 18.257785, "lng": -93.631784
},{
"label": "El Golpe 2da. Sección (Los Patos)", "lat": 18.32612, "lng": -93.518428
},{
"label": "Juan Escutia", "lat": 17.99846, "lng": -93.514368
},{
"label": "Poblado C-16 General Emiliano Zapata Tres", "lat": 18.111455, "lng": -93.493501
},{
"label": "Poblado C-16 General Emiliano Zapata", "lat": 18.111496, "lng": -93.497364
},{
"label": "Poblado C-33 20 de Noviembre", "lat": 17.968163, "lng": -93.563004
},{
"label": "El Pérsico", "lat": 18.153254, "lng": -93.542295
},{
"label": "Habanero 1ra. Sección (Venustiano Carranza)", "lat": 17.967316, "lng": -93.328222
},{
"label": "Sinaloa 2da. Sección (Arjona)", "lat": 18.336898, "lng": -93.746395
},{
"label": "Zapotal 3ra. Sección", "lat": 18.089434, "lng": -93.437974
},{
"label": "Miguel Hidalgo 2da. Sección A (El Edén)", "lat": 18.091163, "lng": -93.34242
},{
"label": "El Barí 1ra. Sección", "lat": 18.212089, "lng": -94.080293
},{
"label": "Tío Moncho", "lat": 18.291571, "lng": -93.527523
},{
"label": "El Alacrán (Sector Colonia)", "lat": 18.371763, "lng": -93.644761
},{
"label": "Santana 2da. Sección A", "lat": 18.1438, "lng": -93.416451
},{
"label": "Poblado C-16 General Emiliano Zapata Uno", "lat": 18.116019, "lng": -93.513712
},{
"label": "Azucena 3ra. Sección (El Triunfo)", "lat": 18.281081, "lng": -93.684388
},{
"label": "Santana 2da. Sección C", "lat": 18.183486, "lng": -93.440739
},{
"label": "Las Calzadas", "lat": 18.126427, "lng": -93.730987
},{
"label": "Cárdenas", "lat": 17.98943, "lng": -93.376856
},{
"label": "Rubén Jaramillo Lazo", "lat": 18.09158, "lng": -93.370817
},{
"label": "Melchor Ocampo", "lat": 18.032649, "lng": -93.365319
},{
"label": "El Carrizal", "lat": 18.035074, "lng": -93.392659
},{
"label": "Las Coloradas 2da. Sección (Ampliación las Aldeas)", "lat": 18.329299, "lng": -93.54956
},{
"label": "27 de Febrero (Locatarios del Mercado)", "lat": 17.975163, "lng": -93.354503
},{
"label": "El Alacrán (Manatinero)", "lat": 18.364023, "lng": -93.667267
},{
"label": "Las Nuevas Esperanzas", "lat": 17.991863, "lng": -93.563031
},{
"label": "Sección 10 de Azucareros", "lat": 17.953851, "lng": -93.362936
},{
"label": "El Bajío 1ra. Sección", "lat": 17.973081, "lng": -93.359191
},{
"label": "El Mingo", "lat": 18.340606, "lng": -93.542639
},{
"label": "El Bajío 2da. Sección", "lat": 17.967616, "lng": -93.356715
},{
"label": "Coronel Gregorio Méndez Magaña", "lat": 18.315852, "lng": -93.805121
},{
"label": "Coronel Andrés Sánchez Magallanes", "lat": 18.293914, "lng": -93.863451
},{
"label": "Arroyo Hondo Abejonal", "lat": 17.977382, "lng": -93.410425
},{
"label": "Miguel Hidalgo", "lat": 18.145964, "lng": -93.975569
},{
"label": "Benito Juárez (La Playita)", "lat": 17.93311, "lng": -93.365378
},{
"label": "Carlos Alberto Wilson Gómez", "lat": 18.014819, "lng": -93.3303
},{
"label": "Habanero 1ra. Sección", "lat": 17.954674, "lng": -93.307751
},{
"label": "La Esperanza", "lat": 18.049663, "lng": -93.324707
},{
"label": "El Suspiro", "lat": 18.006569, "lng": -93.396693
},{
"label": "Azucena 1ra. Sección", "lat": 18.255838, "lng": -93.618344
},{
"label": "Congregación Reyes Heroles", "lat": 18.188276, "lng": -93.713816
},{
"label": "Poblado C-23 General Venustiano Carranza", "lat": 18.122098, "lng": -93.709196
},{
"label": "Azucena 2da. Sección", "lat": 18.268088, "lng": -93.648746
},{
"label": "El Arrozal", "lat": 18.172584, "lng": -93.9871
},{
"label": "Sinaloa 3ra. Sección", "lat": 18.325015, "lng": -93.734189
},{
"label": "Naranjeño 3ra. Sección", "lat": 18.226988, "lng": -93.664278
},{
"label": "Francisco Trujillo Gurría (San Pedro)", "lat": 18.308292, "lng": -93.551367
},{
"label": "León Pacheco", "lat": 18.027022, "lng": -93.535148
},{
"label": "Poza Redonda 3ra. Sección", "lat": 18.256102, "lng": -93.495056
},{
"label": "Poblado C-22 Licenciado José María Pino Suárez", "lat": 18.067973, "lng": -93.623939
},{
"label": "Celia González de Rovirosa", "lat": 18.058917, "lng": -93.368151
},{
"label": "Poblado C-15 Adolfo López Mateos", "lat": 18.112064, "lng": -93.56404
},{
"label": "Poblado C-17 Independencia", "lat": 18.121129, "lng": -93.449772
},{
"label": "Rodríguez Polanco (Kilómetro Cinco)", "lat": 18.043945, "lng": -93.555369
},{
"label": "Santuario 1ra. Sección", "lat": 18.260927, "lng": -93.51798
},{
"label": "Santuario 2da. Sección", "lat": 18.268937, "lng": -93.493601
},{
"label": "Naranjeño 1ra. Sección (Colonia la Fe)", "lat": 18.213669, "lng": -93.604589
}]