[{
"label": "Occidente 4ta. Sección", "lat": 18.302476, "lng": -93.234537
},{
"label": "Gobernadores", "lat": 18.246952, "lng": -93.185858
},{
"label": "Comalcalco", "lat": 18.266048, "lng": -93.225017
},{
"label": "Arroyo Hondo 1ra. Sección (Guácimo)", "lat": 18.225818, "lng": -93.392641
},{
"label": "Guayo 2da. Sección", "lat": 18.296443, "lng": -93.460483
},{
"label": "Patastal 2da. Sección", "lat": 18.311893, "lng": -93.365793
},{
"label": "Oriente 6ta. Sección (Los Mulatos)", "lat": 18.171306, "lng": -93.233953
},{
"label": "Independencia 1ra. Sección", "lat": 18.296169, "lng": -93.183663
},{
"label": "Oriente 4ta. Sección (Tripa Ciega)", "lat": 18.196845, "lng": -93.229279
},{
"label": "Paso de Cupilco", "lat": 18.262413, "lng": -93.122187
},{
"label": "Arroyo Hondo 2da. Sección", "lat": 18.219274, "lng": -93.417153
},{
"label": "Guatemalán", "lat": 18.210751, "lng": -93.300286
},{
"label": "Arena 2da. Sección", "lat": 18.175026, "lng": -93.400239
},{
"label": "Arena 4ta. Sección", "lat": 18.20462, "lng": -93.390913
},{
"label": "Belisario Domínguez", "lat": 18.294039, "lng": -93.31615
},{
"label": "Reyes Hernández 1ra. Sección", "lat": 18.242278, "lng": -93.27801
},{
"label": "Occidente Villa Aldama", "lat": 18.243152, "lng": -93.367308
},{
"label": "Hermenegildo Galeana", "lat": 18.267971, "lng": -93.455707
},{
"label": "Ignacio Zaragoza 2da. Sección", "lat": 18.31371, "lng": -93.355663
},{
"label": "Lázaro Cárdenas 3ra. Sección", "lat": 18.323962, "lng": -93.417421
},{
"label": "Zapotal 1ra. Sección", "lat": 18.299485, "lng": -93.250346
},{
"label": "Progreso Tular 1ra. Sección", "lat": 18.289037, "lng": -93.390677
},{
"label": "Gregorio Méndez 3ra. Sección", "lat": 18.293886, "lng": -93.299963
},{
"label": "Arena 6ta. Sección (La Bolsa)", "lat": 18.16364, "lng": -93.398509
},{
"label": "Chicozapote", "lat": 18.402514, "lng": -93.381674
},{
"label": "Sur 1ra. Sección", "lat": 18.20529, "lng": -93.237067
},{
"label": "Oriente", "lat": 18.248322, "lng": -93.338079
},{
"label": "Arroyo Hondo 4ta. Sección", "lat": 18.253393, "lng": -93.414269
},{
"label": "Francisco I. Madero 2da. Sección", "lat": 18.266495, "lng": -93.369273
},{
"label": "Norte 1ra. Sección (Buena Vista)", "lat": 18.276608, "lng": -93.204812
},{
"label": "Carlos Greene 2da. Sección", "lat": 18.195306, "lng": -93.447231
},{
"label": "León Zárate 1ra. Sección", "lat": 18.230872, "lng": -93.305584
},{
"label": "Francisco Trujillo Gurría", "lat": 18.213035, "lng": -93.190878
},{
"label": "Oriente 5ta. Sección (La Candelaria)", "lat": 18.217049, "lng": -93.215272
},{
"label": "Ignacio Zaragoza 4ta. Sección (San Andrés)", "lat": 18.330915, "lng": -93.303832
},{
"label": "Tecolutilla (Riberita)", "lat": 18.270233, "lng": -93.332541
},{
"label": "Tránsito Tular", "lat": 18.344563, "lng": -93.407587
},{
"label": "Independencia", "lat": 18.286838, "lng": -93.324354
},{
"label": "Norte 1ra. Sección (San Julián)", "lat": 18.301558, "lng": -93.209094
},{
"label": "Aldama 4ta. Sección (El Naranjito)", "lat": 18.230896, "lng": -93.323553
},{
"label": "Carlos Greene 4ta. Sección", "lat": 18.233996, "lng": -93.430887
},{
"label": "Occidente 1ra. Sección", "lat": 18.309051, "lng": -93.211499
},{
"label": "Gregorio Méndez 4ta. Sección (El Santiago)", "lat": 18.278765, "lng": -93.266043
},{
"label": "Lagartera", "lat": 18.233301, "lng": -93.138133
},{
"label": "Lázaro Cárdenas 2da. Sección (El Retiro)", "lat": 18.322852, "lng": -93.474301
},{
"label": "Sargento López 4ta. Sección", "lat": 18.192413, "lng": -93.307713
},{
"label": "Sur 5ta. Sección", "lat": 18.188585, "lng": -93.234497
},{
"label": "Centro Tular 1ra. Sección", "lat": 18.312233, "lng": -93.385671
},{
"label": "Arena 1ra. Sección", "lat": 18.195432, "lng": -93.374484
},{
"label": "Carlos Greene 3ra. Sección", "lat": 18.240943, "lng": -93.455699
},{
"label": "Oriente 3ra. Sección", "lat": 18.214729, "lng": -93.2089
},{
"label": "Progreso Tular 2da. Sección", "lat": 18.29126, "lng": -93.380599
},{
"label": "Ignacio Zaragoza 1ra. Sección", "lat": 18.334209, "lng": -93.333943
},{
"label": "Occidente 2da. Sección", "lat": 18.313932, "lng": -93.232499
},{
"label": "Aldama 3ra. Sección (Huapacalito)", "lat": 18.230551, "lng": -93.367635
},{
"label": "Carlos Pellicer Cámara", "lat": 18.270957, "lng": -93.144412
},{
"label": "Carlos Greene 1ra. Sección Dos (Colonia Jiménez)", "lat": 18.219674, "lng": -93.439856
},{
"label": "Tecolutilla", "lat": 18.282128, "lng": -93.333085
},{
"label": "Oriente 1ra. Sección", "lat": 18.235477, "lng": -93.193647
},{
"label": "Gregorio Méndez 1ra. Sección", "lat": 18.252404, "lng": -93.266031
},{
"label": "El Ángel", "lat": 18.244243, "lng": -93.196354
},{
"label": "Sargento López 1ra. Sección", "lat": 18.213873, "lng": -93.28085
},{
"label": "Oriente 1ra. Sección (Santo Domingo)", "lat": 18.263706, "lng": -93.202
},{
"label": "Río Playa (Los Pochitoques)", "lat": 18.3319, "lng": -93.299784
},{
"label": "Centro Tular 2da. Sección", "lat": 18.322359, "lng": -93.395623
},{
"label": "Zapotal 2da. Sección", "lat": 18.310467, "lng": -93.262627
},{
"label": "Uspí", "lat": 18.25094, "lng": -93.122063
},{
"label": "Cocohital Dos", "lat": 18.37656, "lng": -93.333267
},{
"label": "Sargento López 3ra. Sección (San Jorge)", "lat": 18.213116, "lng": -93.261568
},{
"label": "Aldama", "lat": 18.240082, "lng": -93.350874
},{
"label": "Champa de Cupilco", "lat": 18.224837, "lng": -93.134349
},{
"label": "Occidente 3ra. Sección", "lat": 18.297225, "lng": -93.214423
},{
"label": "Lázaro Cárdenas 1ra. Sección", "lat": 18.320429, "lng": -93.435393
},{
"label": "Tupilquillo", "lat": 18.286387, "lng": -93.35172
},{
"label": "Sur Aldama", "lat": 18.228614, "lng": -93.344383
},{
"label": "Santa Lucía Chichicapa (Fraccionamiento la Quinta)", "lat": 18.249492, "lng": -93.186482
},{
"label": "Chichicapa Dos", "lat": 18.271741, "lng": -93.189927
},{
"label": "Sur 2da. Sección (La Trinidad)", "lat": 18.170721, "lng": -93.257796
},{
"label": "Cupilco", "lat": 18.237111, "lng": -93.127446
},{
"label": "San Fernando (Pueblo Nuevo)", "lat": 18.308528, "lng": -93.17446
},{
"label": "Ignacio Gutiérrez Gómez", "lat": 18.247209, "lng": -93.397212
},{
"label": "León Zárate 2da. Sección", "lat": 18.224246, "lng": -93.290327
},{
"label": "Betania", "lat": 18.276589, "lng": -93.315862
},{
"label": "Chichicapa", "lat": 18.261389, "lng": -93.181972
},{
"label": "Francisco I. Madero 1ra. Sección", "lat": 18.269728, "lng": -93.364198
},{
"label": "Arena 3ra. Sección", "lat": 18.19963, "lng": -93.403809
},{
"label": "Zapotal 3ra. Sección", "lat": 18.299201, "lng": -93.273306
},{
"label": "Sargento López 2da. Sección (El Chuzo)", "lat": 18.201733, "lng": -93.289137
},{
"label": "Sur 4ta. Sección", "lat": 18.237142, "lng": -93.230237
},{
"label": "Ignacio Zaragoza 3ra. Sección", "lat": 18.370932, "lng": -93.332806
},{
"label": "Carlos Greene", "lat": 18.231098, "lng": -93.452087
},{
"label": "Arroyo Hondo 3ra. Sección", "lat": 18.210403, "lng": -93.419006
},{
"label": "Patastal 3ra. Sección", "lat": 18.357478, "lng": -93.346114
},{
"label": "Jesús Carranza", "lat": 18.241024, "lng": -93.170329
},{
"label": "Carlos Greene 1ra. Sección Tres (Colonia el Limón)", "lat": 18.216803, "lng": -93.456693
},{
"label": "Oriente 2da. Sección (San Cayetano)", "lat": 18.186641, "lng": -93.229616
},{
"label": "Guayo 3ra. Sección", "lat": 18.317319, "lng": -93.455572
},{
"label": "Arena 5ta. Sección", "lat": 18.174223, "lng": -93.418688
},{
"label": "Potrerillo", "lat": 18.252644, "lng": -93.135012
},{
"label": "José María Pino Suárez 2da. Sección", "lat": 18.38303, "lng": -93.378918
},{
"label": "Reyes Hernández 2da. Sección", "lat": 18.236611, "lng": -93.256043
},{
"label": "Gregorio Méndez 2da. Sección", "lat": 18.264914, "lng": -93.295637
},{
"label": "José María Pino Suárez 1ra. Sección", "lat": 18.351817, "lng": -93.381639
},{
"label": "Aldama 2da. Sección (Fernando Segovia)", "lat": 18.233604, "lng": -93.382782
},{
"label": "Patastal 1ra. Sección", "lat": 18.326996, "lng": -93.366576
},{
"label": "Cuxcuxapa", "lat": 18.258953, "lng": -93.147348
},{
"label": "Norte 2da. Sección", "lat": 18.306151, "lng": -93.208557
},{
"label": "Independencia 3ra. Sección", "lat": 18.282381, "lng": -93.172304
},{
"label": "José María Pino Suárez 3ra. Sección (Corinto)", "lat": 18.408283, "lng": -93.390776
},{
"label": "Tío Moncho (Urania Franyutti de Vázquez)", "lat": 18.343764, "lng": -93.336451
},{
"label": "Emiliano Zapata 2da. Sección", "lat": 18.270838, "lng": -93.429943
},{
"label": "Miguel Hidalgo", "lat": 18.253834, "lng": -93.305753
},{
"label": "Guayo 1ra. Sección", "lat": 18.298413, "lng": -93.427687
},{
"label": "Cocohital", "lat": 18.397772, "lng": -93.344966
},{
"label": "Independencia 2da. Sección", "lat": 18.287967, "lng": -93.158688
},{
"label": "Emiliano Zapata 1ra. Sección", "lat": 18.262141, "lng": -93.408103
},{
"label": "Sur 3ra. Sección (El Zapote)", "lat": 18.189518, "lng": -93.260765
},{
"label": "Novillero 4ta. Sección", "lat": 18.245155, "lng": -93.114616
}]