[{
"label": "Astapa", "lat": 17.781998, "lng": -92.849372
},{
"label": "Benito González", "lat": 17.871524, "lng": -92.711427
},{
"label": "San Cristóbal 1ra. Sección", "lat": 17.840034, "lng": -92.69607
},{
"label": "Jesús María", "lat": 17.712444, "lng": -92.809579
},{
"label": "Puyacatengo Sur", "lat": 17.721845, "lng": -92.870209
},{
"label": "El Dorado", "lat": 17.855767, "lng": -92.839369
},{
"label": "Víctor Fernández Manero 2da. Sección (San Miguel)", "lat": 17.864338, "lng": -92.814623
},{
"label": "Aquiles Serdán 2da. Sección", "lat": 17.846117, "lng": -92.738976
},{
"label": "Guanal 2da. Sección", "lat": 17.660184, "lng": -92.854231
},{
"label": "Santo Domingo 2da. Sección", "lat": 17.875635, "lng": -92.742966
},{
"label": "Lomas de Vidal", "lat": 17.832991, "lng": -92.822536
},{
"label": "San Juan el Alto 2da. Sección", "lat": 17.827786, "lng": -92.715365
},{
"label": "Río de Teapa", "lat": 17.77479, "lng": -92.902135
},{
"label": "Emiliano Zapata", "lat": 17.773416, "lng": -92.849333
},{
"label": "Calicanto 1ra. Sección", "lat": 17.649609, "lng": -92.73165
},{
"label": "San Juan el Alto 1ra. Sección", "lat": 17.791727, "lng": -92.715136
},{
"label": "El Cerro", "lat": 17.759152, "lng": -92.70104
},{
"label": "Víctor Fernández Manero 1ra. Sección (San Antonio)", "lat": 17.850988, "lng": -92.816331
},{
"label": "Víctor Fernández Manero 3ra. Sección (San Isidro)", "lat": 17.883142, "lng": -92.81323
},{
"label": "Chipilinar 4ta. Sección", "lat": 17.79826, "lng": -92.780314
},{
"label": "Tequila 1ra. Sección (La Aurora)", "lat": 17.881086, "lng": -92.720878
},{
"label": "Calicanto 3ra. Sección", "lat": 17.721766, "lng": -92.697963
},{
"label": "San Cristóbal 2da. Sección", "lat": 17.860594, "lng": -92.686319
},{
"label": "Jalapa", "lat": 17.719729, "lng": -92.812171
},{
"label": "Huapacal 2da. Sección", "lat": 17.655944, "lng": -92.758996
},{
"label": "Santo Domingo 1ra. Sección (El Llano)", "lat": 17.860653, "lng": -92.784488
},{
"label": "Chipilinar 3ra. Sección", "lat": 17.784021, "lng": -92.765528
},{
"label": "Calicanto (Rinconada)", "lat": 17.685869, "lng": -92.741708
},{
"label": "Chipilinar 1ra. Sección la Lima", "lat": 17.771607, "lng": -92.806476
},{
"label": "Huapacal 1ra. Sección", "lat": 17.669499, "lng": -92.761983
},{
"label": "Aquiles Serdán 3ra. Sección (San Román)", "lat": 17.846329, "lng": -92.761123
},{
"label": "Jahuacapa", "lat": 17.737526, "lng": -92.831436
},{
"label": "San Miguel Adentro 1ra. Sección", "lat": 17.726526, "lng": -92.709428
},{
"label": "Puerto Rico", "lat": 17.82197, "lng": -92.810113
},{
"label": "La Unión (Clavo de la Victoria)", "lat": 17.804575, "lng": -92.851518
},{
"label": "Jahuacapa (Puente Grande)", "lat": 17.753267, "lng": -92.844753
},{
"label": "Montaña", "lat": 17.68329, "lng": -92.809523
},{
"label": "Tequila 3ra. Sección (Independencia)", "lat": 17.909554, "lng": -92.71756
},{
"label": "Chichonal 3ra. Sección (La Capilla)", "lat": 17.771343, "lng": -92.676161
},{
"label": "Guanal 1ra. Sección", "lat": 17.646965, "lng": -92.853394
},{
"label": "Calicanto 2da. Sección", "lat": 17.687229, "lng": -92.703998
},{
"label": "Chipilinar 1ra. Sección", "lat": 17.782607, "lng": -92.778898
},{
"label": "Tequila", "lat": 17.884596, "lng": -92.700614
},{
"label": "San Marcos", "lat": 17.788683, "lng": -92.828619
},{
"label": "Chipilinar 1ra. Sección (Guayacán)", "lat": 17.77398, "lng": -92.781108
},{
"label": "Puyacatengo Norte", "lat": 17.721699, "lng": -92.906678
},{
"label": "Francisco J. Santamaría (Cacao)", "lat": 17.826937, "lng": -92.857178
},{
"label": "Aquiles Serdán 4ta. Sección", "lat": 17.813624, "lng": -92.753591
},{
"label": "San Miguel Adentro 2da. Sección", "lat": 17.744078, "lng": -92.720956
},{
"label": "Progreso", "lat": 17.762193, "lng": -92.853104
},{
"label": "San Miguel Afuera", "lat": 17.751429, "lng": -92.777733
},{
"label": "Aquiles Serdán 1ra. Sección", "lat": 17.824773, "lng": -92.73907
},{
"label": "Tequila 4ta. Sección", "lat": 17.872066, "lng": -92.718233
},{
"label": "Guanal 3ra. Sección (Guanalito)", "lat": 17.696466, "lng": -92.858075
},{
"label": "Chipilinar 2da. Sección (Contreras)", "lat": 17.792913, "lng": -92.793443
},{
"label": "Mérida y Guarumo", "lat": 17.82231, "lng": -92.785301
},{
"label": "Aquiles Serdán 5ta. Sección", "lat": 17.842306, "lng": -92.71215
},{
"label": "Chichonal 2da. Sección", "lat": 17.783746, "lng": -92.69517
},{
"label": "Chichonal 1ra. Sección", "lat": 17.781581, "lng": -92.686797
},{
"label": "Chichonal 4ta. Sección", "lat": 17.800968, "lng": -92.685976
},{
"label": "Tequila 2da. Sección", "lat": 17.903259, "lng": -92.725011
}]