[{
"label": "Oxolotán", "lat": 17.380782, "lng": -92.750003
},{
"label": "La Raya Zaragoza", "lat": 17.404675, "lng": -92.684492
},{
"label": "Lomas Alegres 4ta. Sección (El Hular)", "lat": 17.567718, "lng": -92.661791
},{
"label": "Carlos A. Madrazo", "lat": 17.533341, "lng": -92.598521
},{
"label": "Caridad Guerrero", "lat": 17.410248, "lng": -92.754519
},{
"label": "Mexiquito", "lat": 17.394977, "lng": -92.738416
},{
"label": "Lomas Alegres 2da. Sección (Castañal)", "lat": 17.575145, "lng": -92.610417
},{
"label": "Ceiba 1ra. Sección (Estación Ferrocarril)", "lat": 17.550116, "lng": -92.82212
},{
"label": "Pochitocal 1ra. Sección (Tila y Toronjo)", "lat": 17.624639, "lng": -92.754797
},{
"label": "Cuauhtémoc Barreal", "lat": 17.427284, "lng": -92.722986
},{
"label": "Puxcatán", "lat": 17.451278, "lng": -92.686783
},{
"label": "Nueva Esperanza", "lat": 17.365721, "lng": -92.752315
},{
"label": "El Paraíso", "lat": 17.486118, "lng": -92.668481
},{
"label": "Lomas Alegres 1ra. Sección", "lat": 17.587474, "lng": -92.660133
},{
"label": "División del Norte", "lat": 17.58577, "lng": -92.858476
},{
"label": "Lázaro Cárdenas (Madrigal 3ra. Sección)", "lat": 17.542629, "lng": -92.804034
},{
"label": "Madrigal 4ta. Sección", "lat": 17.508803, "lng": -92.781683
},{
"label": "La Gloria", "lat": 17.538048, "lng": -92.82549
},{
"label": "Emiliano Zapata", "lat": 17.495174, "lng": -92.817947
},{
"label": "Arroyo Ciego 1ra. Sección", "lat": 17.592948, "lng": -92.630574
},{
"label": "Pochitocal 4ta. Sección (San Miguel Juárez)", "lat": 17.613174, "lng": -92.673324
},{
"label": "Zunú y Patastal", "lat": 17.472721, "lng": -92.813126
},{
"label": "Ceiba 2da. Sección (San Luis)", "lat": 17.587994, "lng": -92.849139
},{
"label": "La Raya 1ra. Sección (Dos Patrias)", "lat": 17.604088, "lng": -92.806179
},{
"label": "Ceibita 1ra. Sección", "lat": 17.602572, "lng": -92.840239
},{
"label": "Roberto Madrazo Pintado", "lat": 17.56016, "lng": -92.862834
},{
"label": "Ceibita 2da. Sección", "lat": 17.635648, "lng": -92.855985
},{
"label": "La Raya 2da. Sección (Santa Cruz)", "lat": 17.636335, "lng": -92.787335
},{
"label": "Santa Rosa 2da. Sección (Estación Poaná)", "lat": 17.579666, "lng": -92.750957
},{
"label": "Nuevo Madero", "lat": 17.416921, "lng": -92.755946
},{
"label": "San Antonio Chichilte", "lat": 17.558848, "lng": -92.81104
},{
"label": "Gran Poder", "lat": 17.52486, "lng": -92.637969
},{
"label": "La Raya 1ra. Sección (Nava)", "lat": 17.617998, "lng": -92.777335
},{
"label": "San Lorenzo", "lat": 17.591435, "lng": -92.832869
},{
"label": "Reforma (Madrigal 2da. Sección)", "lat": 17.558343, "lng": -92.802559
},{
"label": "Arroyo Seco Miraflores", "lat": 17.463115, "lng": -92.683251
},{
"label": "Francisco I. Madero 2da. Sección", "lat": 17.38538, "lng": -92.699577
},{
"label": "La Pila", "lat": 17.437909, "lng": -92.75327
},{
"label": "Yajalón Río Seco", "lat": 17.455108, "lng": -92.707372
},{
"label": "Noypac", "lat": 17.423601, "lng": -92.740642
},{
"label": "Pochitocal 3ra. Sección", "lat": 17.641356, "lng": -92.698423
},{
"label": "Lomas Alegres 3ra. Sección (San Antonio)", "lat": 17.589657, "lng": -92.701171
},{
"label": "Guayal", "lat": 17.535833, "lng": -92.599514
},{
"label": "Francisco I. Madero 1ra. Sección", "lat": 17.386324, "lng": -92.726474
},{
"label": "Santa Rosa 1ra. Sección", "lat": 17.577763, "lng": -92.800419
},{
"label": "San Fernando", "lat": 17.582792, "lng": -92.824698
},{
"label": "Puyacatengo 2da. Sección (Ceiba)", "lat": 17.671244, "lng": -92.897283
},{
"label": "Nueva Reforma", "lat": 17.384996, "lng": -92.739094
},{
"label": "Agua Escondida", "lat": 17.509831, "lng": -92.77539
},{
"label": "Cerro Blanco 5ta. Sección", "lat": 17.444314, "lng": -92.812503
},{
"label": "Libertad", "lat": 17.410188, "lng": -92.714569
},{
"label": "San Ramón", "lat": 17.576735, "lng": -92.817906
},{
"label": "La Cuesta", "lat": 17.415174, "lng": -92.785003
},{
"label": "Tapijulapa", "lat": 17.45988, "lng": -92.77897
},{
"label": "Shotal", "lat": 17.351464, "lng": -92.729328
},{
"label": "Madrigal 5ta. Sección", "lat": 17.50783, "lng": -92.820211
},{
"label": "Pomoca", "lat": 17.500153, "lng": -92.657658
},{
"label": "Arroyo Chispa", "lat": 17.445645, "lng": -92.760995
},{
"label": "Pochitocal 1ra. Sección (La Palma)", "lat": 17.629283, "lng": -92.744758
},{
"label": "Palo Quemado", "lat": 17.415578, "lng": -92.843372
},{
"label": "Poaná", "lat": 17.54684, "lng": -92.749915
},{
"label": "Tomás Garrido Canabal", "lat": 17.359545, "lng": -92.728478
},{
"label": "Pochitocal 2da. Sección", "lat": 17.609026, "lng": -92.687401
},{
"label": "Cerro Blanco 3ra. Sección", "lat": 17.432944, "lng": -92.808238
},{
"label": "Villa Luz", "lat": 17.442149, "lng": -92.764919
},{
"label": "Graciano Sánchez", "lat": 17.497528, "lng": -92.800781
},{
"label": "Vanarrico Cuatro", "lat": 17.57687, "lng": -92.824561
},{
"label": "Buena Vista 1ra. Sección", "lat": 17.393381, "lng": -92.757786
},{
"label": "Buenos Aires", "lat": 17.361747, "lng": -92.710653
},{
"label": "Cuviac", "lat": 17.397666, "lng": -92.733087
},{
"label": "San José del Porvenir", "lat": 17.566754, "lng": -92.820804
},{
"label": "Puyacatengo 1ra. Sección (Ceiba)", "lat": 17.63518, "lng": -92.890842
},{
"label": "José María Morelos y Pavón", "lat": 17.595808, "lng": -92.614151
},{
"label": "La Cumbre", "lat": 17.438604, "lng": -92.734535
},{
"label": "Pasamonos", "lat": 17.545944, "lng": -92.625162
},{
"label": "La Esperanza", "lat": 17.444496, "lng": -92.707585
},{
"label": "Xicoténcatl", "lat": 17.517026, "lng": -92.704674
},{
"label": "Cuitláhuac", "lat": 17.35603, "lng": -92.729973
},{
"label": "Morelia", "lat": 17.63229, "lng": -92.81553
},{
"label": "La Trinidad", "lat": 17.565585, "lng": -92.856192
},{
"label": "Cerro Blanco 1ra. Sección", "lat": 17.422222, "lng": -92.784444
},{
"label": "Cerro Blanco 2da. Sección", "lat": 17.421207, "lng": -92.79447
},{
"label": "Pomoquita", "lat": 17.372218, "lng": -92.728907
},{
"label": "San Manuel", "lat": 17.501871, "lng": -92.758919
},{
"label": "Benito Juárez", "lat": 17.380123, "lng": -92.71686
},{
"label": "Rancho Nuevo", "lat": 17.636724, "lng": -92.817143
},{
"label": "Tacotalpa", "lat": 17.591793, "lng": -92.826284
},{
"label": "Agua Blanca", "lat": 17.485579, "lng": -92.621451
},{
"label": "Cerro Blanco 4ta. Sección", "lat": 17.430229, "lng": -92.812244
},{
"label": "El Limón", "lat": 17.57018, "lng": -92.578826
}]