[{
"label": "Rancho Rinconada los Truenos", "lat": 20.724955, "lng": -99.953462
},{
"label": "Rancho el Seis", "lat": 20.666341, "lng": -99.921358
},{
"label": "Las Fuentes [Fraccionamiento]", "lat": 20.65248, "lng": -99.904894
},{
"label": "Rancho el Socorro (Familia Quijada González)", "lat": 20.66058, "lng": -99.937697
},{
"label": "Ejido de Villa Progreso", "lat": 20.621667, "lng": -99.809706
},{
"label": "Familia Reséndiz Reséndiz", "lat": 20.672776, "lng": -99.941798
},{
"label": "Sección Sur de Villa Progreso", "lat": 20.630099, "lng": -99.837814
},{
"label": "Ejido Arroyo Colorado (Familia González Reséndiz)", "lat": 20.647336, "lng": -99.866044
},{
"label": "La Mejor [Granja]", "lat": 20.641071, "lng": -99.913581
},{
"label": "Rancho los Canarios", "lat": 20.64435, "lng": -99.910559
},{
"label": "Familia Montes Hernández", "lat": 20.670121, "lng": -99.947762
},{
"label": "Rancho San Isidro (Familia Dorantes)", "lat": 20.652026, "lng": -99.925502
},{
"label": "Familia Hernández", "lat": 20.666731, "lng": -99.938003
},{
"label": "Rancho Fracción de San Antonio", "lat": 20.643714, "lng": -99.930617
},{
"label": "Familia Vega Soto", "lat": 20.66456, "lng": -99.949412
},{
"label": "Rancho el Milagro (Familia Reséndiz Vega)", "lat": 20.627694, "lng": -99.932107
},{
"label": "Sombrerete", "lat": 20.580925, "lng": -99.818767
},{
"label": "Las Rosas", "lat": 20.564314, "lng": -99.75171
},{
"label": "La Poza (La Parada del Puerto)", "lat": 20.71023, "lng": -99.85436
},{
"label": "Rancho la Puerta de San José", "lat": 20.632075, "lng": -99.875492
},{
"label": "La Higuera", "lat": 20.569535, "lng": -99.84103
},{
"label": "Familia Cruz Aguilar (El Coyote)", "lat": 20.589427, "lng": -99.819942
},{
"label": "Rancho el Parral", "lat": 20.632426, "lng": -99.897366
},{
"label": "La Propiedad (Campamento Palabra de Vida)", "lat": 20.735, "lng": -99.948333
},{
"label": "Tiopiztlán", "lat": 20.752393, "lng": -99.910907
},{
"label": "Bernal", "lat": 20.740444, "lng": -99.94109
},{
"label": "El Zocoyote", "lat": 20.642447, "lng": -99.872446
},{
"label": "Rancho Santa Teresa", "lat": 20.642988, "lng": -99.871855
},{
"label": "Rancho el Rocío", "lat": 20.640669, "lng": -99.916418
},{
"label": "Rancho la Eria", "lat": 20.628788, "lng": -99.914028
},{
"label": "Rancho Don Juan", "lat": 20.646651, "lng": -99.883305
},{
"label": "El Ordaz (Familia Arteaga Ávila)", "lat": 20.656953, "lng": -99.940835
},{
"label": "Rancho el Berrendo", "lat": 20.732052, "lng": -99.957938
},{
"label": "Villa Nueva", "lat": 20.648803, "lng": -99.871691
},{
"label": "Exhacienda de los Charcos", "lat": 20.576499, "lng": -99.793811
},{
"label": "Rancho el Papalote", "lat": 20.71443, "lng": -99.949781
},{
"label": "Rancho Taurino", "lat": 20.686006, "lng": -99.916833
},{
"label": "Rancho los Feregrino", "lat": 20.724119, "lng": -99.907153
},{
"label": "Ejido Arroyo Colorado", "lat": 20.652357, "lng": -99.875484
},{
"label": "Barrio Alto", "lat": 20.662789, "lng": -99.853606
},{
"label": "Ejido los Pérez", "lat": 20.690895, "lng": -99.881528
},{
"label": "Cerritos Barrio San Miguel", "lat": 20.635241, "lng": -99.821057
},{
"label": "Los Joseses [Granja]", "lat": 20.668182, "lng": -99.942832
},{
"label": "Ezequiel Montes", "lat": 20.665295, "lng": -99.898406
},{
"label": "Campestre los Arcos [Residencial]", "lat": 20.640196, "lng": -99.910287
},{
"label": "Rancho el Vergel", "lat": 20.668067, "lng": -99.867344
},{
"label": "Los Eucaliptos [Vinícola]", "lat": 20.634214, "lng": -99.872234
},{
"label": "Hacienda Mexicana los Aztecas", "lat": 20.694466, "lng": -99.869965
},{
"label": "La Nueva Unidad Cardenista", "lat": 20.650488, "lng": -99.869387
},{
"label": "Rancho el Porvenir", "lat": 20.660152, "lng": -99.909138
},{
"label": "San Antonio [Granja]", "lat": 20.654991, "lng": -99.859488
},{
"label": "Las Camelinas", "lat": 20.688649, "lng": -99.890688
},{
"label": "La Poma", "lat": 20.692623, "lng": -99.895675
},{
"label": "Rancho las Coronelas", "lat": 20.601966, "lng": -99.847276
},{
"label": "Rancho los Camacho", "lat": 20.694731, "lng": -99.898866
},{
"label": "Familia Martínez Hernández (Los Soto)", "lat": 20.702829, "lng": -99.920166
},{
"label": "El Sindicato", "lat": 20.657107, "lng": -99.883056
},{
"label": "Loma Alta", "lat": 20.651552, "lng": -99.849551
},{
"label": "Loberas", "lat": 20.615641, "lng": -99.791988
},{
"label": "Tasbatá", "lat": 20.713539, "lng": -99.916341
},{
"label": "H. Ferrocarrileros [Fraccionamiento]", "lat": 20.687655, "lng": -99.950622
},{
"label": "Rancho el Romani", "lat": 20.673106, "lng": -99.931577
},{
"label": "La Redonda de Abajo (Familia Montes Rubio)", "lat": 20.636067, "lng": -99.915139
},{
"label": "Familia Arellano Hernández", "lat": 20.657205, "lng": -99.907599
},{
"label": "Familia León Ocampo", "lat": 20.664963, "lng": -99.946979
},{
"label": "Rancho el Cacahuate", "lat": 20.620096, "lng": -99.898635
},{
"label": "Familia Martínez Martínez", "lat": 20.695181, "lng": -99.9064
},{
"label": "Reynaldo Vega [Establo]", "lat": 20.659424, "lng": -99.857183
},{
"label": "Rancho los Cadetes", "lat": 20.691789, "lng": -99.94676
},{
"label": "Familia Camacho", "lat": 20.660551, "lng": -99.953167
},{
"label": "Familia Cabrera Ramírez", "lat": 20.64952, "lng": -99.957128
},{
"label": "Familia Pérez", "lat": 20.633078, "lng": -99.928157
},{
"label": "Embuja", "lat": 20.64862, "lng": -99.837256
},{
"label": "Guanajuatito", "lat": 20.65679, "lng": -99.821402
},{
"label": "Barrio Nuevo Bernal (Macho Viejo)", "lat": 20.741166, "lng": -99.930274
},{
"label": "Rancho el Socorro", "lat": 20.661581, "lng": -99.935176
},{
"label": "Arboledas", "lat": 20.657291, "lng": -99.885782
},{
"label": "Rancho la Caja", "lat": 20.743496, "lng": -99.87653
},{
"label": "Rancho la Querencia", "lat": 20.697856, "lng": -99.882303
},{
"label": "Freixenet de México [Vinícola]", "lat": 20.697377, "lng": -99.877421
},{
"label": "El Paraiso", "lat": 20.686621, "lng": -99.883973
},{
"label": "Rancho el Forastero", "lat": 20.645695, "lng": -99.925491
},{
"label": "Rancho el Queretano", "lat": 20.636962, "lng": -99.886287
},{
"label": "La Redonda de Abajo [Granja]", "lat": 20.638168, "lng": -99.90103
},{
"label": "Mina la Fe", "lat": 20.6132, "lng": -99.900216
},{
"label": "Familia Ramírez Barrón", "lat": 20.688709, "lng": -99.880792
},{
"label": "La Redonda", "lat": 20.645175, "lng": -99.897306
},{
"label": "La Mina Colorada", "lat": 20.629865, "lng": -99.82988
},{
"label": "Barreras", "lat": 20.660171, "lng": -99.817124
},{
"label": "Jardines de la Peña", "lat": 20.724183, "lng": -99.955389
},{
"label": "Rancho San Sebastián (Loma Buenos Aires)", "lat": 20.694984, "lng": -99.935613
},{
"label": "Rancho el Sauz", "lat": 20.63794, "lng": -99.915616
},{
"label": "Rancho la Coneja", "lat": 20.729491, "lng": -99.930168
},{
"label": "La Nueva Unidad", "lat": 20.651691, "lng": -99.860771
},{
"label": "Villa Progreso", "lat": 20.642581, "lng": -99.835163
},{
"label": "Rancho San Carlos", "lat": 20.685398, "lng": -99.940106
},{
"label": "Los Arroyitos (La Candela)", "lat": 20.746875, "lng": -99.938868
},{
"label": "Vergel de la Peña", "lat": 20.729558, "lng": -99.954438
},{
"label": "Rancho Juan Carlos", "lat": 20.715811, "lng": -99.85646
},{
"label": "Nuevo Rancho Guadalupe", "lat": 20.683767, "lng": -99.937297
},{
"label": "La Cruz [Colonia]", "lat": 20.63092, "lng": -99.855776
},{
"label": "Valle Colorado", "lat": 20.655, "lng": -99.877778
},{
"label": "Rancho Arvizu Dorantes", "lat": 20.700882, "lng": -99.873642
},{
"label": "Las Flores", "lat": 20.656643, "lng": -99.880495
},{
"label": "Rancho San Andrés", "lat": 20.650251, "lng": -99.940274
},{
"label": "Rancho el Depósito", "lat": 20.660113, "lng": -99.915111
},{
"label": "San José del Jagüey", "lat": 20.737298, "lng": -99.924371
},{
"label": "Rancho el Capricho", "lat": 20.637529, "lng": -99.919694
},{
"label": "La Redonda [Granja]", "lat": 20.62631, "lng": -99.911393
},{
"label": "Montequis las Coloradas [Fraccionamiento]", "lat": 20.642149, "lng": -99.909332
},{
"label": "Familia Pérez Vega", "lat": 20.660958, "lng": -99.951694
},{
"label": "El Coyote", "lat": 20.59677, "lng": -99.829953
},{
"label": "Rancho el Carrizal", "lat": 20.719705, "lng": -99.900379
},{
"label": "Rancho Cartujano", "lat": 20.668513, "lng": -99.853155
},{
"label": "La Soledad", "lat": 20.642235, "lng": -99.899281
},{
"label": "El Chamizal [Granja]", "lat": 20.658283, "lng": -99.855319
},{
"label": "Rancho el Bondotal", "lat": 20.667241, "lng": -99.865019
},{
"label": "Los Ramírez", "lat": 20.62927, "lng": -99.81566
},{
"label": "Rancho la Purísima", "lat": 20.679532, "lng": -99.915436
},{
"label": "La Luna", "lat": 20.65711, "lng": -99.861648
},{
"label": "Rancho Tasdejé", "lat": 20.622249, "lng": -99.833282
},{
"label": "El Ordaz (Familia Hernández Hernández)", "lat": 20.663274, "lng": -99.943233
},{
"label": "Rancho los Encinos", "lat": 20.697571, "lng": -99.894345
},{
"label": "Rancho los Olivos", "lat": 20.645106, "lng": -99.887629
},{
"label": "Acceso a Piedras Negras", "lat": 20.638639, "lng": -99.953077
},{
"label": "Miramar [Granja]", "lat": 20.658712, "lng": -99.880523
},{
"label": "Rancho el Tampiqueño", "lat": 20.66482, "lng": -99.853698
},{
"label": "Rancho la Palma", "lat": 20.758493, "lng": -99.900777
},{
"label": "El Bondotal", "lat": 20.593073, "lng": -99.791525
},{
"label": "Santa Lucía", "lat": 20.651211, "lng": -99.871405
},{
"label": "Rancho los Antonios", "lat": 20.669647, "lng": -99.862912
},{
"label": "Cortijo de San Rafael", "lat": 20.63066, "lng": -99.913713
},{
"label": "El Jagüey Grande", "lat": 20.729054, "lng": -99.913685
},{
"label": "Rancho la Divina Providencia", "lat": 20.7012, "lng": -99.887302
},{
"label": "El Cerrito", "lat": 20.680929, "lng": -99.918804
},{
"label": "Rancho Quemado", "lat": 20.678599, "lng": -99.874262
},{
"label": "El Cachito [Granja]", "lat": 20.639113, "lng": -99.914068
},{
"label": "Familia Ángeles Madariaga (Las Granjas)", "lat": 20.643433, "lng": -99.894546
},{
"label": "Rancho la Esperanza", "lat": 20.666875, "lng": -99.912676
},{
"label": "Rancho el Machorril", "lat": 20.696578, "lng": -99.914648
},{
"label": "Rancho el Bellorín", "lat": 20.693171, "lng": -99.923061
},{
"label": "El Campo del Diablo", "lat": 20.545706, "lng": -99.807233
},{
"label": "La Providencia (Las Norbertas)", "lat": 20.656141, "lng": -99.886665
},{
"label": "Rancho el Calabozo", "lat": 20.652826, "lng": -99.881116
},{
"label": "Tunas Blancas", "lat": 20.712773, "lng": -99.876393
},{
"label": "Piedras Negras", "lat": 20.635028, "lng": -99.949405
},{
"label": "Familia Hernández Lomas", "lat": 20.66051, "lng": -99.947379
},{
"label": "Casa de Madera", "lat": 20.719517, "lng": -99.891359
},{
"label": "Los Sánchez", "lat": 20.6775, "lng": -99.936667
},{
"label": "Familia Montes", "lat": 20.67332, "lng": -99.935909
},{
"label": "San Antonio", "lat": 20.630925, "lng": -99.944807
},{
"label": "Rancho los Cuates", "lat": 20.686684, "lng": -99.91331
},{
"label": "Cerro Chiquito", "lat": 20.626477, "lng": -99.832048
},{
"label": "Rancho Bordo Largo", "lat": 20.722916, "lng": -99.958494
},{
"label": "Quinta Lupita", "lat": 20.632468, "lng": -99.913039
},{
"label": "Rancho Xisdá", "lat": 20.736181, "lng": -99.908551
},{
"label": "Alfredo V. Bonfil (Los Pérez)", "lat": 20.693386, "lng": -99.877917
},{
"label": "Rancho la Soledad", "lat": 20.650121, "lng": -99.891785
},{
"label": "Unidad de Engorda del Ejido", "lat": 20.560733, "lng": -99.858791
},{
"label": "El Cardonal (La Tijera)", "lat": 20.633089, "lng": -99.919236
},{
"label": "El Fresno", "lat": 20.683053, "lng": -99.917704
},{
"label": "Rancho San Cristobal", "lat": 20.678146, "lng": -99.887464
},{
"label": "Giuliana [Granja]", "lat": 20.682578, "lng": -99.915061
},{
"label": "Familia Aguilar Martínez", "lat": 20.688404, "lng": -99.920463
},{
"label": "La Lomita", "lat": 20.682278, "lng": -99.93277
},{
"label": "La Peña [Parque Industrial]", "lat": 20.685495, "lng": -99.941785
},{
"label": "La Laguna", "lat": 20.594912, "lng": -99.83161
},{
"label": "Palo Seco", "lat": 20.648443, "lng": -99.971983
},{
"label": "El Coyote [Granja]", "lat": 20.589167, "lng": -99.828958
},{
"label": "La Redonda (Familia Montes Vega)", "lat": 20.645757, "lng": -99.904997
},{
"label": "Rancho San José de Guadalupe", "lat": 20.684167, "lng": -99.913721
},{
"label": "Rancho Noche Buena", "lat": 20.683323, "lng": -99.91515
},{
"label": "Familia Montes Trejo", "lat": 20.644248, "lng": -99.889903
},{
"label": "Famila Jiménez Aguirre", "lat": 20.602755, "lng": -99.878365
},{
"label": "Rancho el Milagro", "lat": 20.68668, "lng": -99.915342
},{
"label": "Rancho el Tical", "lat": 20.637294, "lng": -99.868433
},{
"label": "Rancho el Gallo Giro", "lat": 20.695853, "lng": -99.86732
},{
"label": "Rancho Santa Elena (Familia Moreno)", "lat": 20.660248, "lng": -99.962976
},{
"label": "Familia Ángeles", "lat": 20.651353, "lng": -99.943194
},{
"label": "La Purísima", "lat": 20.674397, "lng": -99.913464
},{
"label": "Rancho Bothijí", "lat": 20.687843, "lng": -99.868505
},{
"label": "El Ciervo", "lat": 20.61845, "lng": -99.87203
},{
"label": "Rancho San Isidro (Familia Montes Palomino)", "lat": 20.664494, "lng": -99.928468
},{
"label": "Los Zarazuas", "lat": 20.698363, "lng": -99.910788
},{
"label": "Proyecto de Vida IAP [Casa Hogar]", "lat": 20.636326, "lng": -99.857104
},{
"label": "Rancho Daniela", "lat": 20.646043, "lng": -99.891471
},{
"label": "Familia Padilla Sagaz", "lat": 20.671183, "lng": -99.946034
},{
"label": "Familia Martínez Reyes", "lat": 20.676164, "lng": -99.942819
},{
"label": "Buenos Aires [Granja]", "lat": 20.71565, "lng": -99.934425
},{
"label": "Rancho las Coloradas", "lat": 20.652197, "lng": -99.909874
},{
"label": "La Palma [Granja]", "lat": 20.686509, "lng": -99.877584
},{
"label": "Rancho Altamira (Los Soto)", "lat": 20.698141, "lng": -99.918549
},{
"label": "Rancho Santa Cruz", "lat": 20.56971, "lng": -99.76527
},{
"label": "San Joaquín [Balneario]", "lat": 20.637175, "lng": -99.909536
},{
"label": "Loma Dorada", "lat": 20.693411, "lng": -99.898984
},{
"label": "Barajas [Mina]", "lat": 20.57588, "lng": -99.780691
},{
"label": "Rancho Arroyo Negro", "lat": 20.696119, "lng": -99.88873
},{
"label": "La Sala", "lat": 20.691018, "lng": -99.899926
},{
"label": "San José de los Trejo (Las Adelitas)", "lat": 20.589481, "lng": -99.844467
},{
"label": "Rancho San Antonio", "lat": 20.641606, "lng": -99.939985
},{
"label": "Rancho la Divina Ilusión", "lat": 20.654384, "lng": -99.922323
},{
"label": "Rancho el Ciprés", "lat": 20.719398, "lng": -99.93048
},{
"label": "Familia Bárcenas", "lat": 20.656222, "lng": -99.857289
},{
"label": "Nutri SOW [Industria]", "lat": 20.630377, "lng": -99.910653
},{
"label": "El Ordaz", "lat": 20.662264, "lng": -99.939379
},{
"label": "El Conquistador [Club Deportivo]", "lat": 20.604177, "lng": -99.825562
},{
"label": "La Ermita", "lat": 20.644761, "lng": -99.853573
},{
"label": "Cadereyta [Parque Industrial]", "lat": 20.710805, "lng": -99.847201
},{
"label": "Rancho San Isidro (Familia Montes)", "lat": 20.662459, "lng": -99.925788
},{
"label": "La Esperanza", "lat": 20.561483, "lng": -99.764548
},{
"label": "Familia Cruz Martínez", "lat": 20.683089, "lng": -99.901168
},{
"label": "El Aguacate", "lat": 20.559725, "lng": -99.77641
},{
"label": "Barrio el Puerto", "lat": 20.746607, "lng": -99.949923
},{
"label": "Cal los Arcos [Industria]", "lat": 20.749681, "lng": -99.929549
},{
"label": "Hacienda Real la Nogalera", "lat": 20.561629, "lng": -99.738847
},{
"label": "Los Cuates", "lat": 20.689134, "lng": -99.915879
},{
"label": "Rancho el Paraíso", "lat": 20.62706, "lng": -99.892417
},{
"label": "Familia Montes Feregrino", "lat": 20.642617, "lng": -99.888894
},{
"label": "Bothijí [Avícola]", "lat": 20.669026, "lng": -99.876137
},{
"label": "Rancho Blanquita", "lat": 20.668937, "lng": -99.93509
},{
"label": "Rancho San Pedro III", "lat": 20.712412, "lng": -99.917225
}]