[{
"label": "El Arte", "lat": 21.070278, "lng": -99.924444
},{
"label": "El Nogalito", "lat": 21.156958, "lng": -99.959705
},{
"label": "El Pajarito", "lat": 21.088766, "lng": -99.958702
},{
"label": "El Paraíso", "lat": 21.015254, "lng": -99.706845
},{
"label": "El Sauz", "lat": 21.031992, "lng": -99.751328
},{
"label": "Puerto del Ojo de Agua", "lat": 21.105403, "lng": -99.812362
},{
"label": "Cuesta del Vino", "lat": 20.973563, "lng": -99.73797
},{
"label": "La Estancia", "lat": 21.044222, "lng": -99.766919
},{
"label": "La Curva", "lat": 21.201165, "lng": -99.733199
},{
"label": "San Juanico", "lat": 21.057202, "lng": -99.803195
},{
"label": "Puerto del Aire", "lat": 21.06728, "lng": -99.976486
},{
"label": "Pueblo Nuevo", "lat": 21.170108, "lng": -99.792368
},{
"label": "La Concentradora (Milpa Larga)", "lat": 21.198249, "lng": -99.73266
},{
"label": "Las Mesas", "lat": 21.116406, "lng": -99.814759
},{
"label": "La Alcaparosa", "lat": 21.080553, "lng": -99.940169
},{
"label": "La Colonia Tres", "lat": 21.1126, "lng": -99.910652
},{
"label": "Morenos", "lat": 21.0499, "lng": -99.797864
},{
"label": "La Liga", "lat": 21.224817, "lng": -99.740776
},{
"label": "El Amargoso", "lat": 21.103363, "lng": -99.859092
},{
"label": "Las Enramadas", "lat": 21.031992, "lng": -99.757868
},{
"label": "La Estacada (Cruz del Milagro)", "lat": 21.084925, "lng": -99.958133
},{
"label": "La Higuera", "lat": 21.000887, "lng": -99.72657
},{
"label": "El Carricillo", "lat": 21.077842, "lng": -99.819485
},{
"label": "El Saucillo", "lat": 21.077695, "lng": -99.831342
},{
"label": "San Lorenzo", "lat": 21.040416, "lng": -99.76966
},{
"label": "El Alamito", "lat": 21.111694, "lng": -99.895526
},{
"label": "El Frontoncillo", "lat": 21.110851, "lng": -99.883317
},{
"label": "El Guamúchil", "lat": 21.044043, "lng": -99.842458
},{
"label": "Adjuntas de Higueras", "lat": 20.997649, "lng": -99.703581
},{
"label": "Los Pleitos", "lat": 21.215445, "lng": -99.738843
},{
"label": "La Escondida", "lat": 21.083704, "lng": -99.942189
},{
"label": "La Plazuela", "lat": 21.058541, "lng": -99.700507
},{
"label": "El Pitahayo", "lat": 21.044475, "lng": -99.835178
},{
"label": "Puerto de Santa María", "lat": 21.118919, "lng": -99.906908
},{
"label": "La Era", "lat": 21.093271, "lng": -99.960505
},{
"label": "El Álamo", "lat": 21.039072, "lng": -99.798403
},{
"label": "El Plan", "lat": 21.203173, "lng": -99.743569
},{
"label": "Mentiras", "lat": 21.112247, "lng": -99.78007
},{
"label": "Miranda", "lat": 21.078393, "lng": -99.927775
},{
"label": "La Cuisha", "lat": 21.043196, "lng": -99.766522
},{
"label": "Puerto Rico", "lat": 21.061709, "lng": -99.807393
},{
"label": "Los Llanos de Buenavista", "lat": 21.13951, "lng": -99.868163
},{
"label": "Peñamiller", "lat": 21.053631, "lng": -99.814526
},{
"label": "La Pindonga", "lat": 21.043631, "lng": -99.840468
},{
"label": "Cuesta de los Ibarra", "lat": 21.146206, "lng": -99.837704
},{
"label": "San Miguel Palmas (Misión de Palmas)", "lat": 21.099572, "lng": -99.963243
},{
"label": "Las Camelinas", "lat": 21.106331, "lng": -99.980091
},{
"label": "El Ojo de Agua", "lat": 21.106942, "lng": -99.92564
},{
"label": "El Portugués", "lat": 21.130388, "lng": -99.842437
},{
"label": "El Encino", "lat": 21.138776, "lng": -99.826652
},{
"label": "El Moral", "lat": 21.071944, "lng": -99.681111
},{
"label": "Puerto del Cobre", "lat": 21.123173, "lng": -99.817703
},{
"label": "Solidaridad", "lat": 20.977958, "lng": -99.746496
},{
"label": "Boquillas", "lat": 21.117818, "lng": -99.914397
},{
"label": "Maguey Verde", "lat": 21.0971, "lng": -99.694968
},{
"label": "Río Blanco", "lat": 21.207806, "lng": -99.737477
},{
"label": "Peña Blanca", "lat": 21.039765, "lng": -99.731746
},{
"label": "La Paz", "lat": 21.065063, "lng": -99.775201
},{
"label": "El Pozo (Familia Aguilar)", "lat": 21.049705, "lng": -99.817833
},{
"label": "Puerto del Ahorcado", "lat": 21.064865, "lng": -99.818231
},{
"label": "El Torbellino", "lat": 21.163769, "lng": -99.872191
},{
"label": "Milpillas", "lat": 21.112044, "lng": -99.766134
},{
"label": "El Aguacatito", "lat": 21.071557, "lng": -99.818254
},{
"label": "El Comedero", "lat": 21.164873, "lng": -99.946076
},{
"label": "La Yerbabuena", "lat": 21.159812, "lng": -99.972265
},{
"label": "Las Águilas", "lat": 21.057089, "lng": -99.794063
},{
"label": "El Piloncillo (El Puente)", "lat": 21.091211, "lng": -99.956571
},{
"label": "Piedra Grande", "lat": 21.047057, "lng": -99.826608
},{
"label": "La Nopalera", "lat": 21.089539, "lng": -99.69806
},{
"label": "El Eucalipto (Familia Botello)", "lat": 21.067688, "lng": -99.923139
},{
"label": "Villa Emiliano Zapata (Extoraz)", "lat": 21.033917, "lng": -99.778564
},{
"label": "El Limón", "lat": 21.047463, "lng": -99.820968
},{
"label": "El Ardillero", "lat": 21.032048, "lng": -99.745607
},{
"label": "El Aguaje", "lat": 21.138891, "lng": -99.882815
},{
"label": "El Higuerón", "lat": 21.120963, "lng": -99.999746
},{
"label": "El Lindero", "lat": 21.093996, "lng": -99.851843
},{
"label": "Santa Ana", "lat": 21.208036, "lng": -99.719787
},{
"label": "Sebastianes", "lat": 21.058611, "lng": -99.809722
},{
"label": "El Saucito I", "lat": 21.149439, "lng": -99.920451
},{
"label": "Puerto Blanco", "lat": 21.069868, "lng": -99.693171
},{
"label": "Las Mesitas", "lat": 21.161609, "lng": -99.803922
},{
"label": "Cruz de Orozco", "lat": 21.174169, "lng": -99.969493
},{
"label": "La Zancona", "lat": 21.146879, "lng": -99.866426
},{
"label": "La Ordeña", "lat": 21.126399, "lng": -100.012566
},{
"label": "Agua Fría", "lat": 21.155977, "lng": -99.797589
},{
"label": "Vista Alegre", "lat": 21.058426, "lng": -99.795403
},{
"label": "Los Álamos", "lat": 21.128251, "lng": -99.927292
},{
"label": "Milpa Blanca", "lat": 21.083931, "lng": -99.986987
},{
"label": "Los Cuartos (El Salado)", "lat": 21.066111, "lng": -99.9275
},{
"label": "La Tinaja", "lat": 21.045045, "lng": -99.880662
},{
"label": "Cruz del Milagro", "lat": 21.083889, "lng": -99.948611
},{
"label": "La Vega (Las Vegas)", "lat": 21.036419, "lng": -99.773474
},{
"label": "La Colonia II", "lat": 21.103861, "lng": -99.964007
},{
"label": "Los Encinos", "lat": 21.131676, "lng": -99.753396
},{
"label": "Salinas", "lat": 21.048178, "lng": -99.97948
},{
"label": "Corral Viejo", "lat": 21.144519, "lng": -99.854081
},{
"label": "El Motoshí (La Paz)", "lat": 21.058441, "lng": -99.778533
},{
"label": "Adjuntas de los Gullén", "lat": 21.041667, "lng": -99.863611
},{
"label": "Panales", "lat": 21.074102, "lng": -99.819522
},{
"label": "Cuesta Colorada", "lat": 21.102321, "lng": -99.710889
},{
"label": "El Campamento", "lat": 21.035906, "lng": -99.735948
},{
"label": "El Cajón", "lat": 21.098423, "lng": -99.851979
},{
"label": "Los Morales", "lat": 21.051266, "lng": -99.704628
},{
"label": "El Puerto de la Guitarra", "lat": 21.032988, "lng": -99.734042
},{
"label": "Cerro Colorado", "lat": 21.146251, "lng": -99.939716
},{
"label": "El Tequezquite", "lat": 21.084627, "lng": -99.926867
},{
"label": "Mesa del Troje", "lat": 21.077565, "lng": -99.98278
},{
"label": "Los Cerritos", "lat": 21.133354, "lng": -99.871223
},{
"label": "Agua de Pedro", "lat": 21.123308, "lng": -99.805231
},{
"label": "Los Orozco", "lat": 21.18, "lng": -99.970833
},{
"label": "El Garambullal", "lat": 21.044693, "lng": -99.769521
},{
"label": "La Ciénega", "lat": 21.080037, "lng": -100.010699
},{
"label": "Molinitos (El Molino)", "lat": 21.177847, "lng": -99.981671
},{
"label": "El Salado", "lat": 21.043714, "lng": -99.849968
},{
"label": "El Magueyal (Cuesta de los Ibarra)", "lat": 21.151231, "lng": -99.834765
},{
"label": "Loma Blanca", "lat": 21.150933, "lng": -99.852825
},{
"label": "El Cantoncito", "lat": 21.171762, "lng": -99.722644
},{
"label": "El Carrizal", "lat": 21.057753, "lng": -99.910644
},{
"label": "Aposentos", "lat": 21.071161, "lng": -99.820059
},{
"label": "Agua de Ángel", "lat": 20.952538, "lng": -99.732784
},{
"label": "La Ladera", "lat": 21.11259, "lng": -99.816699
},{
"label": "El Durazno", "lat": 21.206133, "lng": -99.720987
},{
"label": "La Reforma", "lat": 21.097222, "lng": -99.961111
},{
"label": "Alto Bonito", "lat": 21.143436, "lng": -99.845949
},{
"label": "El Saucito II", "lat": 21.114955, "lng": -99.848116
},{
"label": "La Colonia I", "lat": 21.031639, "lng": -99.739128
},{
"label": "El Carrizalillo", "lat": 21.106276, "lng": -99.864039
},{
"label": "Puerto Amarillo", "lat": 21.060716, "lng": -99.802489
},{
"label": "La Ermita", "lat": 21.183466, "lng": -99.759705
},{
"label": "Los Ocotes", "lat": 21.193939, "lng": -99.94692
},{
"label": "La Tecozautla", "lat": 21.134787, "lng": -99.862143
},{
"label": "El Tepozán", "lat": 21.184257, "lng": -99.990883
},{
"label": "Piedra Gorda", "lat": 21.172993, "lng": -99.960006
},{
"label": "Canoas", "lat": 21.1798, "lng": -99.727958
},{
"label": "Puerto de Ramos", "lat": 21.073075, "lng": -100.003007
},{
"label": "Agua Caliente", "lat": 21.116479, "lng": -99.988877
},{
"label": "El Pilón", "lat": 21.088644, "lng": -99.769374
},{
"label": "El Atorón", "lat": 21.058251, "lng": -99.693544
},{
"label": "El Zapote II", "lat": 21.224001, "lng": -99.744415
},{
"label": "La Laja", "lat": 21.02729, "lng": -99.694502
},{
"label": "El Alamito II", "lat": 21.106464, "lng": -99.770169
},{
"label": "San Isidro (San Isidro Boquillas)", "lat": 21.150833, "lng": -99.90442
},{
"label": "La Resendeña", "lat": 21.076156, "lng": -99.961141
},{
"label": "Loma Bonita", "lat": 21.051724, "lng": -99.702241
},{
"label": "La Estación", "lat": 21.02786, "lng": -99.742986
},{
"label": "Camargo", "lat": 21.104417, "lng": -99.733449
}]