[{
"label": "Puerto de Tepozán", "lat": 21.187897, "lng": -99.622409
},{
"label": "Curva Colorada", "lat": 21.132438, "lng": -99.633196
},{
"label": "Quirambal", "lat": 21.192286, "lng": -99.543029
},{
"label": "La Meca", "lat": 21.006627, "lng": -99.575748
},{
"label": "La Muñeca", "lat": 21.176311, "lng": -99.62936
},{
"label": "Cuesta de Santa Florentina", "lat": 21.124629, "lng": -99.582002
},{
"label": "Barbechos", "lat": 21.065833, "lng": -99.641986
},{
"label": "El Salto", "lat": 21.127685, "lng": -99.522519
},{
"label": "Barranca del Plátano", "lat": 21.086234, "lng": -99.604092
},{
"label": "El Pedregal", "lat": 21.171181, "lng": -99.599089
},{
"label": "La Gachupina", "lat": 21.154554, "lng": -99.624615
},{
"label": "Magueycitos", "lat": 21.122778, "lng": -99.613333
},{
"label": "Pueblo Nuevo", "lat": 21.143724, "lng": -99.627535
},{
"label": "Casas Viejas (Agua Enterrada San Carlos)", "lat": 21.109928, "lng": -99.532328
},{
"label": "El Cuervo", "lat": 21.166667, "lng": -99.585833
},{
"label": "Tepozán de Derramadero", "lat": 21.097565, "lng": -99.624914
},{
"label": "Puerto del Oro", "lat": 21.131479, "lng": -99.611071
},{
"label": "Loma del Revolcadero (La Joya)", "lat": 21.101156, "lng": -99.674691
},{
"label": "Epazotes Grandes", "lat": 21.0926, "lng": -99.584745
},{
"label": "Agua Verde", "lat": 21.136799, "lng": -99.525181
},{
"label": "Arquitos", "lat": 21.167186, "lng": -99.600653
},{
"label": "Loma Larga (Santa Cecilia)", "lat": 21.113556, "lng": -99.559793
},{
"label": "Las Adjuntas", "lat": 21.232165, "lng": -99.562727
},{
"label": "El Madroño", "lat": 21.106399, "lng": -99.685926
},{
"label": "Cerro de la Pingüica", "lat": 21.157953, "lng": -99.69566
},{
"label": "Agua Enterrada", "lat": 21.193724, "lng": -99.652471
},{
"label": "Puerto de Amoles", "lat": 21.129167, "lng": -99.621111
},{
"label": "Agua del Maíz", "lat": 21.130186, "lng": -99.490401
},{
"label": "La Joya del Leal", "lat": 21.289797, "lng": -99.635
},{
"label": "Puerto de Alejandría", "lat": 21.225269, "lng": -99.594669
},{
"label": "Casa Blanca", "lat": 21.131844, "lng": -99.603145
},{
"label": "San José Cochinito", "lat": 21.144094, "lng": -99.535414
},{
"label": "San Pedro Escanela", "lat": 21.123358, "lng": -99.528253
},{
"label": "San Gaspar", "lat": 21.164292, "lng": -99.662101
},{
"label": "La Fábrica", "lat": 21.280629, "lng": -99.601573
},{
"label": "Otomites", "lat": 21.124332, "lng": -99.574679
},{
"label": "La Barranca", "lat": 21.149638, "lng": -99.645689
},{
"label": "Ciénega de San Juan", "lat": 21.28255, "lng": -99.630235
},{
"label": "Mesa Chiquita (Mesa del Comalito)", "lat": 21.110383, "lng": -99.620857
},{
"label": "Río Escanela", "lat": 21.198923, "lng": -99.604123
},{
"label": "El Encino", "lat": 21.207605, "lng": -99.550463
},{
"label": "Puerto de Escanelilla", "lat": 21.216249, "lng": -99.575108
},{
"label": "El Llano", "lat": 21.191556, "lng": -99.60777
},{
"label": "Puerto de Huilotla", "lat": 21.23734, "lng": -99.573515
},{
"label": "Coatlán de los Ángeles", "lat": 21.239914, "lng": -99.599073
},{
"label": "Puerto del Perico", "lat": 21.161894, "lng": -99.604369
},{
"label": "Puerto del Sabino", "lat": 21.14288, "lng": -99.504835
},{
"label": "Cuervo de San Rafael", "lat": 21.125926, "lng": -99.518537
},{
"label": "Palo Grande", "lat": 21.033666, "lng": -99.597798
},{
"label": "El Llano de Huazquilíco", "lat": 21.161672, "lng": -99.577203
},{
"label": "La Mesa", "lat": 21.254584, "lng": -99.616
},{
"label": "Piedra Grande", "lat": 21.1412, "lng": -99.627472
},{
"label": "Los Lirios", "lat": 21.179517, "lng": -99.710326
},{
"label": "El Limón", "lat": 21.316331, "lng": -99.628419
},{
"label": "Manzanillos", "lat": 21.1703, "lng": -99.50803
},{
"label": "Puerto Hondo", "lat": 21.079655, "lng": -99.575053
},{
"label": "La Mohonera", "lat": 21.158656, "lng": -99.518249
},{
"label": "Aguacate de San Pedro", "lat": 21.098283, "lng": -99.537335
},{
"label": "La Angostura", "lat": 21.210278, "lng": -99.5325
},{
"label": "Agua Cazuela", "lat": 21.13207, "lng": -99.517641
},{
"label": "Las Mesitas", "lat": 21.199099, "lng": -99.586353
},{
"label": "El Timbre de Guadalupe", "lat": 21.027724, "lng": -99.520024
},{
"label": "Las Guayabas (El Limón)", "lat": 21.096944, "lng": -99.463056
},{
"label": "Agua Fría", "lat": 21.145651, "lng": -99.575704
},{
"label": "Naranjo de Escanelilla", "lat": 21.193726, "lng": -99.553448
},{
"label": "Laguna de Pitzquintla", "lat": 21.188326, "lng": -99.511138
},{
"label": "Tierras Coloradas", "lat": 21.116229, "lng": -99.49877
},{
"label": "La Charca", "lat": 21.209213, "lng": -99.605324
},{
"label": "El Gallo", "lat": 21.203899, "lng": -99.644316
},{
"label": "Pie de la Cuesta", "lat": 21.141584, "lng": -99.509403
},{
"label": "Mesas de San José", "lat": 21.103013, "lng": -99.573764
},{
"label": "El Durazno Grande", "lat": 21.119695, "lng": -99.511218
},{
"label": "El Rodezno", "lat": 21.189126, "lng": -99.636002
},{
"label": "La Cebolla", "lat": 21.143141, "lng": -99.495011
},{
"label": "Agua Amarga", "lat": 21.138636, "lng": -99.588437
},{
"label": "Potrerillos", "lat": 21.095506, "lng": -99.615325
},{
"label": "Las Tinajitas", "lat": 21.193056, "lng": -99.515631
},{
"label": "Rincón de Pitzquintla", "lat": 21.182375, "lng": -99.535682
},{
"label": "Puerto de Tejamaníl", "lat": 21.121499, "lng": -99.648696
},{
"label": "Los Pinos", "lat": 21.225626, "lng": -99.67142
},{
"label": "Puerto de Pujunguía", "lat": 21.258516, "lng": -99.628294
},{
"label": "El Tejocote", "lat": 21.116502, "lng": -99.581241
},{
"label": "La Sierrita", "lat": 21.196879, "lng": -99.655919
},{
"label": "La Ciénega", "lat": 21.1023, "lng": -99.505082
},{
"label": "Huilotla", "lat": 21.250283, "lng": -99.583517
},{
"label": "Ahuacatlán de Guadalupe", "lat": 21.214115, "lng": -99.540505
},{
"label": "San Martín", "lat": 21.204284, "lng": -99.513523
},{
"label": "Las Cruces", "lat": 21.265871, "lng": -99.625168
},{
"label": "Carrizal de Adjuntas", "lat": 21.228514, "lng": -99.55832
},{
"label": "Puerto Pinto", "lat": 21.113056, "lng": -99.538333
},{
"label": "Puerto del Molino", "lat": 21.121784, "lng": -99.543285
},{
"label": "Tonatico", "lat": 21.145783, "lng": -99.547329
},{
"label": "El Limón de la Cruz", "lat": 21.096739, "lng": -99.457521
},{
"label": "San Pedro Viejo", "lat": 21.105934, "lng": -99.499848
},{
"label": "Cuesta Colorada de Huazquilíco", "lat": 21.165088, "lng": -99.589911
},{
"label": "Loma Alta de Puerto Hondo", "lat": 21.163336, "lng": -99.505718
},{
"label": "Puerto del Naranjo", "lat": 21.202157, "lng": -99.5556
},{
"label": "Rancho Nuevo Dos", "lat": 21.104612, "lng": -99.661429
},{
"label": "Agua Fría de la Barranca", "lat": 21.169432, "lng": -99.643552
},{
"label": "Puerto de los Chinos", "lat": 21.143188, "lng": -99.695273
},{
"label": "La Colgada", "lat": 21.118063, "lng": -99.481639
},{
"label": "Santa Águeda", "lat": 21.249664, "lng": -99.634164
},{
"label": "Derramadero de Bucareli", "lat": 21.111667, "lng": -99.642778
},{
"label": "La Barrosa", "lat": 21.24596, "lng": -99.624233
},{
"label": "El Cantón", "lat": 21.228281, "lng": -99.646189
},{
"label": "Maguey Blanco", "lat": 21.267778, "lng": -99.599167
},{
"label": "Pinal de Amoles", "lat": 21.135303, "lng": -99.62754
},{
"label": "Escanelilla", "lat": 21.203584, "lng": -99.564738
},{
"label": "Buenavista", "lat": 21.108621, "lng": -99.473763
},{
"label": "Puerto del Rodezno", "lat": 21.17042, "lng": -99.610296
},{
"label": "San Isidro", "lat": 21.269211, "lng": -99.611794
},{
"label": "La Joya", "lat": 21.062458, "lng": -99.68248
},{
"label": "Las Vegas", "lat": 21.022117, "lng": -99.532984
},{
"label": "La Loma de la Ciénega", "lat": 21.289938, "lng": -99.6173
},{
"label": "Cerro del Magueyal", "lat": 21.190099, "lng": -99.690115
},{
"label": "El Galéme", "lat": 21.14019, "lng": -99.620274
},{
"label": "Cerro del Carmen", "lat": 21.139986, "lng": -99.614189
},{
"label": "Barrio de la Loma de San Pedro", "lat": 21.123611, "lng": -99.524722
},{
"label": "Maby", "lat": 21.150811, "lng": -99.510843
},{
"label": "Medias Coloradas", "lat": 21.032162, "lng": -99.492791
},{
"label": "Las Joyas", "lat": 21.192319, "lng": -99.603576
},{
"label": "La Escondida", "lat": 21.141944, "lng": -99.63
},{
"label": "Huajales", "lat": 21.209527, "lng": -99.526448
},{
"label": "Carricillo Media Luna", "lat": 21.062903, "lng": -99.653318
},{
"label": "Aguacate de Morelos", "lat": 21.033497, "lng": -99.680971
},{
"label": "Epazotitos", "lat": 21.115215, "lng": -99.602696
},{
"label": "Encino de Ahuacatlán", "lat": 21.208333, "lng": -99.551944
},{
"label": "Las Majaditas", "lat": 21.119402, "lng": -99.472258
},{
"label": "Cruz Verde", "lat": 21.157423, "lng": -99.613333
},{
"label": "Bucareli", "lat": 21.04094, "lng": -99.61349
},{
"label": "Adjuntas de Ahuacatlán", "lat": 21.232222, "lng": -99.568269
},{
"label": "Huerta Don Manuel (Ojo de Agua)", "lat": 21.133611, "lng": -99.627778
},{
"label": "Mesa del Soyatal", "lat": 21.092275, "lng": -99.683878
},{
"label": "Agua Caliente Chiquita", "lat": 21.031306, "lng": -99.627489
},{
"label": "El Chuveje", "lat": 21.166424, "lng": -99.547444
},{
"label": "Sauz de Guadalupe", "lat": 21.237164, "lng": -99.609284
},{
"label": "El Murciélago", "lat": 21.111967, "lng": -99.517013
},{
"label": "Familia Monroy Ángeles", "lat": 21.074394, "lng": -99.441469
},{
"label": "Durazno de San Francisco", "lat": 21.119264, "lng": -99.549328
},{
"label": "El Ranchito", "lat": 21.128316, "lng": -99.557601
},{
"label": "Puerto del Pino (Puerta del Cielo)", "lat": 21.126125, "lng": -99.638253
},{
"label": "Puerto Hacienda Vieja", "lat": 21.113554, "lng": -99.572661
},{
"label": "La Mojonera", "lat": 21.117839, "lng": -99.674714
},{
"label": "Cuatro Palos", "lat": 21.083868, "lng": -99.657056
},{
"label": "La Quebradora", "lat": 21.124504, "lng": -99.645097
},{
"label": "Cuesta de Huazmazontla", "lat": 21.187074, "lng": -99.576437
},{
"label": "Agua Fría de Gudiño", "lat": 20.994297, "lng": -99.551065
},{
"label": "El Refugio", "lat": 21.141111, "lng": -99.570802
},{
"label": "La Joya de Santa Águeda", "lat": 21.251734, "lng": -99.630226
},{
"label": "La Gallina", "lat": 21.14973, "lng": -99.609386
},{
"label": "La Curva del Chuveje", "lat": 21.17943, "lng": -99.564869
},{
"label": "La Yerbabuena", "lat": 21.203133, "lng": -99.628799
},{
"label": "Las Mesas de Santa Inés", "lat": 21.27527, "lng": -99.646333
},{
"label": "La Cieneguilla", "lat": 21.131226, "lng": -99.527019
},{
"label": "Las Cabañas Cinco Pinos", "lat": 21.142873, "lng": -99.629046
},{
"label": "Puerto Canoas", "lat": 21.171171, "lng": -99.710526
},{
"label": "La Mesa de la Barranca", "lat": 21.156979, "lng": -99.646496
},{
"label": "La Nopalera", "lat": 21.142422, "lng": -99.491628
},{
"label": "Rancho Nuevo", "lat": 21.1928, "lng": -99.537963
},{
"label": "El Puertecito", "lat": 21.310433, "lng": -99.639639
},{
"label": "El Arpa", "lat": 21.261946, "lng": -99.61604
},{
"label": "Hornitos", "lat": 21.189823, "lng": -99.676045
},{
"label": "Cuesta Blanca", "lat": 21.193698, "lng": -99.589298
},{
"label": "La Dinamita", "lat": 21.133591, "lng": -99.622258
},{
"label": "El Mastranto", "lat": 21.093761, "lng": -99.645515
},{
"label": "Llano de San Francisco", "lat": 21.181547, "lng": -99.660817
},{
"label": "Joyas del Derramadero", "lat": 21.101511, "lng": -99.645546
},{
"label": "Peña Alta", "lat": 21.211807, "lng": -99.517024
},{
"label": "La Joya de Ahuacatlán", "lat": 21.229667, "lng": -99.574333
},{
"label": "La Tinaja", "lat": 21.287834, "lng": -99.544709
},{
"label": "Mesa de Ramírez", "lat": 21.069204, "lng": -99.553584
},{
"label": "Puerto de los Bueyes", "lat": 21.341849, "lng": -99.602508
},{
"label": "El Apartadero", "lat": 21.269071, "lng": -99.593583
},{
"label": "El Cuervo de San Pedro", "lat": 21.128631, "lng": -99.513153
},{
"label": "Puerto Colorado", "lat": 21.239615, "lng": -99.565854
},{
"label": "Piedra Parada de Santa Rosa", "lat": 21.129227, "lng": -99.499779
},{
"label": "Puerto del Derramadero", "lat": 21.106747, "lng": -99.62728
},{
"label": "Puerto de Tenamaxtle", "lat": 21.111103, "lng": -99.513018
},{
"label": "Loma de la Cañada", "lat": 21.204713, "lng": -99.612575
},{
"label": "Loma de Guadalupe", "lat": 21.071664, "lng": -99.526186
},{
"label": "El Naranjo", "lat": 21.300723, "lng": -99.637527
},{
"label": "La Morita", "lat": 21.253744, "lng": -99.619167
},{
"label": "El Tigre", "lat": 21.169249, "lng": -99.56849
},{
"label": "Alejandría de Morelos", "lat": 21.239365, "lng": -99.590043
},{
"label": "La Peña Colorada", "lat": 21.239472, "lng": -99.659624
},{
"label": "Joyas del Real", "lat": 21.158925, "lng": -99.539938
},{
"label": "La Troja", "lat": 21.206435, "lng": -99.572491
},{
"label": "Lindero del Tejamanil", "lat": 21.106344, "lng": -99.647657
},{
"label": "Ojo de Agua", "lat": 21.220833, "lng": -99.563406
},{
"label": "Sauz de Arroyo Hondo", "lat": 21.258114, "lng": -99.598767
},{
"label": "El Bernalito", "lat": 21.126684, "lng": -99.685649
},{
"label": "Joyas de Bucareli", "lat": 20.993796, "lng": -99.573932
},{
"label": "Derramadero de Juárez", "lat": 21.218008, "lng": -99.616255
},{
"label": "Mazatiapán", "lat": 21.014948, "lng": -99.637517
},{
"label": "Las Escaleras", "lat": 21.143876, "lng": -99.560496
},{
"label": "Arroyo Hondo de Huilotla", "lat": 21.257262, "lng": -99.594552
},{
"label": "Puerto de los Velázquez", "lat": 21.120931, "lng": -99.673608
},{
"label": "Tres Cruces", "lat": 21.155518, "lng": -99.604174
},{
"label": "Cerro Grande", "lat": 21.164124, "lng": -99.640955
},{
"label": "Temazcales", "lat": 21.123148, "lng": -99.591184
},{
"label": "El Tambor de Huazquilíco", "lat": 21.156161, "lng": -99.597667
},{
"label": "El Carrizalito", "lat": 21.093353, "lng": -99.498203
},{
"label": "La Esperanza", "lat": 21.120248, "lng": -99.617401
},{
"label": "San Antonio del Pelón", "lat": 21.091859, "lng": -99.557297
},{
"label": "Huazquilíco", "lat": 21.154985, "lng": -99.578398
},{
"label": "Puerto de Vigas", "lat": 21.176907, "lng": -99.581249
},{
"label": "El Pilón", "lat": 21.283078, "lng": -99.607686
},{
"label": "El Mezquite", "lat": 21.052177, "lng": -99.474129
},{
"label": "La Cañada", "lat": 21.116479, "lng": -99.665333
},{
"label": "El Soyatal", "lat": 21.08481, "lng": -99.689294
},{
"label": "Adjunta de Gatos", "lat": 21.007613, "lng": -99.648081
},{
"label": "Familia Gerardo", "lat": 21.130954, "lng": -99.632202
},{
"label": "Loma de las Minas", "lat": 21.195484, "lng": -99.607008
},{
"label": "El Plátano", "lat": 21.061476, "lng": -99.602467
}]