[{
"label": "La Arena Blanca", "lat": 29.997537, "lng": -110.213817
},{
"label": "Bacachi", "lat": 29.990068, "lng": -110.201463
},{
"label": "El Vallecito", "lat": 30.061884, "lng": -110.221864
},{
"label": "La Palmita de Yescas", "lat": 30.065, "lng": -110.378056
},{
"label": "El Salto", "lat": 30.041483, "lng": -110.168889
},{
"label": "La Otra Banda", "lat": 30.018553, "lng": -110.222984
},{
"label": "Las Delicias", "lat": 29.979193, "lng": -110.224183
},{
"label": "Tren de Arvizu", "lat": 30.008154, "lng": -110.221484
},{
"label": "Espiritu Santo", "lat": 30.049229, "lng": -110.226736
},{
"label": "La Ensenada", "lat": 30.035224, "lng": -110.38656
},{
"label": "El Carrizo", "lat": 30.005334, "lng": -110.349793
},{
"label": "El Tepalcate", "lat": 30.144722, "lng": -110.1625
},{
"label": "Los Zanjones", "lat": 30.129494, "lng": -110.122186
},{
"label": "El Tulito (Tuli)", "lat": 30.082358, "lng": -110.340954
},{
"label": "La Bonanza (El Charco)", "lat": 30.086379, "lng": -110.250836
},{
"label": "Los Paredones", "lat": 29.9975, "lng": -110.233889
},{
"label": "Cañada Honda", "lat": 30.040975, "lng": -110.2225
},{
"label": "Boca del Cajón (Cajón del Carrizo)", "lat": 30.035606, "lng": -110.362888
},{
"label": "La Huerta de Guillermo Figueroa", "lat": 30.005863, "lng": -110.224829
},{
"label": "La Fortuna", "lat": 30.055968, "lng": -110.446755
},{
"label": "Silvas", "lat": 30.110039, "lng": -110.246332
},{
"label": "Santa Fe", "lat": 30.019615, "lng": -110.471276
},{
"label": "La Morita", "lat": 30.046813, "lng": -110.225278
},{
"label": "Bajío de Campa", "lat": 30.047288, "lng": -110.13499
},{
"label": "La Mora (La Granja)", "lat": 29.9525, "lng": -110.205833
},{
"label": "Álamo Uno", "lat": 30.167181, "lng": -110.427261
},{
"label": "El Oro", "lat": 30.020191, "lng": -110.214264
},{
"label": "El Picacho", "lat": 30.089047, "lng": -110.24959
},{
"label": "La Martina", "lat": 30.015436, "lng": -110.228112
},{
"label": "El Bajío de Palo Blanco", "lat": 29.965, "lng": -110.203056
},{
"label": "El Álamo", "lat": 30.149798, "lng": -110.112239
},{
"label": "La Palma", "lat": 30.05607, "lng": -110.344934
},{
"label": "La Talega", "lat": 30.039991, "lng": -110.221637
},{
"label": "Los Nogales", "lat": 30.057785, "lng": -110.135961
},{
"label": "La Higuerita (Rancho Nuevo)", "lat": 30.074737, "lng": -110.241851
},{
"label": "Las Rastritas", "lat": 30.033486, "lng": -110.209934
},{
"label": "El Murmurando", "lat": 30.010903, "lng": -110.231605
},{
"label": "La Huerta de la Mora", "lat": 29.9525, "lng": -110.2025
},{
"label": "El Cazo", "lat": 30.022516, "lng": -110.220271
},{
"label": "La Ciénega (Campo Rabano)", "lat": 30.135441, "lng": -110.057622
},{
"label": "La Manga", "lat": 30.053611, "lng": -110.228333
},{
"label": "La Reforma", "lat": 30.044878, "lng": -110.261712
},{
"label": "El Nogal", "lat": 30.157819, "lng": -110.07905
},{
"label": "El Saucito", "lat": 30.09752, "lng": -110.128678
},{
"label": "El Tren (El Tren de Nícola)", "lat": 30.023139, "lng": -110.212741
},{
"label": "El Molino", "lat": 30.030047, "lng": -110.220773
},{
"label": "La Pasada del Puente", "lat": 30.020788, "lng": -110.219524
},{
"label": "El Vergel", "lat": 30.106833, "lng": -110.402475
},{
"label": "Onofre", "lat": 30.055121, "lng": -110.217591
},{
"label": "La Mora", "lat": 29.97636, "lng": -110.204672
},{
"label": "El Jacalón", "lat": 30.045505, "lng": -110.385936
},{
"label": "San Antonio", "lat": 30.031719, "lng": -110.438267
},{
"label": "El Salmón", "lat": 30.079626, "lng": -110.236072
},{
"label": "La Pera", "lat": 29.982416, "lng": -110.204039
},{
"label": "Los Vallecitos", "lat": 30.062778, "lng": -110.221389
},{
"label": "El Cahui", "lat": 30.001828, "lng": -110.220464
},{
"label": "Banámichi", "lat": 30.007232, "lng": -110.217736
},{
"label": "El Bacerán", "lat": 30.036591, "lng": -110.219284
},{
"label": "Las Norias", "lat": 29.97876, "lng": -110.32387
},{
"label": "El Chinal", "lat": 29.958754, "lng": -110.224358
},{
"label": "La Capilla", "lat": 30.089858, "lng": -110.246258
},{
"label": "La Nopalera", "lat": 30.019246, "lng": -110.215911
}]