[{
"label": "El Baviso", "lat": 29.692424, "lng": -110.299643
},{
"label": "Agua de Rogel", "lat": 29.670789, "lng": -110.275839
},{
"label": "Ernestina Villaescusa de Navarro", "lat": 29.658668, "lng": -110.133418
},{
"label": "San José (San José de Baviácora)", "lat": 29.745222, "lng": -110.184494
},{
"label": "Satebachi", "lat": 29.732808, "lng": -110.172914
},{
"label": "Suaqui", "lat": 29.68735, "lng": -110.150124
},{
"label": "Los Puertecitos (El Puertecito)", "lat": 29.585989, "lng": -110.134868
},{
"label": "La Labor", "lat": 29.620623, "lng": -110.128849
},{
"label": "Jurahui", "lat": 29.465159, "lng": -110.069588
},{
"label": "El Molinote (Hacienda la Concepción)", "lat": 29.650691, "lng": -110.133502
},{
"label": "Las Tortugas", "lat": 29.69621, "lng": -110.155315
},{
"label": "Los Lobos", "lat": 29.505507, "lng": -110.056179
},{
"label": "Las Tres Palmas", "lat": 29.703631, "lng": -110.039138
},{
"label": "El Paraíso", "lat": 29.510777, "lng": -110.131984
},{
"label": "La Aurora", "lat": 29.578899, "lng": -110.132877
},{
"label": "La Jécota", "lat": 29.466492, "lng": -110.089445
},{
"label": "La Compuerta", "lat": 29.749512, "lng": -110.038478
},{
"label": "El Altar", "lat": 29.495917, "lng": -110.175133
},{
"label": "Alberto Bustamante (La Victoria)", "lat": 29.665424, "lng": -110.138475
},{
"label": "El Ranchito", "lat": 29.648223, "lng": -110.089239
},{
"label": "Mariscal", "lat": 29.551209, "lng": -110.038138
},{
"label": "Los Horcones", "lat": 29.497565, "lng": -110.11464
},{
"label": "Felipe Corrales", "lat": 29.660124, "lng": -110.145388
},{
"label": "El Jaralito", "lat": 29.640702, "lng": -110.259014
},{
"label": "San Antonio", "lat": 29.676311, "lng": -110.280244
},{
"label": "La Mesa de Jituchi", "lat": 29.665782, "lng": -110.258554
},{
"label": "La Rosalía", "lat": 29.646102, "lng": -110.044947
},{
"label": "La Cieneguita", "lat": 29.536389, "lng": -110.010278
},{
"label": "El Herrero", "lat": 29.634386, "lng": -110.136269
},{
"label": "El Bagote", "lat": 29.701449, "lng": -110.158593
},{
"label": "El Cahui", "lat": 29.604335, "lng": -110.121868
},{
"label": "La Cañada", "lat": 29.547472, "lng": -110.132295
},{
"label": "Jecotalito", "lat": 29.675921, "lng": -110.268415
},{
"label": "Ninguno", "lat": 29.674444, "lng": -110.17
},{
"label": "Los Magueyes", "lat": 29.58556, "lng": -110.120451
},{
"label": "La Capilla", "lat": 29.672152, "lng": -110.142857
},{
"label": "Los Braceros", "lat": 29.579897, "lng": -110.059939
},{
"label": "El Realito", "lat": 29.689617, "lng": -110.165783
},{
"label": "Rancho Nuevo", "lat": 29.498611, "lng": -110.116111
},{
"label": "Baviácora", "lat": 29.715235, "lng": -110.165052
},{
"label": "Rancho Seco", "lat": 29.682401, "lng": -110.252617
},{
"label": "La Noria de Lares", "lat": 29.452822, "lng": -110.079786
},{
"label": "La Junta", "lat": 29.515551, "lng": -110.144695
},{
"label": "Mazocahui", "lat": 29.536523, "lng": -110.120248
},{
"label": "El Temporal", "lat": 29.643819, "lng": -110.100786
},{
"label": "Los Alisos", "lat": 29.612913, "lng": -110.256304
},{
"label": "San Judas", "lat": 29.678765, "lng": -110.24961
}]