[{
"label": "Moraher I", "lat": 30.537326, "lng": -112.343501
},{
"label": "Rancho Pozo de León", "lat": 30.389954, "lng": -112.717193
},{
"label": "Ures", "lat": 30.735918, "lng": -112.958025
},{
"label": "Coahuila", "lat": 30.96844, "lng": -112.965784
},{
"label": "El Obispo", "lat": 30.694647, "lng": -112.436109
},{
"label": "Héroe de Nacozari", "lat": 30.811956, "lng": -112.558721
},{
"label": "Heroica Caborca", "lat": 30.713811, "lng": -112.147711
},{
"label": "San Alfonso", "lat": 30.631479, "lng": -112.341752
},{
"label": "San Francísco", "lat": 30.803544, "lng": -112.610449
},{
"label": "El Pedregal", "lat": 30.799221, "lng": -112.475999
},{
"label": "Rancho Zapata", "lat": 31.071708, "lng": -112.350418
},{
"label": "Bahía Dos", "lat": 30.699995, "lng": -112.956854
},{
"label": "Plan de Agua Prieta", "lat": 30.868422, "lng": -112.92672
},{
"label": "Empaque Sahueso", "lat": 30.789298, "lng": -112.468887
},{
"label": "Tierra Blanca", "lat": 30.541065, "lng": -112.277458
},{
"label": "El Oasis de la Coahuila", "lat": 30.952626, "lng": -112.993633
},{
"label": "Román Caballero", "lat": 30.672116, "lng": -112.1966
},{
"label": "Estación Coyote", "lat": 30.833048, "lng": -112.602204
},{
"label": "Luis Guzmán", "lat": 30.863769, "lng": -112.949708
},{
"label": "Aureliano Rivas", "lat": 30.720372, "lng": -112.103516
},{
"label": "Juan Álvarez", "lat": 31.169184, "lng": -112.808014
},{
"label": "Plan del Río", "lat": 30.674038, "lng": -112.464862
},{
"label": "Chinobampo", "lat": 30.837373, "lng": -112.873949
},{
"label": "Sergio Noriega", "lat": 30.680129, "lng": -112.189105
},{
"label": "Antonio Rosas", "lat": 30.657618, "lng": -112.419576
},{
"label": "La Taguada", "lat": 30.645903, "lng": -112.180359
},{
"label": "Placido Ortiz", "lat": 30.702593, "lng": -112.113554
},{
"label": "Santa Fe", "lat": 30.665129, "lng": -112.281371
},{
"label": "Ninguno", "lat": 30.669472, "lng": -112.19332
},{
"label": "Arturo Noriega Bracamontes", "lat": 30.673061, "lng": -112.227862
},{
"label": "Jalisco (Miguel Hidalgo)", "lat": 31.636316, "lng": -112.274106
},{
"label": "Silvia Elena", "lat": 30.985119, "lng": -112.995213
},{
"label": "San Agustín", "lat": 30.833417, "lng": -112.620608
},{
"label": "El Milenio", "lat": 31.065666, "lng": -112.187263
},{
"label": "Constitución de 1857 Número Cuatro", "lat": 30.531813, "lng": -112.283546
},{
"label": "Canaima I", "lat": 30.661486, "lng": -112.209154
},{
"label": "Ninguno [Familia Morales Hernández]", "lat": 30.534615, "lng": -112.332716
},{
"label": "El Olivar", "lat": 30.765941, "lng": -112.801649
},{
"label": "El Pinito", "lat": 30.780199, "lng": -112.754916
},{
"label": "El Mundo (Oro)", "lat": 31.3875, "lng": -112.280833
},{
"label": "La Palma", "lat": 30.759881, "lng": -113.008695
},{
"label": "Palo Verde", "lat": 30.795874, "lng": -112.401218
},{
"label": "El Olvido", "lat": 30.649899, "lng": -112.270817
},{
"label": "Pénjamo", "lat": 30.774919, "lng": -112.742562
},{
"label": "El Recreo", "lat": 30.763967, "lng": -112.171563
},{
"label": "La Sierrita I", "lat": 30.849124, "lng": -112.513977
},{
"label": "El Plomito", "lat": 30.25055, "lng": -112.369491
},{
"label": "6 de Abril", "lat": 30.506183, "lng": -112.198688
},{
"label": "Don Luis", "lat": 30.795067, "lng": -112.643329
},{
"label": "Celestino Gasca Villaseñor I", "lat": 30.452379, "lng": -112.658028
},{
"label": "Nacho García", "lat": 30.667247, "lng": -112.198075
},{
"label": "Livorio González", "lat": 30.844642, "lng": -112.221485
},{
"label": "El Delirio", "lat": 30.602128, "lng": -112.378872
},{
"label": "El Mexicano Uno", "lat": 30.780573, "lng": -112.446035
},{
"label": "Porfiria Tovar", "lat": 31.118747, "lng": -112.197335
},{
"label": "Los Murrieta (Los Bernales)", "lat": 30.777743, "lng": -112.248854
},{
"label": "Ninguno [Humberto Sandoval]", "lat": 30.793585, "lng": -112.883966
},{
"label": "La Zarzamora Uno", "lat": 30.706103, "lng": -112.118013
},{
"label": "La Selva Dos", "lat": 30.482247, "lng": -112.207827
},{
"label": "La Nueva Fundición II", "lat": 30.873094, "lng": -113.00699
},{
"label": "El Cozón", "lat": 31.300421, "lng": -112.562352
},{
"label": "Santa Laura", "lat": 30.907563, "lng": -112.966376
},{
"label": "21 de Marzo (Mario Munguía)", "lat": 31.609307, "lng": -112.274608
},{
"label": "Familia Vega Granillo", "lat": 30.750073, "lng": -112.107799
},{
"label": "Eusebio Gaona", "lat": 30.963471, "lng": -112.919043
},{
"label": "El Socorro", "lat": 30.971336, "lng": -113.017525
},{
"label": "La Paz", "lat": 30.814058, "lng": -112.81669
},{
"label": "La Mesa (Campo Magisterial)", "lat": 30.725423, "lng": -112.104666
},{
"label": "Ruben Darío Salcido", "lat": 30.719561, "lng": -112.115759
},{
"label": "Empaque Aguirre", "lat": 30.717427, "lng": -112.366158
},{
"label": "Santa Silvia", "lat": 30.942639, "lng": -112.868796
},{
"label": "Desemboque", "lat": 30.569562, "lng": -113.006935
},{
"label": "3 de Enero", "lat": 30.802713, "lng": -112.700203
},{
"label": "Vicente Guerrero", "lat": 30.775701, "lng": -112.530723
},{
"label": "La Soteña", "lat": 30.688636, "lng": -112.16622
},{
"label": "Nochebuena", "lat": 30.964099, "lng": -112.494978
},{
"label": "La Negra", "lat": 31.092604, "lng": -112.222476
},{
"label": "Santa Cecilia", "lat": 30.744055, "lng": -112.487676
},{
"label": "Maribel", "lat": 30.520597, "lng": -112.355267
},{
"label": "La Angostura", "lat": 30.847706, "lng": -112.812311
},{
"label": "El Rocío", "lat": 30.823122, "lng": -112.417313
},{
"label": "Antonio Ruiz González", "lat": 30.831375, "lng": -112.853068
},{
"label": "El Soñi", "lat": 31.286721, "lng": -112.269431
},{
"label": "Mi Terruño", "lat": 30.723328, "lng": -112.115287
},{
"label": "La Bonancita", "lat": 31.132638, "lng": -112.463904
},{
"label": "6 de Abril (Sector Dos)", "lat": 30.468754, "lng": -112.17079
},{
"label": "La Mochomera (La Morena)", "lat": 30.724997, "lng": -112.943134
},{
"label": "La Ponderosa", "lat": 30.639186, "lng": -112.211127
},{
"label": "El Cubó", "lat": 31.085732, "lng": -112.21367
},{
"label": "Las Enchilayas", "lat": 30.883721, "lng": -112.77932
},{
"label": "Agrícola Gab", "lat": 30.719676, "lng": -112.11171
},{
"label": "Ortiz Loera", "lat": 30.707569, "lng": -112.798074
},{
"label": "La T", "lat": 30.78707, "lng": -112.873067
},{
"label": "Alfonso Garzón Santivañes (Zacatecas)", "lat": 30.483226, "lng": -112.277994
},{
"label": "Francisco Monreal", "lat": 30.699451, "lng": -112.224679
},{
"label": "El Bacatete", "lat": 31.173611, "lng": -112.240278
},{
"label": "Viñedos Viva", "lat": 30.707705, "lng": -112.340623
},{
"label": "El Girasol", "lat": 30.780781, "lng": -112.477505
},{
"label": "Llanos del Desierto", "lat": 30.621682, "lng": -112.17518
},{
"label": "La Alameda (Cortázar)", "lat": 30.730469, "lng": -112.785117
},{
"label": "Santa María", "lat": 30.67443, "lng": -112.185583
},{
"label": "Cortijo de la Morena", "lat": 30.694501, "lng": -112.296881
},{
"label": "José Luis Caballero", "lat": 30.666958, "lng": -112.199536
},{
"label": "Tomás García", "lat": 30.756944, "lng": -112.170325
},{
"label": "Empaque la Coyotera", "lat": 30.809304, "lng": -112.561957
},{
"label": "El Sahuaro", "lat": 31.04925, "lng": -112.93951
},{
"label": "Guadalupe (El Ranchito)", "lat": 30.606204, "lng": -112.155631
},{
"label": "El Danubio", "lat": 30.806761, "lng": -112.648678
},{
"label": "Las Parcelas", "lat": 30.665017, "lng": -112.202877
},{
"label": "La Ceiba", "lat": 30.740738, "lng": -112.873395
},{
"label": "17 de Abril", "lat": 30.872562, "lng": -112.985563
},{
"label": "Las Palapas", "lat": 30.719205, "lng": -112.114188
},{
"label": "El Durango", "lat": 30.849912, "lng": -112.759328
},{
"label": "San Martín", "lat": 30.727449, "lng": -112.833124
},{
"label": "Los Nopales", "lat": 30.898694, "lng": -112.786816
},{
"label": "El Cuarenta y Cinco", "lat": 30.644655, "lng": -112.174943
},{
"label": "Don Marcelo (Santa Elvira)", "lat": 30.870401, "lng": -112.788317
},{
"label": "Altar de Pimas", "lat": 30.853211, "lng": -112.703772
},{
"label": "Las Maravillas", "lat": 30.430709, "lng": -112.37407
},{
"label": "Arroyo Negro del Desierto", "lat": 30.977336, "lng": -112.990434
},{
"label": "Antonio Martínez", "lat": 30.843525, "lng": -112.915622
},{
"label": "El Deseo", "lat": 30.555034, "lng": -112.341294
},{
"label": "El Mesías", "lat": 31.388343, "lng": -112.339376
},{
"label": "Las Flores", "lat": 31.011481, "lng": -112.376322
},{
"label": "21 de Marzo (Francisco Romo)", "lat": 31.609387, "lng": -112.317805
},{
"label": "Los Tapestitos", "lat": 30.907286, "lng": -112.422123
},{
"label": "Joel Humberto Vejarano Celaya", "lat": 30.748794, "lng": -112.111134
},{
"label": "Campo 87 (Santa Lidia)", "lat": 30.68569, "lng": -112.40447
},{
"label": "El Sahueso Dos", "lat": 30.789781, "lng": -112.466309
},{
"label": "El Mexicano Dos", "lat": 30.789267, "lng": -112.44644
},{
"label": "Lauro G. Caloca", "lat": 30.874134, "lng": -112.739009
},{
"label": "Triple A", "lat": 30.850816, "lng": -112.560787
},{
"label": "San Francisco", "lat": 30.554462, "lng": -112.281365
},{
"label": "Viñedo Viva (Pozo 5)", "lat": 30.697792, "lng": -112.321432
},{
"label": "Las Norias", "lat": 31.033333, "lng": -112.423333
},{
"label": "El Patricio", "lat": 31.541554, "lng": -112.326353
},{
"label": "La Capilla", "lat": 30.664851, "lng": -112.451189
},{
"label": "Las Rastras", "lat": 30.735183, "lng": -112.119165
},{
"label": "Yaqui Justiciero", "lat": 30.707798, "lng": -112.40044
},{
"label": "El Mezquite (Santa María)", "lat": 30.621538, "lng": -112.421914
},{
"label": "El Mojoqui", "lat": 30.665388, "lng": -112.161816
},{
"label": "José López Portillo", "lat": 30.714168, "lng": -112.229092
},{
"label": "Campo Grande", "lat": 30.764877, "lng": -112.46084
},{
"label": "Juárez", "lat": 30.959062, "lng": -112.437963
},{
"label": "El Paraíso", "lat": 30.990269, "lng": -112.094422
},{
"label": "El Sauz", "lat": 30.782847, "lng": -112.432483
},{
"label": "El Bahía", "lat": 30.611942, "lng": -112.985527
},{
"label": "La Bachata", "lat": 30.84049, "lng": -112.591747
},{
"label": "Veracruz", "lat": 31.447176, "lng": -112.357658
},{
"label": "El Chamizal", "lat": 30.769658, "lng": -112.475942
},{
"label": "San Isidro", "lat": 30.79741, "lng": -112.427186
},{
"label": "Santa Delfina", "lat": 30.773101, "lng": -112.177716
},{
"label": "Santa Teresa", "lat": 30.706144, "lng": -112.117611
},{
"label": "La Cueva", "lat": 30.725699, "lng": -112.259123
},{
"label": "Los Franciscos", "lat": 30.726442, "lng": -112.456014
},{
"label": "Samurái", "lat": 30.754061, "lng": -112.485449
},{
"label": "San Felipe del Rincón", "lat": 30.82555, "lng": -112.781984
},{
"label": "Adolfo Orive de Alba", "lat": 30.936667, "lng": -113.010506
},{
"label": "Santa Martha II", "lat": 30.85482, "lng": -112.745954
},{
"label": "Parácuaro del Desierto", "lat": 30.752127, "lng": -112.732747
},{
"label": "El Cerrito III", "lat": 30.687717, "lng": -112.84811
},{
"label": "Ninguno [Abel Lizárraga]", "lat": 30.823511, "lng": -112.231182
},{
"label": "Playa Santo Tomás", "lat": 30.759743, "lng": -113.104521
},{
"label": "El Centro", "lat": 30.560482, "lng": -112.370419
},{
"label": "El Pirul", "lat": 30.842629, "lng": -112.707121
},{
"label": "Mario Delgado Méndez", "lat": 30.684584, "lng": -112.202109
},{
"label": "El Represo de la Estación", "lat": 30.825709, "lng": -112.167936
},{
"label": "El Pedernal Cuatro", "lat": 30.858657, "lng": -112.724405
},{
"label": "El Oasis (La Angostura)", "lat": 30.846518, "lng": -112.801969
},{
"label": "21 de Marzo (Fracción Tres)", "lat": 31.611564, "lng": -112.328072
},{
"label": "Ninguno [Sergio Reyes]", "lat": 30.848958, "lng": -112.606888
},{
"label": "El Portillo", "lat": 30.700366, "lng": -112.301448
},{
"label": "Los Arboles", "lat": 30.745116, "lng": -112.171422
},{
"label": "El Parral", "lat": 30.816704, "lng": -112.784647
},{
"label": "San Ramón", "lat": 30.680812, "lng": -112.435262
},{
"label": "Santa Minerva", "lat": 30.765157, "lng": -112.54243
},{
"label": "Cuatro Leones", "lat": 30.715863, "lng": -112.113005
},{
"label": "Elvira Olivia", "lat": 30.799267, "lng": -112.95671
},{
"label": "Huanímaro (Plan de Ayala)", "lat": 30.810737, "lng": -112.737926
},{
"label": "El Cachorro", "lat": 30.660507, "lng": -112.361861
},{
"label": "Don Alfredo", "lat": 30.859683, "lng": -112.713061
},{
"label": "Jesús Durán Salinas", "lat": 30.701672, "lng": -112.111245
},{
"label": "Rancho Carlos Reynoso", "lat": 30.733639, "lng": -112.179176
},{
"label": "Costa Rica", "lat": 31.322726, "lng": -112.60136
},{
"label": "María Cristina", "lat": 30.600991, "lng": -112.405852
},{
"label": "Guadalupe Victoria", "lat": 30.524457, "lng": -112.324206
},{
"label": "Santa Rita", "lat": 30.904189, "lng": -112.953714
},{
"label": "Los Fresnitos", "lat": 30.704225, "lng": -112.118828
},{
"label": "Andrés Ignacio (Mártires de Cananea)", "lat": 30.867013, "lng": -112.857514
},{
"label": "Buenos Aires", "lat": 31.502775, "lng": -112.447991
},{
"label": "El Tanquecito", "lat": 30.779556, "lng": -112.467869
},{
"label": "La Mojonera", "lat": 30.973122, "lng": -112.586571
},{
"label": "Constitución I", "lat": 30.711648, "lng": -112.803484
},{
"label": "El Estribo", "lat": 31.21608, "lng": -112.461487
},{
"label": "San Antonio", "lat": 30.809375, "lng": -112.878625
},{
"label": "Los Olivos", "lat": 30.821946, "lng": -112.883186
},{
"label": "El Diamante (La Retranca)", "lat": 30.845675, "lng": -112.640119
},{
"label": "María Magdalena", "lat": 30.547695, "lng": -112.307621
},{
"label": "Francisco Félix", "lat": 30.730506, "lng": -112.119474
},{
"label": "Patuán", "lat": 30.703613, "lng": -112.809764
},{
"label": "La Familia", "lat": 30.567939, "lng": -112.182553
},{
"label": "El Pápago", "lat": 31.134858, "lng": -112.308206
},{
"label": "La Moruza", "lat": 30.455394, "lng": -112.198182
},{
"label": "El Choyalito", "lat": 31.053578, "lng": -112.181323
},{
"label": "Labor de Peralta (Abasolo)", "lat": 30.804314, "lng": -112.734051
},{
"label": "El Carricito", "lat": 31.064169, "lng": -112.540461
},{
"label": "Pacera León", "lat": 30.720783, "lng": -112.108676
},{
"label": "San José", "lat": 30.652921, "lng": -112.295561
},{
"label": "San Alfredo", "lat": 30.849259, "lng": -112.715016
},{
"label": "Román Badillo", "lat": 30.881139, "lng": -112.777858
},{
"label": "Antonio Ruiz González II", "lat": 30.829221, "lng": -112.864018
},{
"label": "Gilberto Méndez", "lat": 30.727759, "lng": -112.997056
},{
"label": "Los Tecolotes", "lat": 30.978043, "lng": -112.96492
},{
"label": "San Andrés", "lat": 30.851367, "lng": -112.582541
},{
"label": "La Candelaria (Empaque la Pelota)", "lat": 30.487919, "lng": -112.240274
},{
"label": "Salsipuedes", "lat": 30.790918, "lng": -112.894622
},{
"label": "Puerto Blanco", "lat": 30.695032, "lng": -112.246232
},{
"label": "Los Sapos", "lat": 30.772635, "lng": -112.435134
},{
"label": "El Carnaval", "lat": 30.706014, "lng": -112.129016
},{
"label": "José María Morelos", "lat": 30.806759, "lng": -112.685329
},{
"label": "El Cuatro", "lat": 30.669059, "lng": -112.204377
},{
"label": "Rodolfo Campodónico", "lat": 30.956156, "lng": -113.011913
},{
"label": "Santa Marlene", "lat": 30.858568, "lng": -112.977689
},{
"label": "Los Álamos", "lat": 30.976507, "lng": -112.998002
},{
"label": "La Misión", "lat": 30.866327, "lng": -112.754547
},{
"label": "Tepic", "lat": 30.831667, "lng": -112.801524
},{
"label": "La Tinaja", "lat": 30.339447, "lng": -112.591002
},{
"label": "Martina Bernal", "lat": 30.750389, "lng": -112.170815
},{
"label": "Mina la Herradura", "lat": 31.148712, "lng": -112.853028
},{
"label": "Arceaga Martínez (Las Carmelitas)", "lat": 30.881377, "lng": -112.783705
},{
"label": "Los Paredones", "lat": 30.92335, "lng": -112.474821
},{
"label": "Campanas del Desierto", "lat": 30.819209, "lng": -112.884003
},{
"label": "Delicias del Desierto", "lat": 30.786191, "lng": -112.77069
},{
"label": "Nayarit", "lat": 30.826494, "lng": -112.852558
},{
"label": "Tojuca", "lat": 31.113023, "lng": -112.235626
},{
"label": "El Desemboque (Kuwai)", "lat": 30.566014, "lng": -112.965832
},{
"label": "Juan Jiménez", "lat": 30.845191, "lng": -112.863541
},{
"label": "Delfina Gallegos", "lat": 30.718298, "lng": -112.36268
},{
"label": "Luis Juárez", "lat": 30.746302, "lng": -112.130543
},{
"label": "El Charco", "lat": 30.670329, "lng": -112.452395
},{
"label": "La Michoacana", "lat": 30.85852, "lng": -112.941882
},{
"label": "San Román (San Judas Tadeo)", "lat": 30.859821, "lng": -112.772393
},{
"label": "Juan García Cabral", "lat": 30.814188, "lng": -112.501162
},{
"label": "Sentispac (Yedith)", "lat": 30.80454, "lng": -112.821914
},{
"label": "San Bartolo", "lat": 30.663208, "lng": -112.827481
},{
"label": "Maribel Cuarto Frío", "lat": 30.523537, "lng": -112.366601
},{
"label": "Guillermo Prieto (El Uno)", "lat": 30.524156, "lng": -112.285027
},{
"label": "Celestino Salcido", "lat": 30.697917, "lng": -112.244303
},{
"label": "El Sinsoncito", "lat": 30.822008, "lng": -112.771744
},{
"label": "Lázaro Cárdenas", "lat": 30.947707, "lng": -112.966714
},{
"label": "El Canaima", "lat": 30.497178, "lng": -112.239398
},{
"label": "El Pañuelo Dos (Costa del Sol)", "lat": 30.664294, "lng": -113.018333
},{
"label": "El Cairo", "lat": 30.846017, "lng": -112.834248
},{
"label": "El Chicuroso", "lat": 30.693242, "lng": -112.186242
},{
"label": "San Javier", "lat": 31.155374, "lng": -112.594948
},{
"label": "Antonio Quintana", "lat": 30.740278, "lng": -112.990278
},{
"label": "Llanos de San Francisco", "lat": 30.844237, "lng": -112.744745
},{
"label": "Roberto Reyna", "lat": 30.70534, "lng": -112.122137
},{
"label": "El Ejemplo", "lat": 31.513286, "lng": -112.27982
},{
"label": "La Codorniz", "lat": 31.144272, "lng": -112.218564
},{
"label": "Los Laureles", "lat": 30.688401, "lng": -112.150066
},{
"label": "San Faustino", "lat": 30.83786, "lng": -112.598956
},{
"label": "Ninguno [Macario Curiel]", "lat": 30.524394, "lng": -112.327549
},{
"label": "Rodolfo Campodónico II", "lat": 30.861078, "lng": -112.788391
},{
"label": "El Molino", "lat": 30.504971, "lng": -112.32288
},{
"label": "La Macarena", "lat": 30.682273, "lng": -112.414478
},{
"label": "Santa Isabel", "lat": 30.790535, "lng": -112.661906
},{
"label": "Gruas Rodríguez", "lat": 30.720704, "lng": -112.107209
},{
"label": "San Marcos", "lat": 30.464656, "lng": -112.207881
},{
"label": "Ejido Obregón", "lat": 31.221878, "lng": -112.546252
},{
"label": "San Juan", "lat": 30.735011, "lng": -112.742983
},{
"label": "El Treinta y Tres", "lat": 30.844689, "lng": -112.791976
},{
"label": "Cuadra el Pelón", "lat": 30.706028, "lng": -112.130573
},{
"label": "Familia Salcido Bracamontes", "lat": 30.701807, "lng": -112.111679
},{
"label": "El Laurel", "lat": 30.683105, "lng": -112.190387
},{
"label": "San Gabriel", "lat": 30.804244, "lng": -112.759784
},{
"label": "Sin Son", "lat": 30.801792, "lng": -112.76949
},{
"label": "Álvaro Obregón", "lat": 30.791845, "lng": -112.994374
},{
"label": "Santa Elena (El Bonito)", "lat": 30.858967, "lng": -112.809277
},{
"label": "El Carrizalito", "lat": 31.337888, "lng": -112.32819
},{
"label": "Nazareno (El Paisaje)", "lat": 30.768091, "lng": -112.551757
},{
"label": "Ninguno [Campanas del Desierto]", "lat": 30.813335, "lng": -112.904232
},{
"label": "La Esperanza", "lat": 30.789881, "lng": -112.956231
},{
"label": "Angelina Clavero Galvez", "lat": 30.698119, "lng": -112.292032
},{
"label": "Los Guerreros", "lat": 30.932714, "lng": -112.847849
},{
"label": "Los Cuates", "lat": 31.31258, "lng": -112.577399
},{
"label": "Bella Vista", "lat": 30.822708, "lng": -112.883923
},{
"label": "Las Caballerizas", "lat": 30.702639, "lng": -112.11473
},{
"label": "Cerrito I", "lat": 30.65606, "lng": -112.897797
},{
"label": "Los Anaya", "lat": 30.755252, "lng": -112.165217
},{
"label": "El Desprecio", "lat": 30.620983, "lng": -112.232727
},{
"label": "Bahamas", "lat": 30.754769, "lng": -112.949917
},{
"label": "Santa Mónica", "lat": 30.468351, "lng": -112.486164
},{
"label": "María Lizárraga", "lat": 30.518445, "lng": -112.344329
},{
"label": "La Curva", "lat": 30.705012, "lng": -112.122506
},{
"label": "Cerrito II", "lat": 30.6755, "lng": -112.899954
},{
"label": "Los Ángeles", "lat": 30.744373, "lng": -112.477573
},{
"label": "La Ampliación (Los Arrojos)", "lat": 30.615442, "lng": -112.333768
},{
"label": "Santa Martha", "lat": 30.474583, "lng": -112.616553
},{
"label": "El Caderazo", "lat": 30.754623, "lng": -112.498108
},{
"label": "Luis Ramírez Caballero", "lat": 30.671328, "lng": -112.204585
},{
"label": "Evita", "lat": 30.767433, "lng": -112.976356
},{
"label": "Guadalupe Martínez", "lat": 30.836331, "lng": -112.894376
},{
"label": "Vicente Valenzuela (El Refugio)", "lat": 30.611493, "lng": -112.408502
},{
"label": "La Esmeralda I", "lat": 30.746834, "lng": -112.520913
},{
"label": "Ampliación Fronteras", "lat": 30.704676, "lng": -112.296782
},{
"label": "Ninguno [Maximo Robledo]", "lat": 30.616054, "lng": -112.227091
},{
"label": "La Carreta", "lat": 30.556214, "lng": -112.382068
},{
"label": "Fernando Cañez", "lat": 30.723593, "lng": -112.114165
},{
"label": "La Fortuna", "lat": 30.759556, "lng": -112.425497
},{
"label": "La Campiña", "lat": 30.52189, "lng": -112.315546
},{
"label": "El Jagüey", "lat": 30.861111, "lng": -113.103333
},{
"label": "María del Carmen", "lat": 30.809778, "lng": -112.650156
},{
"label": "Sergio Celaya", "lat": 30.665298, "lng": -112.192889
},{
"label": "Poblado San Felipe", "lat": 30.836874, "lng": -112.820857
},{
"label": "Las Lidias (Santa Lidia)", "lat": 30.792569, "lng": -112.727249
},{
"label": "Cachanilla I", "lat": 30.652004, "lng": -112.192491
},{
"label": "Francisco Celaya", "lat": 30.680041, "lng": -112.204709
},{
"label": "San Francisquito", "lat": 31.594754, "lng": -112.327141
},{
"label": "Huanímaro", "lat": 30.813749, "lng": -112.716446
},{
"label": "Rancho San Luisito", "lat": 31.199481, "lng": -112.476792
},{
"label": "La Palma (Plácido Ortíz López)", "lat": 30.702386, "lng": -112.112303
},{
"label": "El Plomito (UMA el Viejo)", "lat": 30.261693, "lng": -112.350597
},{
"label": "Empaque la Almita", "lat": 30.721664, "lng": -112.432481
},{
"label": "La Basura", "lat": 30.925491, "lng": -112.26705
},{
"label": "Cajeme", "lat": 30.772792, "lng": -112.934937
},{
"label": "El Rebelde I", "lat": 30.652134, "lng": -112.439472
},{
"label": "La Ladrillera", "lat": 30.679918, "lng": -112.175325
},{
"label": "Parayso (Guanajuato)", "lat": 30.826377, "lng": -112.894677
},{
"label": "Tajitos", "lat": 30.955389, "lng": -112.355236
},{
"label": "La Choya", "lat": 30.79917, "lng": -112.458123
},{
"label": "Siberia", "lat": 30.838764, "lng": -112.815012
},{
"label": "El Panamá", "lat": 31.642237, "lng": -112.325212
},{
"label": "Barrio de Guadalupe", "lat": 30.862585, "lng": -113.00672
},{
"label": "Rafael Celaya", "lat": 30.683008, "lng": -112.206159
},{
"label": "El Barroco de Caborca", "lat": 30.630578, "lng": -112.377557
},{
"label": "San Carlos", "lat": 31.489537, "lng": -112.341617
},{
"label": "El Costeño", "lat": 30.395278, "lng": -112.697222
},{
"label": "Valentina", "lat": 30.562794, "lng": -112.382042
},{
"label": "Edelmira Méndez", "lat": 30.702008, "lng": -112.112569
},{
"label": "El Papalote", "lat": 30.587793, "lng": -112.462871
},{
"label": "Loleyta II", "lat": 30.834997, "lng": -112.78389
},{
"label": "El Mavira", "lat": 30.659963, "lng": -112.438476
},{
"label": "Santa Susana", "lat": 30.73574, "lng": -112.467024
},{
"label": "Los Juncos", "lat": 31.30935, "lng": -112.357937
},{
"label": "Vicente Suárez", "lat": 30.821688, "lng": -112.873623
},{
"label": "Siempre Viva", "lat": 30.743023, "lng": -112.451865
},{
"label": "Taste Don Kiko", "lat": 30.750685, "lng": -112.164905
},{
"label": "San Eduardo", "lat": 30.626515, "lng": -112.954137
},{
"label": "Don Nacho", "lat": 30.695655, "lng": -112.368494
},{
"label": "Doce Robles", "lat": 31.601999, "lng": -112.276743
},{
"label": "Colonia Oeste", "lat": 30.822261, "lng": -112.842166
},{
"label": "Víctor Santiago", "lat": 30.718429, "lng": -112.117282
},{
"label": "Tulio Rivera Hoyos", "lat": 30.742067, "lng": -112.116353
},{
"label": "Campo Norte", "lat": 30.582111, "lng": -112.387624
},{
"label": "El Rebelde 2", "lat": 30.642311, "lng": -112.447272
},{
"label": "La Habana", "lat": 30.772257, "lng": -112.935017
},{
"label": "Martha Aurelia", "lat": 30.883344, "lng": -113.008859
},{
"label": "El Rincón", "lat": 30.694564, "lng": -112.285781
},{
"label": "Ninguno [Daniel Esparza Gómez]", "lat": 30.87193, "lng": -112.96709
},{
"label": "La Ventana (Bizani)", "lat": 30.676576, "lng": -112.362638
},{
"label": "Altar de Pimas I", "lat": 30.842531, "lng": -112.848558
},{
"label": "Ensenada (5 de Diciembre)", "lat": 30.708031, "lng": -112.840374
},{
"label": "El Bajío", "lat": 31.05169, "lng": -112.938214
},{
"label": "San Joaquín", "lat": 30.733665, "lng": -112.41484
},{
"label": "Álamo Seco", "lat": 30.852745, "lng": -112.770246
},{
"label": "Los Naranjos", "lat": 30.968537, "lng": -112.943107
},{
"label": "La Aurora", "lat": 31.54916, "lng": -112.465384
},{
"label": "El Pedernal Uno", "lat": 30.841857, "lng": -112.729471
},{
"label": "Laguna Prieta", "lat": 30.687261, "lng": -112.495135
},{
"label": "Llanos de San Francisco [Viñedo]", "lat": 30.829716, "lng": -112.756203
},{
"label": "María Isabel de los Olivos", "lat": 30.580639, "lng": -112.944666
},{
"label": "María Dámaso (Tierra Nueva)", "lat": 30.789036, "lng": -112.999706
},{
"label": "San Ramón Uno (Familia Méndez Espinoza)", "lat": 30.720916, "lng": -112.814417
},{
"label": "Último Esfuerzo II (La Diecinueve)", "lat": 30.806179, "lng": -112.874258
},{
"label": "Ejido Fronteras", "lat": 30.659474, "lng": -112.258518
},{
"label": "La Pelota (Bomba)", "lat": 30.478731, "lng": -112.239771
},{
"label": "Don Javier", "lat": 30.743865, "lng": -112.7658
},{
"label": "La Retranca", "lat": 30.844152, "lng": -112.628516
},{
"label": "Puerto Lobos", "lat": 30.271829, "lng": -112.844923
},{
"label": "Vicente Lombardo Toledano", "lat": 30.649329, "lng": -112.35927
},{
"label": "Santa Eduwiges (La Cachora)", "lat": 30.769601, "lng": -112.525082
},{
"label": "El Puebla", "lat": 30.805519, "lng": -112.792121
},{
"label": "San Luis del Desierto (El Treinta)", "lat": 30.717036, "lng": -112.825354
},{
"label": "Campo de la UNISON", "lat": 30.745284, "lng": -112.437184
},{
"label": "Familia Garcíal", "lat": 30.771235, "lng": -112.164221
},{
"label": "Juan Escutia", "lat": 30.72171, "lng": -112.436256
},{
"label": "El Teodolito", "lat": 30.639859, "lng": -112.230758
},{
"label": "Luis Carlos Encinas", "lat": 30.698572, "lng": -112.241376
},{
"label": "La Perla del Desierto", "lat": 30.625366, "lng": -112.270026
},{
"label": "Rosa Blanca", "lat": 31.049993, "lng": -112.944398
},{
"label": "Tlapacoya", "lat": 30.654021, "lng": -112.308274
},{
"label": "El Polvorín", "lat": 30.789801, "lng": -112.915077
},{
"label": "El Centenario", "lat": 30.758719, "lng": -112.842029
},{
"label": "Banori", "lat": 31.593744, "lng": -112.160985
},{
"label": "La Sierrita", "lat": 30.886507, "lng": -112.448663
},{
"label": "El Pedernal Dos", "lat": 30.850684, "lng": -112.726667
},{
"label": "Fruta Seca", "lat": 30.705378, "lng": -112.209077
},{
"label": "Vicente Herrera Martínez", "lat": 30.675174, "lng": -112.224482
},{
"label": "Francisco I. Madero II", "lat": 30.813089, "lng": -112.884261
},{
"label": "Mina Pozo Prieto", "lat": 30.329167, "lng": -112.5325
},{
"label": "Los Tres Caballos", "lat": 30.708914, "lng": -112.362484
},{
"label": "Dolores", "lat": 31.092287, "lng": -112.574667
},{
"label": "La Almita", "lat": 30.704947, "lng": -112.433382
},{
"label": "Manuel Beltrán", "lat": 30.708552, "lng": -112.110854
},{
"label": "Agri-Eri (Dos Álamos)", "lat": 30.754871, "lng": -112.810593
},{
"label": "El Abasolo", "lat": 30.812187, "lng": -112.843016
},{
"label": "La Inmaculada (Santa Isabel)", "lat": 30.790558, "lng": -112.658289
},{
"label": "Las Carmelitas", "lat": 30.903597, "lng": -112.202558
},{
"label": "Ejido Cajeme Dos", "lat": 30.521089, "lng": -112.261362
},{
"label": "Condores Libertarios", "lat": 30.741303, "lng": -113.008639
},{
"label": "El Durazno", "lat": 31.359458, "lng": -112.373493
},{
"label": "Las Palomas", "lat": 30.864388, "lng": -113.044096
},{
"label": "Antonio Enciso", "lat": 30.717281, "lng": -112.363706
},{
"label": "Estación Climatológica", "lat": 30.695586, "lng": -112.109993
},{
"label": "El Olivo", "lat": 30.45897, "lng": -112.262915
},{
"label": "Campo Rivera", "lat": 30.612495, "lng": -112.407709
},{
"label": "Frigorífico de Caborca", "lat": 30.803287, "lng": -112.676091
},{
"label": "Manuel Flores", "lat": 30.638286, "lng": -112.211973
},{
"label": "Cerro Blanco", "lat": 30.750561, "lng": -112.863264
},{
"label": "Pozo Blanco", "lat": 31.349088, "lng": -112.322512
},{
"label": "Gilberto Molina", "lat": 30.701791, "lng": -112.1135
},{
"label": "Santa Matilde (Viuda Guadalupe Osuna)", "lat": 30.831334, "lng": -112.710582
},{
"label": "La Cuestita", "lat": 30.817764, "lng": -112.842403
},{
"label": "Último Esfuerzo", "lat": 30.789005, "lng": -112.844455
},{
"label": "El Arrebol", "lat": 30.525706, "lng": -112.242614
},{
"label": "La Mariposa", "lat": 30.191126, "lng": -112.410155
},{
"label": "Ginebra Represo", "lat": 31.575736, "lng": -112.425802
},{
"label": "El Injerto", "lat": 31.177607, "lng": -112.205476
},{
"label": "El Colectivo", "lat": 30.71175, "lng": -112.219023
},{
"label": "El Chaparral", "lat": 30.590835, "lng": -112.155597
},{
"label": "Juan Jiménez Hernández (Colonia Vicente Guerrero)", "lat": 30.847766, "lng": -112.884318
},{
"label": "El Coyote", "lat": 30.821782, "lng": -112.606858
},{
"label": "Josefa Ortiz de Domínguez", "lat": 30.590946, "lng": -112.411441
},{
"label": "El Fénix", "lat": 30.559409, "lng": -112.156132
},{
"label": "El Tepeyac", "lat": 30.823558, "lng": -112.296384
},{
"label": "El Postizo", "lat": 30.847313, "lng": -112.682041
},{
"label": "Villa Centauro", "lat": 30.716028, "lng": -112.448638
},{
"label": "San Manuel", "lat": 30.514532, "lng": -112.280612
},{
"label": "Santa Matilde", "lat": 30.835562, "lng": -112.70938
},{
"label": "Ángela Robles León", "lat": 30.707136, "lng": -112.123106
},{
"label": "San Ramoncito", "lat": 30.511441, "lng": -112.307187
},{
"label": "El Cuarenta y Nueve", "lat": 30.702778, "lng": -112.860278
},{
"label": "San Guillermo", "lat": 30.753525, "lng": -112.323239
},{
"label": "Aurelio Sibriano", "lat": 30.83021, "lng": -112.873703
},{
"label": "La Misión (Las Higueras)", "lat": 30.950721, "lng": -112.973473
},{
"label": "Chiquita", "lat": 30.678204, "lng": -112.435993
},{
"label": "Santa Inés", "lat": 30.774416, "lng": -112.742713
},{
"label": "Lucas Celaya Oros", "lat": 30.749878, "lng": -112.104479
},{
"label": "La Victoria", "lat": 31.001128, "lng": -112.10247
},{
"label": "El Tejo", "lat": 30.979357, "lng": -112.330242
},{
"label": "Praderas María Dolores", "lat": 30.539093, "lng": -112.254954
},{
"label": "Ninguno [Ignacio Palacios]", "lat": 30.788768, "lng": -112.884586
},{
"label": "Ejido Mártires de Cananea", "lat": 30.909164, "lng": -112.851949
},{
"label": "San Diego", "lat": 30.596394, "lng": -112.270835
},{
"label": "El Cuerno", "lat": 30.643491, "lng": -112.286159
},{
"label": "La Primavera", "lat": 30.498513, "lng": -112.321356
},{
"label": "Campo Aguilar", "lat": 30.812819, "lng": -112.905887
},{
"label": "El Charco de las Calenturas", "lat": 30.60348, "lng": -112.396322
},{
"label": "Titaya", "lat": 30.811389, "lng": -112.752386
},{
"label": "San Andrés [Viñedos]", "lat": 30.853999, "lng": -112.741569
},{
"label": "Mártires de Cananea II", "lat": 30.862833, "lng": -112.842418
},{
"label": "San Juan de Dios", "lat": 30.864787, "lng": -112.744097
},{
"label": "Waldo Grijalva Martínez", "lat": 30.720817, "lng": -112.105
},{
"label": "San Lorenzo", "lat": 30.512828, "lng": -112.317005
},{
"label": "Loleyta", "lat": 30.836558, "lng": -112.773262
},{
"label": "Corralejo", "lat": 31.110826, "lng": -112.202689
},{
"label": "Las Dunas", "lat": 30.897335, "lng": -112.868856
},{
"label": "Rodríguez Santiago", "lat": 30.828985, "lng": -112.90488
},{
"label": "La Escondida", "lat": 31.427203, "lng": -112.412774
},{
"label": "Los Cachambo", "lat": 30.869645, "lng": -112.155084
},{
"label": "Raymundo Baltierra", "lat": 30.669544, "lng": -112.186931
},{
"label": "San Judas Tadeo (Los Pocitos)", "lat": 30.971169, "lng": -112.389931
},{
"label": "Ninguno [Moises Chait]", "lat": 30.93338, "lng": -112.373908
},{
"label": "Salud Saldaña", "lat": 30.863397, "lng": -112.942925
},{
"label": "Santa Rosa", "lat": 30.501135, "lng": -112.675849
},{
"label": "El Álamo", "lat": 30.752096, "lng": -112.542662
},{
"label": "Antonio Zamora", "lat": 30.647687, "lng": -112.270721
},{
"label": "Doña Gina", "lat": 30.750249, "lng": -112.120016
},{
"label": "Bella Mar (Villa del Mar)", "lat": 30.585364, "lng": -112.947854
},{
"label": "Fernando Ramírez Suarez", "lat": 30.668147, "lng": -112.179717
},{
"label": "Don Emilio", "lat": 30.717603, "lng": -112.383493
},{
"label": "La Bandera II", "lat": 31.023277, "lng": -112.124848
},{
"label": "Torrentera", "lat": 30.832931, "lng": -112.64169
},{
"label": "Sahueso 2", "lat": 30.783098, "lng": -112.466629
},{
"label": "Lito Delgado", "lat": 30.750802, "lng": -112.140093
},{
"label": "Las Palmas", "lat": 30.752207, "lng": -112.186041
},{
"label": "El Sahuaral", "lat": 30.682856, "lng": -112.160013
},{
"label": "La Candelaria", "lat": 30.504822, "lng": -112.281083
},{
"label": "Santa Elena (Rancho San Cipriano)", "lat": 31.131965, "lng": -112.45976
},{
"label": "Loma Linda", "lat": 30.723086, "lng": -112.456664
},{
"label": "Los Caborqueños", "lat": 31.001281, "lng": -112.087523
},{
"label": "Santa María II", "lat": 30.681762, "lng": -112.941591
},{
"label": "Santo Niño", "lat": 30.747825, "lng": -112.806389
},{
"label": "Charco Viejo", "lat": 31.07845, "lng": -112.208046
},{
"label": "Martín Ibarra", "lat": 30.682116, "lng": -112.199514
},{
"label": "Las Marías", "lat": 30.571826, "lng": -112.379666
},{
"label": "San Gilberto", "lat": 30.994724, "lng": -112.102823
},{
"label": "Casa Blanca (El Pozo)", "lat": 30.482227, "lng": -112.177684
},{
"label": "Saucito", "lat": 30.617601, "lng": -112.369827
},{
"label": "Salomón Quihuis", "lat": 30.579894, "lng": -112.255524
},{
"label": "La Ampliación", "lat": 30.544066, "lng": -112.340134
},{
"label": "La Selva", "lat": 30.490579, "lng": -112.218069
},{
"label": "La Esmeralda", "lat": 30.75419, "lng": -112.52311
},{
"label": "Los Reyes", "lat": 30.515243, "lng": -112.327149
},{
"label": "San Rafael", "lat": 30.607164, "lng": -112.344645
},{
"label": "SPR María Dámaso II", "lat": 30.780648, "lng": -113.00924
},{
"label": "Empaque Campo Grande", "lat": 30.771972, "lng": -112.461692
},{
"label": "Santa Trinidad", "lat": 30.763288, "lng": -112.854444
},{
"label": "El Refugio", "lat": 30.687197, "lng": -112.152954
},{
"label": "Cancún", "lat": 30.772139, "lng": -112.946166
},{
"label": "Mariano Isaac", "lat": 30.675703, "lng": -112.185619
},{
"label": "Del Carmen [Porcícola]", "lat": 30.657096, "lng": -112.189442
},{
"label": "San Luisito (Ejido)", "lat": 31.193286, "lng": -112.471102
},{
"label": "Villa Centauro del Norte", "lat": 30.812555, "lng": -112.522606
},{
"label": "Yesenia (Silvia Elena)", "lat": 30.822488, "lng": -112.798746
},{
"label": "La Realidad", "lat": 30.790165, "lng": -112.767766
},{
"label": "San Luisito [Restaurante]", "lat": 31.200211, "lng": -112.476091
},{
"label": "San Emilio", "lat": 30.670991, "lng": -112.196262
},{
"label": "Martín Encizo (Los Encizos)", "lat": 30.652732, "lng": -113.048382
},{
"label": "Los Cascabeles", "lat": 30.726318, "lng": -112.122417
},{
"label": "Río Viejo (El Alma)", "lat": 30.686774, "lng": -112.456357
},{
"label": "El Norteño (2 de Enero)", "lat": 30.805981, "lng": -112.593375
},{
"label": "Los Renegados", "lat": 30.968219, "lng": -112.980115
},{
"label": "Las Delicias", "lat": 31.410163, "lng": -112.484029
},{
"label": "El Parral (El Elefante)", "lat": 30.798847, "lng": -112.779112
},{
"label": "Aquituni", "lat": 30.503088, "lng": -112.218413
},{
"label": "Esquivel", "lat": 30.787509, "lng": -112.826639
},{
"label": "Frontera Uno", "lat": 30.703922, "lng": -112.225193
},{
"label": "Pozo Prieto", "lat": 30.446482, "lng": -112.443137
},{
"label": "La Barra", "lat": 30.508227, "lng": -112.337665
},{
"label": "José María Pino Suárez", "lat": 30.586519, "lng": -112.330807
},{
"label": "15 de Septiembre", "lat": 30.873087, "lng": -112.971761
},{
"label": "La Bandera I", "lat": 31.032097, "lng": -112.144629
},{
"label": "México Sesenta y Ocho", "lat": 30.797801, "lng": -112.431761
},{
"label": "Alpe", "lat": 31.129444, "lng": -112.228147
},{
"label": "El Recodo", "lat": 31.149722, "lng": -112.251944
},{
"label": "Campo Nuevo", "lat": 30.519921, "lng": -112.245843
},{
"label": "Las Tres Californias", "lat": 30.652644, "lng": -112.192904
},{
"label": "El Sahueso", "lat": 30.789031, "lng": -112.467064
},{
"label": "Las Norias (De Romero)", "lat": 31.092877, "lng": -112.468732
},{
"label": "San Jorge (La Nogalera)", "lat": 30.653704, "lng": -112.419558
},{
"label": "El Naranjo", "lat": 30.725835, "lng": -112.105808
},{
"label": "La Providencia", "lat": 30.652388, "lng": -112.281371
},{
"label": "Doña Elvira", "lat": 30.743028, "lng": -112.128407
},{
"label": "San Pedro", "lat": 31.033495, "lng": -112.393913
},{
"label": "Villa de Guadalupe", "lat": 30.867605, "lng": -112.965459
},{
"label": "La Morita", "lat": 30.939101, "lng": -112.505714
},{
"label": "General Ávila Camacho", "lat": 30.294353, "lng": -112.652065
},{
"label": "Toribio Robles", "lat": 30.822153, "lng": -112.821753
},{
"label": "Los Pérez", "lat": 31.609229, "lng": -112.296974
},{
"label": "Raúl Guillén Rodríguez", "lat": 30.720151, "lng": -112.1134
},{
"label": "La Rivera", "lat": 30.853388, "lng": -112.904729
},{
"label": "Nochebuena Nueva (Las Palmas)", "lat": 31.025602, "lng": -112.559999
},{
"label": "Santa Margarita", "lat": 30.844409, "lng": -112.936537
},{
"label": "El Tren", "lat": 30.646088, "lng": -112.294792
},{
"label": "Porfiria Tovar (Nazario Ortiz Garza)", "lat": 30.798084, "lng": -112.973435
},{
"label": "Jesús García", "lat": 30.73139, "lng": -112.395551
},{
"label": "La Cruz del Bajío", "lat": 30.789567, "lng": -112.976846
},{
"label": "Plutarco Elías Calles (La Y Griega)", "lat": 30.809556, "lng": -112.72108
},{
"label": "Gil Antonio Caro Soto", "lat": 30.691904, "lng": -112.131974
},{
"label": "La Campana", "lat": 31.209747, "lng": -112.287972
},{
"label": "La Manteca", "lat": 31.400093, "lng": -112.284246
},{
"label": "La Palapa", "lat": 30.485387, "lng": -112.22908
},{
"label": "La Garita", "lat": 30.562041, "lng": -112.264945
},{
"label": "Los Dorados de Villa", "lat": 30.663894, "lng": -113.038805
},{
"label": "Taste las Calabazas", "lat": 30.734062, "lng": -112.109517
},{
"label": "Iván de Jesús (Las Boquillas)", "lat": 30.581628, "lng": -112.270774
},{
"label": "Francisco Mujica Li [Ejido]", "lat": 31.191798, "lng": -112.466754
},{
"label": "San Miguel de Horcacitas", "lat": 30.721681, "lng": -112.509205
},{
"label": "Hilario Gavilondo", "lat": 30.477635, "lng": -112.283456
},{
"label": "Santa Beatriz (Santa Amalia)", "lat": 30.796724, "lng": -112.812042
},{
"label": "Cachanilla II", "lat": 30.637621, "lng": -112.1958
},{
"label": "El Azteca", "lat": 31.101336, "lng": -112.244401
},{
"label": "Abel Yon Ortega", "lat": 30.720626, "lng": -112.113743
},{
"label": "El Mezquite", "lat": 30.646262, "lng": -112.2149
},{
"label": "San Pablo (Sergio Reyes)", "lat": 30.745221, "lng": -112.457322
},{
"label": "Carlos Arrizon", "lat": 30.720529, "lng": -112.116616
},{
"label": "Sinaloa", "lat": 30.736094, "lng": -112.92563
},{
"label": "Floridita", "lat": 30.771735, "lng": -112.48752
},{
"label": "Santa Patricia", "lat": 30.495611, "lng": -112.269812
},{
"label": "Alfa Estrella", "lat": 30.727257, "lng": -112.970354
}]