[{
"label": "El Jupis", "lat": 29.565511, "lng": -109.497982
},{
"label": "El Álamo", "lat": 29.639801, "lng": -109.383249
},{
"label": "Los Pavos (Francisco Valencia)", "lat": 29.576667, "lng": -109.382222
},{
"label": "Ranchito de Abajo", "lat": 29.547203, "lng": -109.282186
},{
"label": "Sobaisetachi", "lat": 29.627976, "lng": -109.331876
},{
"label": "Las Rastritas", "lat": 29.615037, "lng": -109.346495
},{
"label": "La Milpita (Aurelio Duarte)", "lat": 29.665278, "lng": -109.430556
},{
"label": "Pueblo Viejo", "lat": 29.567848, "lng": -109.238328
},{
"label": "Las Palomas Dos", "lat": 29.605278, "lng": -109.362222
},{
"label": "El Mausaro", "lat": 29.565, "lng": -109.390556
},{
"label": "La Libertad (Trinidad Acuña)", "lat": 29.721111, "lng": -109.488333
},{
"label": "Rancho los Griegos", "lat": 29.59789, "lng": -109.492699
},{
"label": "Las Palmas", "lat": 29.675278, "lng": -109.423889
},{
"label": "Las Palomas", "lat": 29.603095, "lng": -109.363844
},{
"label": "Salitral", "lat": 29.70651, "lng": -109.444429
},{
"label": "La Misión", "lat": 29.589067, "lng": -109.425328
},{
"label": "La Tamalera", "lat": 29.658058, "lng": -109.466555
},{
"label": "Rancho Gallego", "lat": 29.608611, "lng": -109.241667
},{
"label": "La Mojonera", "lat": 29.674746, "lng": -109.399749
},{
"label": "El Monstruo de Cobre", "lat": 29.642241, "lng": -109.352501
},{
"label": "Churunequi", "lat": 29.685149, "lng": -109.383575
},{
"label": "El Jaris", "lat": 29.568966, "lng": -109.384436
},{
"label": "Promontorio", "lat": 29.575427, "lng": -109.327585
},{
"label": "Divisaderos", "lat": 29.614976, "lng": -109.470258
},{
"label": "Campo de Aurelio", "lat": 29.591965, "lng": -109.331594
},{
"label": "La Noria de Divisaderos", "lat": 29.645826, "lng": -109.455395
},{
"label": "La Morita", "lat": 29.590243, "lng": -109.362297
},{
"label": "Las Tinajitas", "lat": 29.665668, "lng": -109.450959
},{
"label": "La Tomasa", "lat": 29.589325, "lng": -109.437159
},{
"label": "Norberto Ibarra", "lat": 29.618889, "lng": -109.463889
},{
"label": "Los Alisos", "lat": 29.540556, "lng": -109.351111
}]