[{
"label": "Las Pilas", "lat": 28.462899, "lng": -109.553996
},{
"label": "Los Amoles", "lat": 28.47512, "lng": -109.433626
},{
"label": "El Aguaje", "lat": 28.395838, "lng": -109.604478
},{
"label": "Potrero de Galindo", "lat": 28.365828, "lng": -109.421651
},{
"label": "Mesa de Galindo", "lat": 28.390012, "lng": -109.417886
},{
"label": "Los Tepehuajes", "lat": 28.509703, "lng": -109.411144
},{
"label": "El Carrizal", "lat": 28.523633, "lng": -109.445289
},{
"label": "Carricito", "lat": 28.417079, "lng": -109.348306
},{
"label": "Las Mesitas", "lat": 28.354104, "lng": -109.418646
},{
"label": "El Tecolote", "lat": 28.539858, "lng": -109.447858
},{
"label": "Las Varas Prietas", "lat": 28.361967, "lng": -109.394054
},{
"label": "Nopalera la Mina", "lat": 28.479966, "lng": -109.490503
},{
"label": "Pozo Prieto", "lat": 28.419167, "lng": -109.588056
},{
"label": "La Mesa del Switch", "lat": 28.455988, "lng": -109.53988
},{
"label": "Los 4 Ases", "lat": 28.412364, "lng": -109.539192
},{
"label": "Los Graseritos", "lat": 28.435553, "lng": -109.424508
},{
"label": "El Rodeo", "lat": 28.462612, "lng": -109.378777
},{
"label": "El Palmar (Tavo Quijada)", "lat": 28.495833, "lng": -109.394167
},{
"label": "Los Paredones", "lat": 28.527601, "lng": -109.566916
},{
"label": "El Tulito", "lat": 28.475356, "lng": -109.383956
},{
"label": "El Recodo", "lat": 28.41009, "lng": -109.536648
},{
"label": "Los Carreños", "lat": 28.464865, "lng": -109.530106
},{
"label": "Las Piedras Bolas", "lat": 28.416625, "lng": -109.629942
},{
"label": "El Mimbre", "lat": 28.430585, "lng": -109.576351
},{
"label": "La Guerra", "lat": 28.410704, "lng": -109.365332
},{
"label": "Onavas", "lat": 28.460244, "lng": -109.529148
},{
"label": "Rancho Raquel", "lat": 28.495833, "lng": -109.3775
},{
"label": "Las Tierritas", "lat": 28.425584, "lng": -109.415716
},{
"label": "La Mula", "lat": 28.481405, "lng": -109.367041
},{
"label": "Bajío Largo", "lat": 28.416821, "lng": -109.644966
},{
"label": "Cuba", "lat": 28.374226, "lng": -109.571873
},{
"label": "El Potrerillo", "lat": 28.435111, "lng": -109.383746
},{
"label": "Cajón de Catorce", "lat": 28.420903, "lng": -109.581877
},{
"label": "La Pila", "lat": 28.469093, "lng": -109.531247
},{
"label": "Las Tierritas de Caleri", "lat": 28.508754, "lng": -109.539018
},{
"label": "Chiquitín", "lat": 28.419444, "lng": -109.415278
},{
"label": "Agua del Buey", "lat": 28.491606, "lng": -109.435068
},{
"label": "Providencia", "lat": 28.384167, "lng": -109.447778
},{
"label": "El Joguehui", "lat": 28.545556, "lng": -109.428611
},{
"label": "El Carricito", "lat": 28.383611, "lng": -109.447778
},{
"label": "El Águila", "lat": 28.532686, "lng": -109.554174
},{
"label": "Los Abolillos", "lat": 28.480976, "lng": -109.430454
},{
"label": "Rancho Nuevo", "lat": 28.554722, "lng": -109.443889
},{
"label": "La Sierrita", "lat": 28.507134, "lng": -109.374643
},{
"label": "Las Pilas (Valenzuela)", "lat": 28.497204, "lng": -109.369256
}]