[{
"label": "Los Amoles", "lat": 29.776667, "lng": -110.473889
},{
"label": "Establo de la Secundaria Número Treinta y Tres", "lat": 29.716612, "lng": -110.552497
},{
"label": "El Pajarito", "lat": 29.70962, "lng": -110.500928
},{
"label": "La Palmita", "lat": 29.793332, "lng": -110.577696
},{
"label": "Tres Álamos", "lat": 29.835252, "lng": -110.584535
},{
"label": "La Puerta Negra", "lat": 29.720778, "lng": -110.542408
},{
"label": "El Tecolote", "lat": 29.812875, "lng": -110.492176
},{
"label": "El Pozo", "lat": 29.782551, "lng": -110.589853
},{
"label": "Loreto", "lat": 29.867734, "lng": -110.549995
},{
"label": "Nacameri", "lat": 29.696009, "lng": -110.652455
},{
"label": "Agua Fría", "lat": 29.787299, "lng": -110.706568
},{
"label": "El Huevito", "lat": 29.762881, "lng": -110.606895
},{
"label": "La Huerta", "lat": 29.618861, "lng": -110.555024
},{
"label": "Los Zanjones", "lat": 29.778449, "lng": -110.577359
},{
"label": "Los Taraices (Los Tarayes)", "lat": 29.758476, "lng": -110.410535
},{
"label": "La Huerfanita", "lat": 29.795076, "lng": -110.614159
},{
"label": "Los Chinos", "lat": 29.806145, "lng": -110.447674
},{
"label": "San Isidro", "lat": 29.730573, "lng": -110.565956
},{
"label": "Lo de Salas", "lat": 29.771077, "lng": -110.483833
},{
"label": "San Luis", "lat": 29.744853, "lng": -110.568224
},{
"label": "La Higuera", "lat": 29.839956, "lng": -110.454196
},{
"label": "El Charco", "lat": 29.679022, "lng": -110.57476
},{
"label": "Los Conejos", "lat": 29.765709, "lng": -110.571504
},{
"label": "Garambullo", "lat": 29.864789, "lng": -110.59526
},{
"label": "Jiquima", "lat": 29.69111, "lng": -110.583384
},{
"label": "La Sandía", "lat": 29.729167, "lng": -110.485
},{
"label": "El Cumaral", "lat": 29.692632, "lng": -110.41534
},{
"label": "San Fernando", "lat": 29.726972, "lng": -110.581878
},{
"label": "Ojo de Agua", "lat": 29.757229, "lng": -110.586516
},{
"label": "La Junta", "lat": 29.806164, "lng": -110.483999
},{
"label": "Santa Rosa", "lat": 29.723008, "lng": -110.523144
},{
"label": "La Palma", "lat": 29.784662, "lng": -110.576894
},{
"label": "La Galera (El Yuruh)", "lat": 29.635026, "lng": -110.555489
},{
"label": "Las Carpitas", "lat": 29.81676, "lng": -110.582091
},{
"label": "La Pancheña", "lat": 29.771397, "lng": -110.58904
},{
"label": "El Tesotal", "lat": 29.714942, "lng": -110.47828
},{
"label": "Dolores", "lat": 29.642921, "lng": -110.531162
},{
"label": "La Casa Colorada", "lat": 29.686251, "lng": -110.581375
},{
"label": "La Paz (La Paz de Rayón)", "lat": 29.735628, "lng": -110.582474
},{
"label": "Las Rastritas", "lat": 29.628907, "lng": -110.647496
},{
"label": "Los Cochis", "lat": 29.662472, "lng": -110.532684
},{
"label": "Galavís", "lat": 29.860278, "lng": -110.467222
},{
"label": "Beatriz", "lat": 29.763611, "lng": -110.498889
},{
"label": "La Morita (Las Moritas)", "lat": 29.848284, "lng": -110.447949
},{
"label": "La Engorda", "lat": 29.802723, "lng": -110.591649
},{
"label": "Rayón", "lat": 29.714479, "lng": -110.573504
},{
"label": "Cerro de Oro", "lat": 29.610764, "lng": -110.633194
},{
"label": "El Saucito", "lat": 29.715675, "lng": -110.683244
},{
"label": "La Galera", "lat": 29.726115, "lng": -110.567386
},{
"label": "La Rofineña", "lat": 29.867049, "lng": -110.593524
},{
"label": "El Tule", "lat": 29.911355, "lng": -110.542953
},{
"label": "Los Algodones", "lat": 29.771623, "lng": -110.585655
},{
"label": "La Chúcata", "lat": 29.704943, "lng": -110.665218
},{
"label": "La Palma Cuata", "lat": 29.803056, "lng": -110.483333
},{
"label": "Las Cuevitas", "lat": 29.778281, "lng": -110.520694
},{
"label": "Tapizuela", "lat": 29.819218, "lng": -110.622287
},{
"label": "San Ricardo (Buenos Aires)", "lat": 29.844924, "lng": -110.584865
},{
"label": "El Pima", "lat": 29.792193, "lng": -110.588493
},{
"label": "Los González", "lat": 29.804636, "lng": -110.578045
},{
"label": "El Bigote", "lat": 29.703369, "lng": -110.685221
},{
"label": "San Rafael", "lat": 29.834209, "lng": -110.597231
},{
"label": "Los Apaches", "lat": 29.775286, "lng": -110.59003
},{
"label": "Granja del Ejido Rayón", "lat": 29.706679, "lng": -110.539198
},{
"label": "La Cañada", "lat": 29.730548, "lng": -110.499256
},{
"label": "El Fresno", "lat": 29.736084, "lng": -110.571124
},{
"label": "San Antonio (Los Chirriones)", "lat": 29.724341, "lng": -110.509595
},{
"label": "De Cruz", "lat": 29.846809, "lng": -110.523451
},{
"label": "La Cabrera", "lat": 29.75393, "lng": -110.581523
},{
"label": "Agua del Difunto Chino", "lat": 29.805805, "lng": -110.509504
},{
"label": "La Nopalera", "lat": 29.791676, "lng": -110.688102
},{
"label": "Los Chinitos", "lat": 29.650243, "lng": -110.635734
},{
"label": "Rancho Seco", "lat": 29.681619, "lng": -110.709377
}]