[{
"label": "Tezompan", "lat": 19.787409, "lng": -97.44157
},{
"label": "San Ambrosio", "lat": 19.819231, "lng": -97.447006
},{
"label": "Tanhuixco", "lat": 19.820177, "lng": -97.467431
},{
"label": "Quinta la Piedad", "lat": 19.819899, "lng": -97.426148
},{
"label": "Cala Norte", "lat": 19.847992, "lng": -97.42319
},{
"label": "Atempan", "lat": 19.8399, "lng": -97.459279
},{
"label": "Meyuco", "lat": 19.826288, "lng": -97.434012
},{
"label": "Las Delicias", "lat": 19.834773, "lng": -97.443558
},{
"label": "Apatauyan", "lat": 19.803154, "lng": -97.443235
},{
"label": "El Cuatro", "lat": 19.786649, "lng": -97.457225
},{
"label": "Atzalán", "lat": 19.824187, "lng": -97.444164
},{
"label": "Huexoteno", "lat": 19.844524, "lng": -97.433543
},{
"label": "Potrero Nuevo", "lat": 19.838644, "lng": -97.424521
},{
"label": "Las Canoas", "lat": 19.817387, "lng": -97.446255
},{
"label": "San Nicolás (Animazco)", "lat": 19.842828, "lng": -97.447582
},{
"label": "Tacopan", "lat": 19.836556, "lng": -97.431099
},{
"label": "Cala Sur", "lat": 19.832061, "lng": -97.420226
},{
"label": "Tezhuatepec", "lat": 19.811328, "lng": -97.462554
}]