[{
"label": "Guadalupe Sabinal", "lat": 18.923657, "lng": -97.402504
},{
"label": "San Martín Otaola", "lat": 18.889323, "lng": -97.444584
},{
"label": "Potrero la Mora", "lat": 19.021944, "lng": -97.335833
},{
"label": "Santa María Techachalco", "lat": 18.953413, "lng": -97.470671
},{
"label": "Los Ricardos", "lat": 18.900178, "lng": -97.431267
},{
"label": "San Antonio Limones (Pozo Número 15)", "lat": 18.891815, "lng": -97.490456
},{
"label": "Jesús María", "lat": 18.984235, "lng": -97.42638
},{
"label": "El Veladero (Santa Cruz Veladero)", "lat": 18.962774, "lng": -97.483921
},{
"label": "Lagua la Millo", "lat": 19.025278, "lng": -97.3375
},{
"label": "Santa Ana", "lat": 19.002703, "lng": -97.405867
},{
"label": "San Pedro Temamatla", "lat": 18.925013, "lng": -97.510731
},{
"label": "San Joaquín", "lat": 19.028481, "lng": -97.432719
},{
"label": "San Martín Ojo de Agua", "lat": 19.009845, "lng": -97.392061
},{
"label": "Capilla de Guadalupe", "lat": 19.00682, "lng": -97.461871
},{
"label": "Pedro Vázquez Marín", "lat": 19.034722, "lng": -97.349722
},{
"label": "El Mirador", "lat": 18.93999, "lng": -97.432318
},{
"label": "Ciudad Serdán", "lat": 18.98826, "lng": -97.448496
},{
"label": "Concepción Oviedo (Rancho Viejo)", "lat": 18.922293, "lng": -97.464711
},{
"label": "Los Cedros", "lat": 18.981109, "lng": -97.467508
},{
"label": "El Reclusorio", "lat": 18.995656, "lng": -97.505642
},{
"label": "Ex-Hacienda Guadalupe", "lat": 18.916856, "lng": -97.385416
},{
"label": "Dolores Buenpaís", "lat": 18.925557, "lng": -97.431984
},{
"label": "San Blas Tecolotepec", "lat": 18.908004, "lng": -97.423177
},{
"label": "San Francisco Cuautlancingo (El Barrio)", "lat": 18.996922, "lng": -97.415445
},{
"label": "De la Concepción", "lat": 18.978902, "lng": -97.45408
},{
"label": "Agua del Carbonero", "lat": 19.011944, "lng": -97.337778
},{
"label": "Los Viveros", "lat": 19.053889, "lng": -97.451389
},{
"label": "San Blas Tecolotepec (Gaviotas)", "lat": 18.88817, "lng": -97.409636
},{
"label": "Villa San Andrés", "lat": 19.001682, "lng": -97.497949
},{
"label": "San Jerónimo", "lat": 18.972595, "lng": -97.44413
},{
"label": "San Miguel Barojas", "lat": 18.955027, "lng": -97.437577
},{
"label": "San Pedro el Real", "lat": 18.915761, "lng": -97.499384
},{
"label": "Las Ánimas", "lat": 18.992623, "lng": -97.413571
},{
"label": "San Salvador Cuautenco", "lat": 18.914344, "lng": -97.45381
},{
"label": "Lomas de la Concepción", "lat": 18.977189, "lng": -97.453533
},{
"label": "San Juan Arcos Ojo de Agua", "lat": 19.004542, "lng": -97.395659
},{
"label": "Piedra Parada", "lat": 19.052233, "lng": -97.377301
},{
"label": "Casa Blanca", "lat": 19.021264, "lng": -97.389531
},{
"label": "Las Cocinas (Guadalupe los Pinos)", "lat": 18.970936, "lng": -97.443858
},{
"label": "Miguel Velázquez", "lat": 18.990168, "lng": -97.426974
},{
"label": "Santa Inés Borbolla", "lat": 19.004301, "lng": -97.492179
},{
"label": "San Isidro Canoas Altas", "lat": 18.982456, "lng": -97.353544
},{
"label": "Las Palmas", "lat": 18.930762, "lng": -97.511483
},{
"label": "Manuel Pérez Severiano", "lat": 18.889393, "lng": -97.493359
},{
"label": "San Diego Texmelucan", "lat": 19.019236, "lng": -97.452443
},{
"label": "Alejandro Ordinola López", "lat": 19.030556, "lng": -97.362778
},{
"label": "Maravillas", "lat": 18.914514, "lng": -97.486537
},{
"label": "El Cañito", "lat": 18.992909, "lng": -97.422775
},{
"label": "El Espiguero", "lat": 18.997451, "lng": -97.404097
},{
"label": "El Dominado (El Muerto)", "lat": 19.011944, "lng": -97.343333
},{
"label": "San Miguel Ocotenco", "lat": 19.066047, "lng": -97.452274
},{
"label": "Villa Reales de Serdán", "lat": 18.979131, "lng": -97.456245
},{
"label": "Pastorías Chipes", "lat": 19.010278, "lng": -97.343611
},{
"label": "La Preciosa (San Pedro el Real)", "lat": 18.916148, "lng": -97.484765
},{
"label": "La Ermita", "lat": 18.938645, "lng": -97.416321
},{
"label": "Primero de Mayo", "lat": 18.972793, "lng": -97.460749
},{
"label": "Huixcolotla", "lat": 18.958878, "lng": -97.460383
},{
"label": "Cuatepasole", "lat": 19.040301, "lng": -97.336866
},{
"label": "El Resbaladero", "lat": 18.97706, "lng": -97.459471
},{
"label": "Álvaro Obregón", "lat": 18.904357, "lng": -97.425463
},{
"label": "San Antonio Tecajetes", "lat": 18.958077, "lng": -97.487686
},{
"label": "Sociedad Agrícola López", "lat": 18.91296, "lng": -97.447536
},{
"label": "La Cuchilla de San Antonio", "lat": 19.019167, "lng": -97.343611
},{
"label": "El Sabino", "lat": 18.928451, "lng": -97.408462
},{
"label": "El Pilón", "lat": 18.954722, "lng": -97.356667
},{
"label": "El Duraznal", "lat": 19.015323, "lng": -97.460856
},{
"label": "El Encanto", "lat": 18.908343, "lng": -97.448184
},{
"label": "Ahuatepec del Camino", "lat": 19.040962, "lng": -97.434604
},{
"label": "San Pedro Concepción Candelaria (Candelaria)", "lat": 18.977159, "lng": -97.530008
},{
"label": "Los Ciruelos", "lat": 18.905702, "lng": -97.499211
},{
"label": "Demetrio Pérez", "lat": 18.878932, "lng": -97.476956
},{
"label": "Jesús Nazareno (Rancho Nuevo)", "lat": 18.905801, "lng": -97.459067
}]