[{
"label": "San Antonio Tlatenco", "lat": 19.172588, "lng": -98.495323
},{
"label": "Tepanco", "lat": 19.193631, "lng": -98.469534
},{
"label": "Llano de Majadas (Campo Experimental)", "lat": 19.195913, "lng": -98.582119
},{
"label": "La Vía", "lat": 19.235733, "lng": -98.481316
},{
"label": "Tlapitzaco", "lat": 19.215791, "lng": -98.482397
},{
"label": "Tlacolhuian", "lat": 19.170604, "lng": -98.512484
},{
"label": "Huixtla", "lat": 19.189839, "lng": -98.466711
},{
"label": "Los Bolleros", "lat": 19.205681, "lng": -98.450022
},{
"label": "Texcacoa", "lat": 19.191748, "lng": -98.492802
},{
"label": "Mendocinas (San Miguel Mendocinas)", "lat": 19.22293, "lng": -98.472745
},{
"label": "La Trinidad", "lat": 19.208486, "lng": -98.45652
},{
"label": "Zacamelca", "lat": 19.174291, "lng": -98.512416
},{
"label": "Chicalotla", "lat": 19.215094, "lng": -98.457135
},{
"label": "Santiago", "lat": 19.197309, "lng": -98.467748
},{
"label": "San Juan Tetla", "lat": 19.213728, "lng": -98.503413
},{
"label": "Las Retamas", "lat": 19.174494, "lng": -98.488839
},{
"label": "El Porvenir", "lat": 19.179854, "lng": -98.500641
},{
"label": "San Nicolás Zecalacoayan", "lat": 19.198498, "lng": -98.488084
},{
"label": "San Cristóbal Lale", "lat": 19.232769, "lng": -98.44582
},{
"label": "San Lorenzo Chiautzingo", "lat": 19.202914, "lng": -98.468259
},{
"label": "San Agustín Atzompa", "lat": 19.204239, "lng": -98.511435
},{
"label": "Xicoac", "lat": 19.190326, "lng": -98.540939
}]