[{
"label": "Analco", "lat": 19.818111, "lng": -97.399615
},{
"label": "Yopi", "lat": 19.826712, "lng": -97.379366
},{
"label": "Tecolotepec", "lat": 19.721563, "lng": -97.450331
},{
"label": "Tenextepec", "lat": 19.795588, "lng": -97.402794
},{
"label": "Unidad los Cables", "lat": 19.800543, "lng": -97.418303
},{
"label": "Los Parajes (Zompanateno)", "lat": 19.781018, "lng": -97.433403
},{
"label": "Crutzitzin", "lat": 19.798764, "lng": -97.392327
},{
"label": "Ateta", "lat": 19.823465, "lng": -97.388037
},{
"label": "Calicanto", "lat": 19.788684, "lng": -97.386159
},{
"label": "San Isidro", "lat": 19.796134, "lng": -97.383971
},{
"label": "La Aguardientera", "lat": 19.783954, "lng": -97.399781
},{
"label": "Coahuixco", "lat": 19.804978, "lng": -97.410243
},{
"label": "Los Aserraderos", "lat": 19.783603, "lng": -97.392387
},{
"label": "Tequimila", "lat": 19.823364, "lng": -97.380759
},{
"label": "Tepepan", "lat": 19.832064, "lng": -97.382377
},{
"label": "Sosa", "lat": 19.800753, "lng": -97.39764
},{
"label": "Chignautla", "lat": 19.813925, "lng": -97.389418
},{
"label": "Tezohuatepec (Tezotepec)", "lat": 19.809954, "lng": -97.399612
},{
"label": "Sección Tercera de Chignautla", "lat": 19.810652, "lng": -97.381447
},{
"label": "Talzintán", "lat": 19.799461, "lng": -97.414307
},{
"label": "Encino Rico", "lat": 19.797435, "lng": -97.377924
},{
"label": "Los Humeros", "lat": 19.679192, "lng": -97.456219
},{
"label": "El Encanto", "lat": 19.819038, "lng": -97.381414
},{
"label": "Huapaltepec (Zacatamánix)", "lat": 19.780512, "lng": -97.417025
},{
"label": "Sotoltepec", "lat": 19.709939, "lng": -97.465723
},{
"label": "Coatzala", "lat": 19.794311, "lng": -97.42014
},{
"label": "San Mateo", "lat": 19.755919, "lng": -97.417389
}]