[{
"label": "Huaxcuaxtla", "lat": 18.074365, "lng": -98.416149
},{
"label": "La Palma", "lat": 18.07464, "lng": -98.402321
},{
"label": "Tecuicuilco", "lat": 18.100379, "lng": -98.449261
},{
"label": "Xastipa", "lat": 18.097665, "lng": -98.461103
},{
"label": "San Pedro Ocotlán", "lat": 18.149181, "lng": -98.47477
},{
"label": "Tecuanapa", "lat": 18.152202, "lng": -98.554809
},{
"label": "Cruztitla", "lat": 18.143173, "lng": -98.469407
},{
"label": "Llano Grande", "lat": 18.143213, "lng": -98.547762
},{
"label": "Tetitlanapa", "lat": 18.081611, "lng": -98.448882
},{
"label": "San Isidro Ahuatlán", "lat": 18.16185, "lng": -98.448636
},{
"label": "Tenampola", "lat": 18.108611, "lng": -98.436667
},{
"label": "El Guajolote", "lat": 18.113226, "lng": -98.432043
},{
"label": "El Ahuehuete", "lat": 18.079943, "lng": -98.427582
},{
"label": "Ixtlacatzingo", "lat": 18.158494, "lng": -98.500124
},{
"label": "Los Zopilotes", "lat": 18.101886, "lng": -98.473934
},{
"label": "Cañada Jícara", "lat": 18.072361, "lng": -98.433242
},{
"label": "Chila de la Sal", "lat": 18.1091, "lng": -98.484322
},{
"label": "Pochoteopa", "lat": 18.097, "lng": -98.471374
},{
"label": "Elpidio Visoso Vázquez", "lat": 18.093839, "lng": -98.456863
}]