[{
"label": "San Juan del Valle", "lat": 19.260767, "lng": -97.195909
},{
"label": "El Carmen", "lat": 19.242211, "lng": -97.201108
},{
"label": "Ignacio Zaragoza", "lat": 19.278352, "lng": -97.199595
},{
"label": "San José Chicalotla", "lat": 19.259479, "lng": -97.166171
},{
"label": "Cerro de Guadalupe", "lat": 19.286883, "lng": -97.154309
},{
"label": "Plan de los Órganos", "lat": 19.319936, "lng": -97.239762
},{
"label": "San Miguel Calixitla (Miguel Hidalgo)", "lat": 19.271512, "lng": -97.199906
},{
"label": "Colotlajapan", "lat": 19.260999, "lng": -97.242352
},{
"label": "Mitlimanca", "lat": 19.325247, "lng": -97.238038
},{
"label": "Ixtacapa", "lat": 19.277775, "lng": -97.15475
},{
"label": "La Candelaria", "lat": 19.305623, "lng": -97.189093
},{
"label": "El Ocotal", "lat": 19.195278, "lng": -97.220556
},{
"label": "La Reforma", "lat": 19.227021, "lng": -97.187954
},{
"label": "Rafael J. García", "lat": 19.255202, "lng": -97.183893
},{
"label": "Ocoxochitl", "lat": 19.299873, "lng": -97.159223
},{
"label": "Barrio de Guadalupe", "lat": 19.245584, "lng": -97.197156
},{
"label": "El Ranchito", "lat": 19.300482, "lng": -97.197257
},{
"label": "San José Manzanitos", "lat": 19.260959, "lng": -97.213574
},{
"label": "Xaltepec", "lat": 19.269729, "lng": -97.167349
},{
"label": "Cozalapa", "lat": 19.243549, "lng": -97.178673
},{
"label": "Ocotepec", "lat": 19.259095, "lng": -97.171281
},{
"label": "San Antonio", "lat": 19.269964, "lng": -97.188447
},{
"label": "Barrio del Corazón de Jesús Tercera Sección", "lat": 19.264634, "lng": -97.186802
},{
"label": "Acocomotla", "lat": 19.276477, "lng": -97.218029
},{
"label": "La Providencia", "lat": 19.31019, "lng": -97.203245
},{
"label": "Alto Lucero", "lat": 19.247603, "lng": -97.20095
},{
"label": "Emiliano Zapata (San Isidro)", "lat": 19.288246, "lng": -97.201199
},{
"label": "La Luz", "lat": 19.247158, "lng": -97.214989
},{
"label": "La Trinidad", "lat": 19.285626, "lng": -97.214335
},{
"label": "Francisco I. Madero", "lat": 19.250284, "lng": -97.226441
},{
"label": "Vicente Guerrero", "lat": 19.25923, "lng": -97.229873
},{
"label": "Los Capulines", "lat": 19.326482, "lng": -97.22033
},{
"label": "Santa Cruz la Joya", "lat": 19.280541, "lng": -97.153001
},{
"label": "Teteltitla", "lat": 19.25415, "lng": -97.171344
},{
"label": "Ahuatla", "lat": 19.230609, "lng": -97.218776
},{
"label": "La Ocotera", "lat": 19.306944, "lng": -97.236667
}]