[{
"label": "Tlixco", "lat": 18.274144, "lng": -96.998553
},{
"label": "Quitapón", "lat": 18.27249, "lng": -97.009668
},{
"label": "Zayoyojca", "lat": 18.232493, "lng": -97.045152
},{
"label": "Xochiapa", "lat": 18.245604, "lng": -96.927203
},{
"label": "Atempa", "lat": 18.242401, "lng": -96.975472
},{
"label": "Cuarta Sección", "lat": 18.270656, "lng": -96.987701
},{
"label": "San Miguel", "lat": 18.354552, "lng": -96.875653
},{
"label": "San Marcos Tlaltlalkilotl", "lat": 18.250279, "lng": -96.974046
},{
"label": "Yehualtepec", "lat": 18.246845, "lng": -97.006548
},{
"label": "Santa María Coyomeapan", "lat": 18.283748, "lng": -96.9925
},{
"label": "Aticpac", "lat": 18.348249, "lng": -96.924209
},{
"label": "Xaltepec", "lat": 18.25725, "lng": -97.029346
},{
"label": "Ahuatepec", "lat": 18.232699, "lng": -96.999166
},{
"label": "Tepepa de Zaragoza", "lat": 18.361958, "lng": -96.871236
},{
"label": "Chimalhuaca", "lat": 18.251801, "lng": -97.056756
},{
"label": "Morelos", "lat": 18.241344, "lng": -97.008947
},{
"label": "Tlamanik", "lat": 18.234692, "lng": -97.004223
},{
"label": "Xomapa", "lat": 18.259505, "lng": -96.997813
},{
"label": "Mexcaltcorral", "lat": 18.290293, "lng": -97.076487
},{
"label": "Xochitlalpa", "lat": 18.250396, "lng": -97.085938
},{
"label": "Segunda Sección", "lat": 18.283978, "lng": -97.006252
},{
"label": "Cuitzala", "lat": 18.277074, "lng": -97.066394
},{
"label": "San Juan Cuautla", "lat": 18.244179, "lng": -96.956818
},{
"label": "Tepoxtla", "lat": 18.244217, "lng": -96.993638
},{
"label": "Ixtacxochitla", "lat": 18.355023, "lng": -96.902946
},{
"label": "Ixtláhuac", "lat": 18.270568, "lng": -96.96247
},{
"label": "Tequixtepec de Juárez", "lat": 18.302483, "lng": -96.864201
},{
"label": "Yerba Santa", "lat": 18.226073, "lng": -97.03923
},{
"label": "Huilulco", "lat": 18.255923, "lng": -96.982615
},{
"label": "Matlahuacala", "lat": 18.247502, "lng": -97.035275
},{
"label": "Tecuantiopa", "lat": 18.2516, "lng": -96.90505
},{
"label": "Caxalli", "lat": 18.282534, "lng": -96.966673
},{
"label": "Huitzílatl", "lat": 18.375515, "lng": -96.883218
},{
"label": "Recibimiento", "lat": 18.272737, "lng": -97.021723
},{
"label": "Xocotla", "lat": 18.296211, "lng": -97.002319
},{
"label": "Tequitlale", "lat": 18.363891, "lng": -96.896226
},{
"label": "Xaltilica", "lat": 18.263117, "lng": -97.029065
},{
"label": "Loma Bonita", "lat": 18.222124, "lng": -97.004497
},{
"label": "Yohuajca", "lat": 18.261872, "lng": -97.05663
},{
"label": "Atempanatl", "lat": 18.236527, "lng": -96.975849
},{
"label": "Bella Vista", "lat": 18.236983, "lng": -96.984477
},{
"label": "San Gabriel Vista Hermosa", "lat": 18.261715, "lng": -96.976437
},{
"label": "Tlaixtle", "lat": 18.23631, "lng": -96.993288
},{
"label": "Ahuatla", "lat": 18.291555, "lng": -96.983537
},{
"label": "San Pedro Tepeyac", "lat": 18.266478, "lng": -96.956775
}]