[{
"label": "Cuamono", "lat": 20.066738, "lng": -97.452788
},{
"label": "Xalostoc", "lat": 20.075278, "lng": -97.537778
},{
"label": "Zoquiapan", "lat": 20.028653, "lng": -97.515563
},{
"label": "Ayohapan", "lat": 20.053984, "lng": -97.529985
},{
"label": "Taxipéhuatl", "lat": 20.018893, "lng": -97.455971
},{
"label": "Amateno", "lat": 20.044242, "lng": -97.526066
},{
"label": "Tetsijtsilín", "lat": 20.043556, "lng": -97.540715
},{
"label": "Xocota", "lat": 20.070556, "lng": -97.524722
},{
"label": "Tazalolpan", "lat": 20.011911, "lng": -97.535571
},{
"label": "El Rosario", "lat": 20.013434, "lng": -97.482756
},{
"label": "Naltzincuauhta", "lat": 20.053676, "lng": -97.506757
},{
"label": "La Gloria", "lat": 19.972848, "lng": -97.549827
},{
"label": "Cuaololtitán", "lat": 20.041615, "lng": -97.448638
},{
"label": "Texixila", "lat": 20.021489, "lng": -97.535632
},{
"label": "Cozamalomila", "lat": 20.04601, "lng": -97.515172
},{
"label": "Xala", "lat": 20.049008, "lng": -97.424166
},{
"label": "Finca Tenexteta", "lat": 20.066667, "lng": -97.448611
},{
"label": "Octimaxal Sur", "lat": 20.002095, "lng": -97.541701
},{
"label": "Calatepec", "lat": 20.036294, "lng": -97.507252
},{
"label": "Tixapan", "lat": 20.065918, "lng": -97.52868
},{
"label": "Pagmaco", "lat": 20.059128, "lng": -97.511113
},{
"label": "Tahuil", "lat": 20.075563, "lng": -97.467601
},{
"label": "Xocoyolo", "lat": 19.977557, "lng": -97.545509
},{
"label": "Talix", "lat": 20.058798, "lng": -97.532637
},{
"label": "Zopilotepec", "lat": 20.096401, "lng": -97.486743
},{
"label": "San Fermín", "lat": 20.006667, "lng": -97.468333
},{
"label": "Xiloxochit", "lat": 20.081263, "lng": -97.467588
},{
"label": "Atepatahua", "lat": 20.011289, "lng": -97.491363
},{
"label": "Pinahuista", "lat": 20.073846, "lng": -97.519597
},{
"label": "Xiutecuapan", "lat": 20.049191, "lng": -97.498539
},{
"label": "Tepetzalán", "lat": 20.064083, "lng": -97.521331
},{
"label": "La Isla", "lat": 20.018889, "lng": -97.470556
},{
"label": "Atecalan", "lat": 20.034722, "lng": -97.455833
},{
"label": "Tagchinolapa", "lat": 20.002778, "lng": -97.498333
},{
"label": "Tecazo", "lat": 20.080179, "lng": -97.515514
},{
"label": "Cuichat", "lat": 20.008444, "lng": -97.514702
},{
"label": "Tajkuilol", "lat": 20.046184, "lng": -97.421273
},{
"label": "Taltzintán", "lat": 20.065802, "lng": -97.469639
},{
"label": "Xalta", "lat": 20.048338, "lng": -97.467685
},{
"label": "Cuamayta", "lat": 20.068163, "lng": -97.475719
},{
"label": "Ixtahuata", "lat": 20.022548, "lng": -97.507652
},{
"label": "Atequiza", "lat": 19.989099, "lng": -97.533599
},{
"label": "Quezapa", "lat": 20.026398, "lng": -97.427067
},{
"label": "Santioapan", "lat": 20.06812, "lng": -97.499419
},{
"label": "Tzoncomala", "lat": 20.080265, "lng": -97.505343
},{
"label": "Santa Rosa", "lat": 20.015844, "lng": -97.461826
},{
"label": "Macuilacaco", "lat": 20.012046, "lng": -97.447233
},{
"label": "Atemolón", "lat": 20.04053, "lng": -97.426913
},{
"label": "Limonco", "lat": 20.07915, "lng": -97.479957
},{
"label": "Limontitán", "lat": 20.042607, "lng": -97.439955
},{
"label": "Pantepec", "lat": 20.006389, "lng": -97.484167
},{
"label": "Yohualichan", "lat": 20.060478, "lng": -97.504605
},{
"label": "Achiauta", "lat": 20.027329, "lng": -97.428568
},{
"label": "Cuatro Caminos", "lat": 20.031075, "lng": -97.43776
},{
"label": "Zuapilaco", "lat": 20.064538, "lng": -97.479124
},{
"label": "Tepetzalan de Miguel Hidalgo", "lat": 20.050158, "lng": -97.468369
},{
"label": "Los Manantiales", "lat": 19.989364, "lng": -97.546224
},{
"label": "Totolichipi", "lat": 20.040626, "lng": -97.509211
},{
"label": "Alahuacapan", "lat": 20.050815, "lng": -97.479064
},{
"label": "Pesmapán", "lat": 20.037074, "lng": -97.422844
},{
"label": "Tepetzingo", "lat": 20.066136, "lng": -97.495023
},{
"label": "Ziltepec", "lat": 20.077438, "lng": -97.531361
},{
"label": "La Galera", "lat": 19.980501, "lng": -97.51437
},{
"label": "Huaxtitán", "lat": 20.037398, "lng": -97.51382
},{
"label": "San Andrés Tzicuilan", "lat": 20.014218, "lng": -97.505687
},{
"label": "Finca San José y San Ángel", "lat": 20.058181, "lng": -97.452726
},{
"label": "Tepetzintán", "lat": 20.053435, "lng": -97.517779
},{
"label": "La Piedad", "lat": 20.012906, "lng": -97.489612
},{
"label": "Cuahutamazaco", "lat": 20.025675, "lng": -97.486954
},{
"label": "Xalcuahuta", "lat": 20.087404, "lng": -97.511958
},{
"label": "Xalticpac", "lat": 20.045361, "lng": -97.43889
},{
"label": "Nahuiogpan", "lat": 20.029772, "lng": -97.525874
},{
"label": "Tepango", "lat": 20.029083, "lng": -97.427669
},{
"label": "Atmolón", "lat": 20.058867, "lng": -97.542406
},{
"label": "Ahuateno", "lat": 20.030984, "lng": -97.445349
},{
"label": "Tenexteta", "lat": 20.070003, "lng": -97.452896
},{
"label": "Tatoxcac", "lat": 20.040043, "lng": -97.517695
},{
"label": "Tenango", "lat": 20.018198, "lng": -97.487094
},{
"label": "Caxaltepec", "lat": 20.071134, "lng": -97.482734
},{
"label": "Tacuapan", "lat": 20.085024, "lng": -97.473736
},{
"label": "Totocuahuta (Tamaya)", "lat": 20.035501, "lng": -97.431301
},{
"label": "Cedral Atalpan", "lat": 20.03411, "lng": -97.467929
},{
"label": "Chilcuauhta", "lat": 20.038578, "lng": -97.531681
},{
"label": "Cahuayogco", "lat": 20.039385, "lng": -97.457955
},{
"label": "Tonalix", "lat": 20.079347, "lng": -97.522302
},{
"label": "Tagchicteco Tamayan", "lat": 20.025556, "lng": -97.556944
},{
"label": "Tzoquiaco", "lat": 20.031758, "lng": -97.465446
},{
"label": "Santiago Yancuitlalpan", "lat": 20.060843, "lng": -97.471518
},{
"label": "Pepexta", "lat": 20.040667, "lng": -97.46177
},{
"label": "Santa Cruz Tatempa", "lat": 19.969221, "lng": -97.545862
},{
"label": "Octimaxal Norte", "lat": 20.048093, "lng": -97.504907
},{
"label": "Texayacatitan", "lat": 20.035, "lng": -97.550556
},{
"label": "Tenextepec", "lat": 19.990722, "lng": -97.566758
},{
"label": "Anaytitan", "lat": 20.047693, "lng": -97.522251
},{
"label": "Texochico", "lat": 20.062517, "lng": -97.459693
},{
"label": "Pahuatahu", "lat": 20.065767, "lng": -97.46171
},{
"label": "Las Vigas", "lat": 19.981617, "lng": -97.548966
},{
"label": "Tacopizacta", "lat": 19.970479, "lng": -97.513036
},{
"label": "Xochical", "lat": 20.016272, "lng": -97.495228
},{
"label": "Tecolapa", "lat": 20.048692, "lng": -97.541278
},{
"label": "Tepetitán Zacatipan", "lat": 20.051722, "lng": -97.42858
},{
"label": "Equimita", "lat": 19.965864, "lng": -97.564387
},{
"label": "Cuahutamanca", "lat": 20.059634, "lng": -97.481099
},{
"label": "Chauta", "lat": 20.076582, "lng": -97.485683
},{
"label": "Chichicazapan", "lat": 20.008176, "lng": -97.518374
},{
"label": "Xiloxochico de Rafael Ávila Camacho", "lat": 20.045244, "lng": -97.492201
},{
"label": "Cohuatichan", "lat": 19.991849, "lng": -97.53108
},{
"label": "Tepetzalan Tzicuilan", "lat": 20.044558, "lng": -97.475097
},{
"label": "Santa Eduviges", "lat": 20.003648, "lng": -97.445749
},{
"label": "Tenkikizapan", "lat": 20.061688, "lng": -97.507151
},{
"label": "La Providencia", "lat": 20.033048, "lng": -97.520683
},{
"label": "Atechayán", "lat": 19.997232, "lng": -97.523757
},{
"label": "Ixmatatepec", "lat": 20.038554, "lng": -97.523507
},{
"label": "Xalpanat", "lat": 20.013015, "lng": -97.472618
},{
"label": "Mexcaltepec", "lat": 20.081294, "lng": -97.47168
},{
"label": "Reyeshogpan de Hidalgo (El Mirador)", "lat": 20.081742, "lng": -97.503497
},{
"label": "Tepetitan Chico", "lat": 20.093307, "lng": -97.477317
},{
"label": "Xalpantzingo", "lat": 20.025062, "lng": -97.471423
},{
"label": "Santa María", "lat": 20.009167, "lng": -97.489444
},{
"label": "Apazapán", "lat": 20.024561, "lng": -97.516807
},{
"label": "Las Hamacas", "lat": 20.036869, "lng": -97.450066
},{
"label": "Coapan", "lat": 20.077428, "lng": -97.456872
},{
"label": "Tecuahuta", "lat": 20.045041, "lng": -97.441146
},{
"label": "Ixtactepec", "lat": 20.00424, "lng": -97.452517
},{
"label": "Vista Hermosa", "lat": 19.976723, "lng": -97.532158
},{
"label": "Tzontejco", "lat": 20.067836, "lng": -97.524482
},{
"label": "Sesectahuacal", "lat": 20.033313, "lng": -97.429897
},{
"label": "Tencuix", "lat": 20.063148, "lng": -97.517074
},{
"label": "Kuahuxiutitan", "lat": 20.086594, "lng": -97.523323
},{
"label": "Ayotzinapan", "lat": 20.056936, "lng": -97.536404
},{
"label": "Pahpatapán", "lat": 20.005916, "lng": -97.536503
},{
"label": "San Vicente", "lat": 19.999167, "lng": -97.458889
},{
"label": "Dolores", "lat": 20.0125, "lng": -97.547778
},{
"label": "Cacatecuauta", "lat": 20.052529, "lng": -97.494421
},{
"label": "Ciudad de Cuetzalan", "lat": 20.01852, "lng": -97.520771
},{
"label": "Zacatipan", "lat": 20.039294, "lng": -97.435844
},{
"label": "Tenanikán", "lat": 20.023149, "lng": -97.47864
},{
"label": "Xaltzinta", "lat": 20.04782, "lng": -97.4346
},{
"label": "Tenango Zacatipan", "lat": 20.033651, "lng": -97.426204
},{
"label": "Tuzamapan", "lat": 20.060036, "lng": -97.491606
},{
"label": "Teacal", "lat": 20.051512, "lng": -97.505518
},{
"label": "Acaxiloco", "lat": 20.033824, "lng": -97.517935
},{
"label": "San Martín", "lat": 19.998658, "lng": -97.469011
},{
"label": "Tecoltepec", "lat": 20.090323, "lng": -97.519789
},{
"label": "Cuetzaltepec", "lat": 20.047371, "lng": -97.429129
},{
"label": "Capola", "lat": 20.070702, "lng": -97.507347
},{
"label": "Cerro de Nectepec", "lat": 20.024364, "lng": -97.436509
},{
"label": "Olopioco", "lat": 20.050886, "lng": -97.489985
},{
"label": "Pochoco", "lat": 20.085637, "lng": -97.482573
},{
"label": "Xaltepec", "lat": 20.051075, "lng": -97.547098
},{
"label": "Malacayotan", "lat": 20.070979, "lng": -97.492772
},{
"label": "Teshutitan", "lat": 20.067794, "lng": -97.503045
},{
"label": "La Tranca", "lat": 19.978028, "lng": -97.552128
},{
"label": "Tepetitán Reyeshogpan de Hidalgo", "lat": 20.084271, "lng": -97.493257
},{
"label": "Nectepec", "lat": 20.030959, "lng": -97.441712
},{
"label": "Atexolahua", "lat": 19.978329, "lng": -97.541769
},{
"label": "Xaltipanapa", "lat": 19.997778, "lng": -97.478611
},{
"label": "Xaltipan", "lat": 20.088279, "lng": -97.531137
},{
"label": "Zacapoaxteco", "lat": 20.005089, "lng": -97.471988
},{
"label": "Cuauhtapanaloyan", "lat": 20.072123, "lng": -97.457427
},{
"label": "Tzinacapan", "lat": 20.029351, "lng": -97.540888
},{
"label": "Tzanatco", "lat": 20.026777, "lng": -97.493791
},{
"label": "Atalpan", "lat": 20.034676, "lng": -97.46467
},{
"label": "El Aguacate", "lat": 20.027018, "lng": -97.521981
},{
"label": "San Manuel", "lat": 20.005278, "lng": -97.499444
},{
"label": "Atepolihui (Ostocapal)", "lat": 20.003611, "lng": -97.546111
},{
"label": "Pochotitan", "lat": 20.096672, "lng": -97.469493
},{
"label": "Tatahuictaltipan", "lat": 20.065187, "lng": -97.514173
},{
"label": "Chicueyaco", "lat": 20.042597, "lng": -97.496643
},{
"label": "Pilinchaco", "lat": 20.043378, "lng": -97.507228
},{
"label": "Monte Alto", "lat": 20.0075, "lng": -97.5675
},{
"label": "Xiliapan", "lat": 20.018684, "lng": -97.531119
}]