[{
"label": "Honey", "lat": 20.239214, "lng": -98.212138
},{
"label": "Amapoloa", "lat": 20.244975, "lng": -98.225977
},{
"label": "Tonalixco", "lat": 20.231828, "lng": -98.254766
},{
"label": "El Manzano", "lat": 20.265944, "lng": -98.214337
},{
"label": "Huehuetlilla", "lat": 20.268723, "lng": -98.209739
},{
"label": "La Magdalena", "lat": 20.256423, "lng": -98.275084
},{
"label": "Rincón de Chila", "lat": 20.266742, "lng": -98.246979
},{
"label": "Chila de Juárez", "lat": 20.27869, "lng": -98.212987
},{
"label": "Buena Vista", "lat": 20.248688, "lng": -98.249456
},{
"label": "La Cumbre del Manzano", "lat": 20.253553, "lng": -98.209186
},{
"label": "Vista Hermosa", "lat": 20.255724, "lng": -98.239101
}]