[{
"label": "Atotonilco", "lat": 18.756359, "lng": -98.175923
},{
"label": "Analco", "lat": 18.733488, "lng": -98.175066
},{
"label": "San Miguel Atlapulco", "lat": 18.795026, "lng": -98.191084
},{
"label": "San Juan Coatetelco", "lat": 18.716164, "lng": -98.075874
},{
"label": "Santa Martha Yancuitlalpan", "lat": 18.777583, "lng": -98.094554
},{
"label": "Santa Ana Otzolotepec", "lat": 18.743763, "lng": -98.106901
},{
"label": "San Pedro Ajalpan", "lat": 18.701014, "lng": -98.168903
},{
"label": "El Naranjo", "lat": 18.755278, "lng": -98.235
},{
"label": "San Martín Atempan", "lat": 18.689767, "lng": -98.167191
},{
"label": "Ixtlahuacán", "lat": 18.737906, "lng": -98.155894
},{
"label": "San Agustín Ahuehuetla", "lat": 18.798088, "lng": -98.168832
},{
"label": "Primera Sección", "lat": 18.743342, "lng": -98.162671
},{
"label": "San Antonio Coatepec (Tierra Blanca)", "lat": 18.734178, "lng": -98.155989
},{
"label": "Santo Domingo Huehuetlán", "lat": 18.738306, "lng": -98.167911
},{
"label": "San Nicolás Huajuapan", "lat": 18.782758, "lng": -98.121479
},{
"label": "Colonia Agrícola Hidalgo", "lat": 18.766769, "lng": -98.192998
}]