[{
"label": "Coyul", "lat": 20.033194, "lng": -97.703386
},{
"label": "Hueytlalpan", "lat": 20.025733, "lng": -97.698678
},{
"label": "La Palma", "lat": 20.065336, "lng": -97.646386
},{
"label": "La Tranca", "lat": 20.038998, "lng": -97.666091
},{
"label": "Pomaxhca", "lat": 20.036633, "lng": -97.695029
},{
"label": "Liyahu", "lat": 20.05003, "lng": -97.67619
},{
"label": "Xanátl", "lat": 20.05086, "lng": -97.671611
},{
"label": "Cristo Rey", "lat": 20.031042, "lng": -97.700652
},{
"label": "El Arenal", "lat": 20.052966, "lng": -97.654388
},{
"label": "La Esperanza", "lat": 20.075456, "lng": -97.671845
},{
"label": "Cuarta Sección (Potzilli)", "lat": 20.024444, "lng": -97.684722
},{
"label": "Putaxca", "lat": 20.050464, "lng": -97.666904
},{
"label": "Huaugcho", "lat": 20.045413, "lng": -97.663245
},{
"label": "Kajalán", "lat": 20.027576, "lng": -97.664781
},{
"label": "Skansipi", "lat": 20.045511, "lng": -97.66843
},{
"label": "La Garza", "lat": 20.021124, "lng": -97.670806
},{
"label": "El Tarro", "lat": 20.050122, "lng": -97.68869
},{
"label": "El Crucero", "lat": 20.057339, "lng": -97.65949
},{
"label": "La Cruz de Chaca", "lat": 20.033817, "lng": -97.717423
},{
"label": "Teskgau", "lat": 20.052128, "lng": -97.667665
},{
"label": "Lisquet", "lat": 20.063988, "lng": -97.66917
},{
"label": "Chililix", "lat": 20.051005, "lng": -97.66314
},{
"label": "Zitlala", "lat": 20.032734, "lng": -97.667997
},{
"label": "El Cuyo", "lat": 20.024703, "lng": -97.670265
}]