[{
"label": "El Carmen", "lat": 18.407274, "lng": -98.461261
},{
"label": "Santa Bárbara", "lat": 18.576009, "lng": -98.479523
},{
"label": "Cristo Rey", "lat": 18.591568, "lng": -98.503796
},{
"label": "El Lindero", "lat": 18.3775, "lng": -98.441389
},{
"label": "Las Delias", "lat": 18.644567, "lng": -98.462959
},{
"label": "Santa María Xuchapa", "lat": 18.524993, "lng": -98.458536
},{
"label": "El Calvario", "lat": 18.561796, "lng": -98.556462
},{
"label": "Bomba 2 de las Delias", "lat": 18.639871, "lng": -98.458655
},{
"label": "Tecupilco", "lat": 18.461413, "lng": -98.468356
},{
"label": "San Carlos Buenavista", "lat": 18.514562, "lng": -98.51853
},{
"label": "El Molinillo", "lat": 18.482283, "lng": -98.405756
},{
"label": "Huajotzingo", "lat": 18.440422, "lng": -98.453166
},{
"label": "Amatitlanes", "lat": 18.612222, "lng": -98.493056
},{
"label": "El Mirador", "lat": 18.659538, "lng": -98.455311
},{
"label": "Los Limones", "lat": 18.455026, "lng": -98.519272
},{
"label": "Guadalupe las Chichihuas", "lat": 18.439525, "lng": -98.498382
},{
"label": "San Nicolás Tolentino", "lat": 18.55139, "lng": -98.503959
},{
"label": "Rancho Isla Verde", "lat": 18.614762, "lng": -98.422263
},{
"label": "San Isidro", "lat": 18.568998, "lng": -98.425543
},{
"label": "Agustines", "lat": 18.570794, "lng": -98.437038
},{
"label": "Ayutla (San Felipe Ayutla)", "lat": 18.541171, "lng": -98.50513
},{
"label": "San José las Bocas", "lat": 18.606408, "lng": -98.415771
},{
"label": "Agua Azul", "lat": 18.661369, "lng": -98.459188
},{
"label": "San Pedro Calantla", "lat": 18.596104, "lng": -98.395333
},{
"label": "El Casahuate", "lat": 18.47102, "lng": -98.504803
},{
"label": "El Huarapo", "lat": 18.616245, "lng": -98.420951
},{
"label": "Mexquitepec", "lat": 18.443535, "lng": -98.389148
},{
"label": "Las Piletas", "lat": 18.427921, "lng": -98.404287
},{
"label": "El Cerrito", "lat": 18.573488, "lng": -98.448846
},{
"label": "San Martín la Flor (La Flor Colorada)", "lat": 18.386813, "lng": -98.515838
},{
"label": "El Pochote 2", "lat": 18.634034, "lng": -98.463747
},{
"label": "Agua Escondida (Santa Cruz Agua Escondida)", "lat": 18.56167, "lng": -98.449814
},{
"label": "La Cabaña", "lat": 18.612579, "lng": -98.413063
},{
"label": "San Sebastián Puctla", "lat": 18.560143, "lng": -98.477253
},{
"label": "Rancho las Pozas", "lat": 18.633658, "lng": -98.450936
},{
"label": "Vista Hermosa", "lat": 18.565524, "lng": -98.371057
},{
"label": "El Tablón", "lat": 18.436667, "lng": -98.432222
},{
"label": "Bomba 4", "lat": 18.628333, "lng": -98.456389
},{
"label": "El Pochote 1 (Rancho el Tabanito)", "lat": 18.646389, "lng": -98.463261
},{
"label": "San Manuel la Parota", "lat": 18.371104, "lng": -98.49327
},{
"label": "Campo Mier", "lat": 18.594161, "lng": -98.494904
},{
"label": "La Soledad Pizotla", "lat": 18.384921, "lng": -98.466704
},{
"label": "Puentes Cuates", "lat": 18.599488, "lng": -98.449466
},{
"label": "San Lucas Colucan", "lat": 18.509135, "lng": -98.481035
},{
"label": "Valle Hermoso (Los Vargas)", "lat": 18.606423, "lng": -98.423857
},{
"label": "Puente Blanco", "lat": 18.559074, "lng": -98.436089
},{
"label": "El Venado (Bomba 1)", "lat": 18.615704, "lng": -98.4636
},{
"label": "Pozo 28 (El Aguacate)", "lat": 18.571253, "lng": -98.482818
},{
"label": "Izúcar de Matamoros", "lat": 18.602231, "lng": -98.465406
},{
"label": "Las Casitas", "lat": 18.498668, "lng": -98.354381
},{
"label": "Los Amates", "lat": 18.473469, "lng": -98.365906
},{
"label": "Lomas de Mihuacán", "lat": 18.614472, "lng": -98.435971
},{
"label": "La Galarza", "lat": 18.666646, "lng": -98.454688
},{
"label": "El Jagüey (La Guajera)", "lat": 18.644167, "lng": -98.450556
},{
"label": "Rancho Guadalupe", "lat": 18.611799, "lng": -98.440447
},{
"label": "Lomas de Alchichica", "lat": 18.609745, "lng": -98.471897
},{
"label": "Santo Niño de Atocha", "lat": 18.679192, "lng": -98.454847
},{
"label": "San Juan Raboso", "lat": 18.573066, "lng": -98.44009
},{
"label": "Agricultura Nacional", "lat": 18.621574, "lng": -98.428257
},{
"label": "Abelardo L. Rodríguez", "lat": 18.573042, "lng": -98.405299
},{
"label": "Huaxtepec", "lat": 18.382644, "lng": -98.454257
},{
"label": "Bomba 3 de las Delias", "lat": 18.645, "lng": -98.457222
},{
"label": "San Miguel las Minas", "lat": 18.517046, "lng": -98.33385
},{
"label": "El Milagro", "lat": 18.619634, "lng": -98.426011
},{
"label": "Barrio Santiago", "lat": 18.613685, "lng": -98.464027
},{
"label": "El Llano", "lat": 18.629448, "lng": -98.466813
},{
"label": "Los Berra (Los Borja)", "lat": 18.616453, "lng": -98.428478
},{
"label": "El Charro (El Tecorral)", "lat": 18.622911, "lng": -98.450225
},{
"label": "Tecuexcontla", "lat": 18.462595, "lng": -98.451201
},{
"label": "Dulces Nombres", "lat": 18.554941, "lng": -98.503025
},{
"label": "San Juan Colón", "lat": 18.577113, "lng": -98.558022
},{
"label": "El Tepenene", "lat": 18.491256, "lng": -98.396307
},{
"label": "San Rafael", "lat": 18.421085, "lng": -98.461118
},{
"label": "San Francisco", "lat": 18.479225, "lng": -98.516624
},{
"label": "El Aguacate", "lat": 18.46612, "lng": -98.469533
},{
"label": "Matzaco", "lat": 18.557091, "lng": -98.490519
},{
"label": "La Cañada", "lat": 18.425094, "lng": -98.469529
},{
"label": "Xaltianguis", "lat": 18.423068, "lng": -98.491514
},{
"label": "El Porvenir", "lat": 18.575556, "lng": -98.393056
},{
"label": "El Sauce", "lat": 18.471972, "lng": -98.521848
},{
"label": "San Antonio las Iguanas", "lat": 18.421692, "lng": -98.516532
},{
"label": "Los Amatitos", "lat": 18.466944, "lng": -98.4275
},{
"label": "Bomba 2 del Llano", "lat": 18.632294, "lng": -98.465874
}]