[{
"label": "Ejido Rayón", "lat": 20.109883, "lng": -97.464547
},{
"label": "Molinagco", "lat": 20.096694, "lng": -97.489698
},{
"label": "Tepetitlán", "lat": 20.018271, "lng": -97.58134
},{
"label": "Ecatlán", "lat": 20.052093, "lng": -97.556544
},{
"label": "Tiburcio Juárez [Colonia]", "lat": 20.119218, "lng": -97.462153
},{
"label": "El Arenal", "lat": 20.115698, "lng": -97.488656
},{
"label": "Tecpantzingo", "lat": 20.101693, "lng": -97.467028
},{
"label": "Xiloxóchit", "lat": 20.097483, "lng": -97.46383
},{
"label": "Tepetzinat", "lat": 20.099059, "lng": -97.485981
},{
"label": "El Cedro", "lat": 20.131641, "lng": -97.462346
},{
"label": "Limonar [Colonia]", "lat": 20.100202, "lng": -97.488886
},{
"label": "Paso del Jardín", "lat": 20.143536, "lng": -97.466711
},{
"label": "El Tozán", "lat": 20.035065, "lng": -97.558726
},{
"label": "Jonotla", "lat": 20.03038, "lng": -97.574905
},{
"label": "El Chamizal", "lat": 20.037114, "lng": -97.574384
},{
"label": "Poxcoyo", "lat": 20.023098, "lng": -97.574683
},{
"label": "San Antonio Rayón", "lat": 20.112463, "lng": -97.483271
},{
"label": "Buena Vista", "lat": 20.065664, "lng": -97.554336
},{
"label": "El Muro", "lat": 20.034264, "lng": -97.570011
}]