[{
"label": "San José", "lat": 19.492258, "lng": -97.609721
},{
"label": "Los Sauces", "lat": 19.45147, "lng": -97.707348
},{
"label": "Loma de los Reyes", "lat": 19.469753, "lng": -97.718733
},{
"label": "Tehuatzingo", "lat": 19.522533, "lng": -97.677233
},{
"label": "Agua Clara", "lat": 19.483555, "lng": -97.65552
},{
"label": "Santa Julia", "lat": 19.514344, "lng": -97.596382
},{
"label": "La Noria", "lat": 19.425556, "lng": -97.636111
},{
"label": "El Muerto", "lat": 19.500295, "lng": -97.620093
},{
"label": "Atlapaleca", "lat": 19.456111, "lng": -97.5775
},{
"label": "Tlalayotla", "lat": 19.419152, "lng": -97.692505
},{
"label": "La Cuenca", "lat": 19.45816, "lng": -97.642104
},{
"label": "San Isidro", "lat": 19.489789, "lng": -97.713956
},{
"label": "Santa Lugarda", "lat": 19.510147, "lng": -97.611894
},{
"label": "El Guayín", "lat": 19.452929, "lng": -97.642484
},{
"label": "Campo Real", "lat": 19.459526, "lng": -97.653528
},{
"label": "Nuevo México (El Sabinal)", "lat": 19.454167, "lng": -97.617222
},{
"label": "Santa Catarina", "lat": 19.476389, "lng": -97.610556
},{
"label": "Tlacomulco", "lat": 19.449581, "lng": -97.656934
},{
"label": "Pedernales", "lat": 19.51348, "lng": -97.768877
},{
"label": "San Pedro", "lat": 19.426573, "lng": -97.679367
},{
"label": "Cacaloco", "lat": 19.484458, "lng": -97.693329
},{
"label": "Cuatzolco", "lat": 19.476847, "lng": -97.691906
},{
"label": "La Cuchilla", "lat": 19.485066, "lng": -97.606891
},{
"label": "San Antonio Tetelictic", "lat": 19.460752, "lng": -97.705084
},{
"label": "Mazatepec", "lat": 19.435833, "lng": -97.59
},{
"label": "El Crucero", "lat": 19.509734, "lng": -97.751304
},{
"label": "Loma Bella", "lat": 19.48844, "lng": -97.719644
},{
"label": "Guadalupe", "lat": 19.467207, "lng": -97.671612
},{
"label": "Coyotepec", "lat": 19.458444, "lng": -97.596839
},{
"label": "Rancho Viejo", "lat": 19.522783, "lng": -97.719433
},{
"label": "La Rumorosa", "lat": 19.445824, "lng": -97.597811
},{
"label": "Tlazacoalco", "lat": 19.483939, "lng": -97.712825
},{
"label": "San Pablo", "lat": 19.474339, "lng": -97.693417
},{
"label": "Colonia Vieja", "lat": 19.449669, "lng": -97.667529
},{
"label": "Ayehualaco (San Martín)", "lat": 19.437921, "lng": -97.706337
},{
"label": "San Martín", "lat": 19.493893, "lng": -97.686668
},{
"label": "Álvaro Obregón (San Francisco)", "lat": 19.443737, "lng": -97.676986
},{
"label": "San Jerónimo Palmaritos", "lat": 19.527379, "lng": -97.662307
},{
"label": "Guadalupe Victoria", "lat": 19.528189, "lng": -97.685299
},{
"label": "Santiago Quetzoltepec", "lat": 19.482258, "lng": -97.567116
},{
"label": "Garibaldi", "lat": 19.460632, "lng": -97.675731
},{
"label": "Las Maravillas", "lat": 19.469363, "lng": -97.610267
},{
"label": "La Noria González Covarrubias", "lat": 19.419777, "lng": -97.699156
},{
"label": "San Nicolás", "lat": 19.496864, "lng": -97.663041
},{
"label": "Mitimaya", "lat": 19.447963, "lng": -97.728893
},{
"label": "Cuauhtzolco", "lat": 19.485712, "lng": -97.680704
},{
"label": "San Carlos", "lat": 19.437981, "lng": -97.693517
},{
"label": "La Frontera", "lat": 19.517376, "lng": -97.675377
},{
"label": "Xaltepec", "lat": 19.4825, "lng": -97.666111
},{
"label": "San José Morelos", "lat": 19.498889, "lng": -97.648333
},{
"label": "Timimilco", "lat": 19.488577, "lng": -97.768064
},{
"label": "San José la Ermita", "lat": 19.464444, "lng": -97.664722
},{
"label": "San Miguel del Llano", "lat": 19.469722, "lng": -97.637222
},{
"label": "San Juan", "lat": 19.451703, "lng": -97.693126
},{
"label": "Unidad Habitacional Villa Montana", "lat": 19.480154, "lng": -97.697061
},{
"label": "San Antonio", "lat": 19.481667, "lng": -97.681389
},{
"label": "Toluca", "lat": 19.467222, "lng": -97.711944
},{
"label": "San Miguel Coyotepec", "lat": 19.458056, "lng": -97.606667
},{
"label": "Progreso", "lat": 19.487122, "lng": -97.677373
},{
"label": "San Roque Tlaquixquiloya", "lat": 19.436944, "lng": -97.656667
},{
"label": "Guerrero", "lat": 19.432186, "lng": -97.687613
},{
"label": "La Concha", "lat": 19.449959, "lng": -97.675994
},{
"label": "La Esperanza", "lat": 19.483404, "lng": -97.682002
},{
"label": "Ahuateno", "lat": 19.479027, "lng": -97.717827
},{
"label": "Las Chapas", "lat": 19.534987, "lng": -97.752639
},{
"label": "San José la Libertad", "lat": 19.479229, "lng": -97.704904
},{
"label": "La Cañada", "lat": 19.498991, "lng": -97.733724
},{
"label": "Tezontle", "lat": 19.493894, "lng": -97.581051
},{
"label": "San Manuel", "lat": 19.469754, "lng": -97.646788
},{
"label": "Teoloyucan", "lat": 19.434354, "lng": -97.617329
},{
"label": "Loma Bonita", "lat": 19.494494, "lng": -97.673762
},{
"label": "Ciudad de Libres", "lat": 19.464679, "lng": -97.687734
},{
"label": "Atenquique", "lat": 19.46496, "lng": -97.611221
},{
"label": "Bella Vista", "lat": 19.533164, "lng": -97.762232
},{
"label": "Ixcatzitzi", "lat": 19.470023, "lng": -97.651611
},{
"label": "Varela", "lat": 19.444596, "lng": -97.564406
}]