[{
"label": "Santa Cecilia", "lat": 19.23494, "lng": -97.554608
},{
"label": "San José", "lat": 19.235773, "lng": -97.558669
},{
"label": "Santa María Perseverancia", "lat": 19.390488, "lng": -97.577176
},{
"label": "San José Juquila", "lat": 19.404961, "lng": -97.629934
},{
"label": "San Antonio Virreyes", "lat": 19.409437, "lng": -97.637105
},{
"label": "Los Gavilanes", "lat": 19.24734, "lng": -97.580739
},{
"label": "Santa Elena (La Victoria)", "lat": 19.235716, "lng": -97.549647
},{
"label": "San Joaquín", "lat": 19.328889, "lng": -97.514444
},{
"label": "Las Peras", "lat": 19.257222, "lng": -97.546944
},{
"label": "Rancho Martínez Parra", "lat": 19.364722, "lng": -97.610278
},{
"label": "San Benito", "lat": 19.342611, "lng": -97.53228
},{
"label": "El Pedregal", "lat": 19.372933, "lng": -97.630206
},{
"label": "San Francisco (Pozo el Loro)", "lat": 19.366747, "lng": -97.578564
},{
"label": "Miravalles", "lat": 19.341799, "lng": -97.53873
},{
"label": "San Isidro", "lat": 19.403202, "lng": -97.577809
},{
"label": "Coxma (Faldas de Mazatepec)", "lat": 19.320707, "lng": -97.631596
},{
"label": "San Bernardino", "lat": 19.41756, "lng": -97.563863
},{
"label": "Oriental", "lat": 19.375803, "lng": -97.619351
},{
"label": "La Bodega", "lat": 19.307858, "lng": -97.605633
},{
"label": "San Luis", "lat": 19.399848, "lng": -97.627261
},{
"label": "La Fortuna", "lat": 19.264167, "lng": -97.53
},{
"label": "Santiago Texmelucan", "lat": 19.355833, "lng": -97.560556
},{
"label": "Bosques del Paraíso", "lat": 19.369876, "lng": -97.622057
},{
"label": "San Miguel Torija", "lat": 19.333421, "lng": -97.56328
},{
"label": "Los Pinos", "lat": 19.374237, "lng": -97.628049
},{
"label": "Mariano Martínez", "lat": 19.3648, "lng": -97.619068
},{
"label": "La Cabaña", "lat": 19.389837, "lng": -97.556484
},{
"label": "El Olivo II", "lat": 19.393038, "lng": -97.58153
},{
"label": "El Desmonte", "lat": 19.414889, "lng": -97.659643
},{
"label": "Santa Fe Vallarta", "lat": 19.358904, "lng": -97.591334
},{
"label": "Guadalupe", "lat": 19.407112, "lng": -97.634728
},{
"label": "La Palma", "lat": 19.395253, "lng": -97.582958
},{
"label": "Jesús Carranza", "lat": 19.244198, "lng": -97.556886
},{
"label": "San Antonio las Palmas", "lat": 19.356207, "lng": -97.609053
},{
"label": "Chimeca", "lat": 19.382036, "lng": -97.564849
},{
"label": "San Ildelfonso de la Paz", "lat": 19.370556, "lng": -97.583889
},{
"label": "Las Palmas", "lat": 19.389561, "lng": -97.617199
},{
"label": "El Pirúl", "lat": 19.334814, "lng": -97.55628
},{
"label": "El Olivo", "lat": 19.39405, "lng": -97.578804
},{
"label": "El Fortín (Santa Catalina)", "lat": 19.385687, "lng": -97.628782
},{
"label": "Juquilita", "lat": 19.370792, "lng": -97.606413
},{
"label": "San Isidro Patrimonio Ejidal", "lat": 19.373915, "lng": -97.603661
},{
"label": "Santa Cruz Magdalena", "lat": 19.369403, "lng": -97.649542
},{
"label": "El Mermejo", "lat": 19.347761, "lng": -97.557099
},{
"label": "El Chipote", "lat": 19.3791, "lng": -97.625537
},{
"label": "Torija", "lat": 19.332621, "lng": -97.567779
},{
"label": "La Coco", "lat": 19.383768, "lng": -97.612982
},{
"label": "San Antonio", "lat": 19.360192, "lng": -97.597712
},{
"label": "San José Zacatepec", "lat": 19.265392, "lng": -97.532914
},{
"label": "San Antonio Ramadero", "lat": 19.351838, "lng": -97.602384
},{
"label": "Santa Gertrudis (El Puyol)", "lat": 19.246111, "lng": -97.542778
},{
"label": "San Ignacio", "lat": 19.402132, "lng": -97.627671
},{
"label": "La Concepción", "lat": 19.251258, "lng": -97.548434
},{
"label": "Ex-Hacienda San Antonio Virreyes", "lat": 19.389431, "lng": -97.625202
},{
"label": "Nuevo Centro de Población Tlachichuca", "lat": 19.282525, "lng": -97.569048
},{
"label": "La Bomba (San Isidro)", "lat": 19.361944, "lng": -97.560926
},{
"label": "29 de Octubre", "lat": 19.377296, "lng": -97.611376
},{
"label": "Rancho Nuevo", "lat": 19.335734, "lng": -97.556921
}]