[{
"label": "San José", "lat": 18.820017, "lng": -97.539236
},{
"label": "Santa Dorotea", "lat": 18.842203, "lng": -97.546974
},{
"label": "Granja Esteban Lima", "lat": 18.847008, "lng": -97.538143
},{
"label": "Cuesta Blanca", "lat": 18.8444, "lng": -97.466696
},{
"label": "Rancho Rubio", "lat": 18.865798, "lng": -97.589705
},{
"label": "San Miguel Xaltepec", "lat": 18.873692, "lng": -97.61547
},{
"label": "Rincón Grande", "lat": 18.804749, "lng": -97.591454
},{
"label": "La Noria", "lat": 18.883946, "lng": -97.647599
},{
"label": "La Asunción", "lat": 18.812793, "lng": -97.5185
},{
"label": "Guadalupe Zozoyango", "lat": 18.840582, "lng": -97.595235
},{
"label": "Ex-Hacienda de Jesús", "lat": 18.857222, "lng": -97.558889
},{
"label": "PATSA", "lat": 18.816665, "lng": -97.555058
},{
"label": "Buenavista", "lat": 18.846201, "lng": -97.527595
},{
"label": "Los Vergeles", "lat": 18.833508, "lng": -97.538903
},{
"label": "La Purísima", "lat": 18.830093, "lng": -97.574728
},{
"label": "Contreras", "lat": 18.81061, "lng": -97.551954
},{
"label": "San Gabriel (Tanque San Felipe)", "lat": 18.828341, "lng": -97.490708
},{
"label": "Avícola Álvarez", "lat": 18.803115, "lng": -97.507249
},{
"label": "El Marqués", "lat": 18.830542, "lng": -97.510388
},{
"label": "Santa Cruz Ocotlán", "lat": 18.877945, "lng": -97.585513
},{
"label": "Palmarito", "lat": 18.890869, "lng": -97.641669
},{
"label": "Palmar de Bravo", "lat": 18.835926, "lng": -97.547507
},{
"label": "Santa Catarina", "lat": 18.87868, "lng": -97.551607
},{
"label": "Avícola San Antonio", "lat": 18.828565, "lng": -97.560783
},{
"label": "Cuesta Chica Piletas", "lat": 18.814994, "lng": -97.391873
},{
"label": "Tehuitzo", "lat": 18.825306, "lng": -97.436891
},{
"label": "Parador Alducines", "lat": 18.830399, "lng": -97.505695
},{
"label": "Cuacnopalan", "lat": 18.817175, "lng": -97.511149
},{
"label": "Encrucijada Primera Sección", "lat": 18.855696, "lng": -97.420668
},{
"label": "Pozo Colorado", "lat": 18.80026, "lng": -97.540005
},{
"label": "El Cerrito", "lat": 18.853889, "lng": -97.525556
},{
"label": "Los Reyes Altamira", "lat": 18.811703, "lng": -97.414541
},{
"label": "Guadalupe Piletas", "lat": 18.817517, "lng": -97.415259
},{
"label": "Los López", "lat": 18.850521, "lng": -97.476146
},{
"label": "El Calvario (Palmar de Bravo)", "lat": 18.839365, "lng": -97.541699
},{
"label": "San Agustín", "lat": 18.839228, "lng": -97.561168
},{
"label": "Tecoyuco", "lat": 18.824343, "lng": -97.488222
},{
"label": "Santa Cruz Monterrosas", "lat": 18.876498, "lng": -97.563049
},{
"label": "Cuesta Blanca Chica", "lat": 18.840478, "lng": -97.465283
},{
"label": "San Antonio Cacalotepec", "lat": 18.829057, "lng": -97.556977
},{
"label": "Hacienda San Miguel", "lat": 18.858428, "lng": -97.627017
},{
"label": "Encrucijada Segunda Sección", "lat": 18.854582, "lng": -97.436506
},{
"label": "Cruz Verde", "lat": 18.872015, "lng": -97.628811
},{
"label": "Colonia Guadalupe (Dolores)", "lat": 18.883166, "lng": -97.641026
},{
"label": "Adolfo López Mateos", "lat": 18.892253, "lng": -97.662753
},{
"label": "Rancho Verde", "lat": 18.810753, "lng": -97.546096
},{
"label": "El Arenal", "lat": 18.820858, "lng": -97.501802
},{
"label": "Amozoquillo Piletas", "lat": 18.834682, "lng": -97.39505
},{
"label": "Juquila", "lat": 18.819526, "lng": -97.498143
},{
"label": "San Martín", "lat": 18.803153, "lng": -97.514211
},{
"label": "San Javier (Zapotlán)", "lat": 18.806516, "lng": -97.544431
},{
"label": "Las Palmas", "lat": 18.854538, "lng": -97.584886
},{
"label": "Las Cruces", "lat": 18.890369, "lng": -97.629163
},{
"label": "Rancho de la Luz", "lat": 18.881586, "lng": -97.640411
},{
"label": "Las Palmitas", "lat": 18.85463, "lng": -97.460581
},{
"label": "Trinidad el Arenal (La Nigua)", "lat": 18.836339, "lng": -97.486841
},{
"label": "Punto Esperanza (PIASA)", "lat": 18.848733, "lng": -97.428151
},{
"label": "San Isidro Monterrosas", "lat": 18.856849, "lng": -97.575806
},{
"label": "Santa Isabel Sabinal", "lat": 18.768516, "lng": -97.474324
},{
"label": "San Antonio Limones", "lat": 18.865397, "lng": -97.48462
},{
"label": "El Eucalipto", "lat": 18.836857, "lng": -97.533524
},{
"label": "Rincón de Osorio", "lat": 18.949167, "lng": -97.551667
},{
"label": "Loma Bella (Loma del Pato)", "lat": 18.872359, "lng": -97.595066
},{
"label": "San Juan", "lat": 18.883718, "lng": -97.560221
},{
"label": "Cerro Agujerado", "lat": 18.738168, "lng": -97.523611
},{
"label": "San Francisco (Las Presas)", "lat": 18.85974, "lng": -97.620119
},{
"label": "San Francisco Piletas", "lat": 18.825571, "lng": -97.393769
},{
"label": "Los Chabacanos", "lat": 18.839208, "lng": -97.444192
},{
"label": "Rancho Castillo", "lat": 18.819608, "lng": -97.52249
},{
"label": "Villa Rica", "lat": 18.853333, "lng": -97.544722
},{
"label": "Pablo Zebada Marín", "lat": 18.849613, "lng": -97.566171
},{
"label": "San Miguel Esperilla", "lat": 18.721932, "lng": -97.520307
},{
"label": "San Francisco Zozoyango", "lat": 18.843511, "lng": -97.600707
},{
"label": "Jesús Nazareno", "lat": 18.877048, "lng": -97.622597
},{
"label": "La Trinidad", "lat": 18.808487, "lng": -97.535298
},{
"label": "Bellavista de Victoria (San José Bellavista)", "lat": 18.875579, "lng": -97.544372
},{
"label": "La Concepción", "lat": 18.824574, "lng": -97.538586
},{
"label": "La Soledad", "lat": 18.810739, "lng": -97.503624
},{
"label": "Guadalupe (El Arenal)", "lat": 18.876944, "lng": -97.603333
},{
"label": "Rancho Cuexcomate", "lat": 18.800597, "lng": -97.508883
},{
"label": "El Porvenir", "lat": 18.84366, "lng": -97.55059
},{
"label": "Rancho de Vera", "lat": 18.888162, "lng": -97.657319
},{
"label": "San Juditas", "lat": 18.81895, "lng": -97.51724
},{
"label": "Colonia Guadalupe", "lat": 18.840184, "lng": -97.473561
},{
"label": "San Miguelito Esperilla", "lat": 18.804743, "lng": -97.520751
}]