[{
"label": "El Rincón", "lat": 18.12563, "lng": -97.927703
},{
"label": "La Palma", "lat": 18.070008, "lng": -97.968942
},{
"label": "Santa Cruz (Barrio de Santa Cruz)", "lat": 18.075216, "lng": -97.919438
},{
"label": "San José Texcalapa", "lat": 18.064431, "lng": -97.974647
},{
"label": "La Pila Verde", "lat": 18.085387, "lng": -97.986641
},{
"label": "Tacoyo", "lat": 18.116496, "lng": -97.881188
},{
"label": "Emiliano Zapata", "lat": 18.126191, "lng": -97.908406
},{
"label": "Colonia el Progreso", "lat": 18.130326, "lng": -97.967285
},{
"label": "El Rosario Micaltepec", "lat": 18.045998, "lng": -97.85007
},{
"label": "La Palma (Dorada)", "lat": 18.032068, "lng": -97.895829
},{
"label": "Mezquital (Sección Quinta el Mezquital)", "lat": 18.088494, "lng": -97.874339
},{
"label": "San Isidro", "lat": 18.076539, "lng": -97.910011
},{
"label": "El Conejo", "lat": 18.034873, "lng": -97.908089
},{
"label": "Texcalapa de Juárez", "lat": 18.065229, "lng": -97.989419
},{
"label": "Santa Gertrudis Salitrillo", "lat": 18.019718, "lng": -97.898394
},{
"label": "Fidepal", "lat": 18.128848, "lng": -97.968687
},{
"label": "Petlalcingo", "lat": 18.082201, "lng": -97.917848
},{
"label": "El Ídolo", "lat": 18.059685, "lng": -97.872113
},{
"label": "Sección Sexta Guadalupe", "lat": 18.033198, "lng": -97.872813
},{
"label": "Santa Cruz de Bravo", "lat": 18.076409, "lng": -97.99646
},{
"label": "Ranchito Providencia", "lat": 18.109462, "lng": -97.9009
},{
"label": "Tepejillo", "lat": 18.049044, "lng": -97.839622
},{
"label": "Barrio de Guadalupe Sección Tercera", "lat": 18.08873, "lng": -97.904815
},{
"label": "San Antonio Tierra Colorada", "lat": 18.020232, "lng": -97.932503
},{
"label": "Plan de los Palos Blancos", "lat": 18.022222, "lng": -97.913333
},{
"label": "El Limón", "lat": 17.989997, "lng": -97.951653
},{
"label": "Ejido San Antonio Tierra Colorada", "lat": 18.01933, "lng": -97.939576
}]