[{
"label": "San Salvador Hiuxcolotla (San Judas Tadeo)", "lat": 18.899864, "lng": -97.779764
},{
"label": "Dolores", "lat": 18.923822, "lng": -97.755516
},{
"label": "Pozo Paraje Santa María", "lat": 18.939498, "lng": -97.779216
},{
"label": "Ex-Hacienda Asunción del Moral", "lat": 18.899186, "lng": -97.765883
},{
"label": "Pozo Solidario Número 2 (El Llano)", "lat": 18.931906, "lng": -97.787324
},{
"label": "La Candelaria", "lat": 18.921925, "lng": -97.784473
},{
"label": "Pozo Santa Cecilia", "lat": 18.928491, "lng": -97.792892
},{
"label": "El Moral", "lat": 18.895141, "lng": -97.77409
},{
"label": "El Llano de San Juan", "lat": 18.948776, "lng": -97.76701
},{
"label": "Ex-Hacienda San Sebastían Rocha", "lat": 18.92534, "lng": -97.75792
},{
"label": "Pozo Santa María Guadalupe", "lat": 18.945979, "lng": -97.772952
},{
"label": "Pozo el Divino Redentor", "lat": 18.931546, "lng": -97.781315
},{
"label": "Pozo el Niño Jesús", "lat": 18.926451, "lng": -97.759367
},{
"label": "Pozo Juan Pablo II", "lat": 18.896276, "lng": -97.779113
},{
"label": "Pozo Santa Rosita", "lat": 18.924383, "lng": -97.791253
},{
"label": "Pozo San Isidro", "lat": 18.940723, "lng": -97.773785
},{
"label": "San Bartolomé María", "lat": 18.950003, "lng": -97.75378
},{
"label": "Central de Abastos Huixcolotla", "lat": 18.900559, "lng": -97.784596
},{
"label": "La Cruz [Pozo]", "lat": 18.933871, "lng": -97.758484
},{
"label": "Moises Saba [Unidad Habitacional]", "lat": 18.896456, "lng": -97.765637
},{
"label": "San Salvador Huixcolotla", "lat": 18.92061, "lng": -97.771789
},{
"label": "Cristo Rey [Pozo]", "lat": 18.933443, "lng": -97.772957
},{
"label": "Bomba de Guadalupe", "lat": 18.912593, "lng": -97.785484
},{
"label": "El Tule (Froylán Rojas)", "lat": 18.935994, "lng": -97.783417
},{
"label": "Agrícola Crubalroch [Consorcio]", "lat": 18.935556, "lng": -97.761389
},{
"label": "De Juquila [Pozo]", "lat": 18.904023, "lng": -97.769204
},{
"label": "San Sebastián Rocha (El Capulín) [Pozo]", "lat": 18.938248, "lng": -97.757174
}]