[{
"label": "San Francisco", "lat": 19.215182, "lng": -98.525564
},{
"label": "Cozala", "lat": 19.222274, "lng": -98.494414
},{
"label": "Mihuaxca", "lat": 19.241043, "lng": -98.514518
},{
"label": "San Matías Atzala", "lat": 19.254679, "lng": -98.479506
},{
"label": "El Carril del Fresno", "lat": 19.24365, "lng": -98.503209
},{
"label": "Las Lunas (Cañada la Unión)", "lat": 19.228456, "lng": -98.53092
},{
"label": "Santa María la Unión (Rancho la Unión)", "lat": 19.230106, "lng": -98.526583
},{
"label": "Palo Marco", "lat": 19.212778, "lng": -98.5275
},{
"label": "Teponancingo", "lat": 19.226667, "lng": -98.539444
},{
"label": "Hueytlale", "lat": 19.251562, "lng": -98.514575
},{
"label": "San Juan Tlale", "lat": 19.235209, "lng": -98.518864
},{
"label": "San Felipe Teotlalcingo", "lat": 19.235725, "lng": -98.495455
}]