[{
"label": "Cañada de Huepalcalco", "lat": 19.356242, "lng": -98.523615
},{
"label": "Teopantzolco", "lat": 19.314496, "lng": -98.510264
},{
"label": "Xalchichilco (San Mateo)", "lat": 19.323816, "lng": -98.51737
},{
"label": "Santa Cecilia (Casa Roja)", "lat": 19.323333, "lng": -98.521111
},{
"label": "Pozo de Agua 43", "lat": 19.345306, "lng": -98.527335
},{
"label": "El Molino (San Miguel del Molino)", "lat": 19.315418, "lng": -98.504108
},{
"label": "San Buenaventura", "lat": 19.335028, "lng": -98.542597
},{
"label": "El Indito Percino", "lat": 19.3725, "lng": -98.489444
},{
"label": "San Miguel del Molino", "lat": 19.313291, "lng": -98.492621
},{
"label": "Buenavista", "lat": 19.345499, "lng": -98.507763
},{
"label": "Palmillas", "lat": 19.318114, "lng": -98.508519
},{
"label": "El Vergel", "lat": 19.354626, "lng": -98.518321
},{
"label": "San Antonio Chiautla de Arenas", "lat": 19.349672, "lng": -98.481409
},{
"label": "Los Salgado", "lat": 19.344444, "lng": -98.517222
},{
"label": "Nopalillo", "lat": 19.374486, "lng": -98.490855
},{
"label": "Santa María Huepalcalco (El Casco)", "lat": 19.356529, "lng": -98.520563
},{
"label": "Venta Noria (Juárez Cinco)", "lat": 19.331067, "lng": -98.5293
},{
"label": "San Cayetano", "lat": 19.328454, "lng": -98.543302
},{
"label": "Ex-Hacienda Molino de Guadalupe (San Félix)", "lat": 19.368491, "lng": -98.519739
},{
"label": "La Rosita", "lat": 19.321111, "lng": -98.520556
},{
"label": "Juárez Coronaco", "lat": 19.35929, "lng": -98.526524
},{
"label": "San Francisco Tláloc", "lat": 19.37082, "lng": -98.477175
},{
"label": "Las Nieves", "lat": 19.323333, "lng": -98.488056
},{
"label": "Los Aguilar", "lat": 19.351943, "lng": -98.519287
},{
"label": "San Fernando el Ocotal", "lat": 19.372563, "lng": -98.494803
},{
"label": "Chapultepec", "lat": 19.328591, "lng": -98.507757
},{
"label": "Ampliación Vista Hermosa (Tlacomul)", "lat": 19.336233, "lng": -98.508433
},{
"label": "Manantiales la Asunción", "lat": 19.331666, "lng": -98.534921
},{
"label": "Estación de Servicio 4050", "lat": 19.32483, "lng": -98.522885
},{
"label": "San Matías Tlalancaleca", "lat": 19.324427, "lng": -98.498163
},{
"label": "Los Bancos", "lat": 19.315943, "lng": -98.485328
},{
"label": "El Retorno (Kilómetro 78 de Palmillas)", "lat": 19.327935, "lng": -98.535706
},{
"label": "Santa María Huepalcalco", "lat": 19.336617, "lng": -98.511466
},{
"label": "Potrerito", "lat": 19.322778, "lng": -98.525278
},{
"label": "San Mateo", "lat": 19.3175, "lng": -98.528611
}]