[{
"label": "Cozala", "lat": 19.27, "lng": -98.451944
},{
"label": "San José", "lat": 19.312599, "lng": -98.451103
},{
"label": "Xahuenramos (El Jagüeycito de Xahuenramos)", "lat": 19.255, "lng": -98.388611
},{
"label": "San Antonio Chico", "lat": 19.231111, "lng": -98.404444
},{
"label": "San Miguel Lardizábal (Colonia Altamirano)", "lat": 19.304272, "lng": -98.437775
},{
"label": "Llano de Tlahizco", "lat": 19.294831, "lng": -98.419642
},{
"label": "Panoloya", "lat": 19.243062, "lng": -98.469255
},{
"label": "Santa Cruz de los Ángeles", "lat": 19.260181, "lng": -98.405168
},{
"label": "La Antena", "lat": 19.265918, "lng": -98.392039
},{
"label": "San Francisco Tepeyecac", "lat": 19.24732, "lng": -98.438848
},{
"label": "La Vía", "lat": 19.241074, "lng": -98.476589
},{
"label": "San Jerónimo Tianguismanalco", "lat": 19.24284, "lng": -98.422605
},{
"label": "Yeloxochitlán", "lat": 19.247066, "lng": -98.394688
},{
"label": "San Juan Tuxco", "lat": 19.259428, "lng": -98.448441
},{
"label": "Unidad Petrolera (Unidad Habitacional PEMEX)", "lat": 19.267772, "lng": -98.420079
},{
"label": "San Buena Ventura Tecalzingo", "lat": 19.252634, "lng": -98.460678
},{
"label": "Los Ángeles", "lat": 19.216593, "lng": -98.388053
},{
"label": "El Moral", "lat": 19.270667, "lng": -98.444768
},{
"label": "San Baltazar (San Mateo Ayecac)", "lat": 19.271468, "lng": -98.39342
},{
"label": "La Purísima", "lat": 19.298391, "lng": -98.429604
},{
"label": "Colonia Santa Cruz", "lat": 19.298633, "lng": -98.422112
},{
"label": "La Joya", "lat": 19.224998, "lng": -98.378914
},{
"label": "San Lucas Atoyatenco (Los Ranchitos)", "lat": 19.286307, "lng": -98.412531
},{
"label": "El Tarasco", "lat": 19.271389, "lng": -98.457222
},{
"label": "La Loma", "lat": 19.304614, "lng": -98.440478
},{
"label": "San Baltazar Temaxcalac (El Pollo Gordo)", "lat": 19.258949, "lng": -98.428886
},{
"label": "San José los Arcos", "lat": 19.271723, "lng": -98.459404
},{
"label": "Santa María Moyotzingo", "lat": 19.244391, "lng": -98.405108
},{
"label": "San Baltazar Temaxcalac (La Ciénega)", "lat": 19.261825, "lng": -98.404774
},{
"label": "San Rafael Tlanalapan", "lat": 19.289334, "lng": -98.465993
},{
"label": "Llano las Piedras", "lat": 19.307087, "lng": -98.463516
},{
"label": "San Martín Texmelucan de Labastida", "lat": 19.282908, "lng": -98.435516
},{
"label": "El Venturero", "lat": 19.243702, "lng": -98.451285
},{
"label": "La Libertad Antorchista", "lat": 19.31937, "lng": -98.421757
},{
"label": "San Cristóbal Tepatlaxco", "lat": 19.297963, "lng": -98.439032
},{
"label": "San Buenaventura Tecaltzingo", "lat": 19.245836, "lng": -98.460969
},{
"label": "Adhesivos", "lat": 19.260418, "lng": -98.416379
},{
"label": "Los Pinos", "lat": 19.268026, "lng": -98.429615
},{
"label": "El Encanto", "lat": 19.22797, "lng": -98.41828
},{
"label": "La Tejocotera", "lat": 19.230289, "lng": -98.370376
},{
"label": "Lomas de San Antonio", "lat": 19.305733, "lng": -98.425147
},{
"label": "Tlaixco", "lat": 19.290569, "lng": -98.414192
},{
"label": "Tepetitla", "lat": 19.268209, "lng": -98.38772
},{
"label": "Colonia San Vicente (El Ameyal)", "lat": 19.283591, "lng": -98.402535
},{
"label": "San Juan Tlale", "lat": 19.258388, "lng": -98.443171
},{
"label": "Campo Melesio Solano", "lat": 19.306594, "lng": -98.445337
},{
"label": "Vista Hermosa", "lat": 19.268166, "lng": -98.461789
}]