[{
"label": "La Ermita", "lat": 19.119353, "lng": -97.787894
},{
"label": "Progreso", "lat": 19.1312, "lng": -97.73507
},{
"label": "Libertad Álvaro Obregón", "lat": 19.13382, "lng": -97.767918
},{
"label": "Lucía", "lat": 19.138747, "lng": -97.728283
},{
"label": "Doctor Rafael Serrano", "lat": 19.149946, "lng": -97.757226
},{
"label": "Alta Luz", "lat": 19.098605, "lng": -97.77896
},{
"label": "Ex-Hacienda San Cristóbal la Trampa", "lat": 19.152408, "lng": -97.759778
},{
"label": "San Antonio Xicotenco", "lat": 19.137026, "lng": -97.712051
},{
"label": "San Mateo Soltepec", "lat": 19.096637, "lng": -97.758788
},{
"label": "El Gavilán", "lat": 19.155556, "lng": -97.744167
},{
"label": "Álvaro Sandoval", "lat": 19.143913, "lng": -97.695841
},{
"label": "Llanos de Mazapila", "lat": 19.159664, "lng": -97.729579
},{
"label": "Loma de Mazapila", "lat": 19.14987, "lng": -97.724028
},{
"label": "El Cordero", "lat": 19.175278, "lng": -97.706667
},{
"label": "Vista Hermosa", "lat": 19.119033, "lng": -97.729605
},{
"label": "Colonia Benito Juárez", "lat": 19.154677, "lng": -97.778982
},{
"label": "Soltepec", "lat": 19.119228, "lng": -97.708445
},{
"label": "San Cristóbal", "lat": 19.160278, "lng": -97.748889
}]