[{
"label": "Veracrucito", "lat": 18.851118, "lng": -97.796001
},{
"label": "La Laguna", "lat": 18.80094, "lng": -97.736554
},{
"label": "Santa María los Pinitos", "lat": 18.823534, "lng": -97.791898
},{
"label": "Rancho Niño", "lat": 18.873623, "lng": -97.743596
},{
"label": "Los Alvarado", "lat": 18.831696, "lng": -97.769493
},{
"label": "Triturados la Providencia", "lat": 18.868906, "lng": -97.709245
},{
"label": "Los Díaz (Rancho Guadalupe)", "lat": 18.872321, "lng": -97.751431
},{
"label": "Lomas de Romero", "lat": 18.914805, "lng": -97.717635
},{
"label": "Lomas de Santa Cruz", "lat": 18.923749, "lng": -97.729391
},{
"label": "Rancho Celis (Rancho Mazorra)", "lat": 18.872657, "lng": -97.739121
},{
"label": "Rancho la Lolita", "lat": 18.857724, "lng": -97.752572
},{
"label": "Rancho Escondido", "lat": 18.94929, "lng": -97.73409
},{
"label": "El Rosario", "lat": 18.949889, "lng": -97.745043
},{
"label": "Toluquilla", "lat": 18.890403, "lng": -97.67182
},{
"label": "San Martín de Porres", "lat": 18.887834, "lng": -97.723839
},{
"label": "Santa María [Rancho]", "lat": 18.815279, "lng": -97.782795
},{
"label": "Rancho Virina", "lat": 18.837735, "lng": -97.768964
},{
"label": "El Moralillo", "lat": 18.839053, "lng": -97.697053
},{
"label": "José María Pino Suárez", "lat": 18.861277, "lng": -97.734824
},{
"label": "San Isidro", "lat": 18.826418, "lng": -97.726623
},{
"label": "San Sebastián", "lat": 18.892446, "lng": -97.737096
},{
"label": "San Antonio la Portilla", "lat": 18.795908, "lng": -97.7634
},{
"label": "La Joya", "lat": 18.848611, "lng": -97.790014
},{
"label": "Santa Martha", "lat": 18.838138, "lng": -97.784074
},{
"label": "Santiago Alseseca", "lat": 18.844422, "lng": -97.701667
},{
"label": "Ranchería los Silvas", "lat": 18.8369, "lng": -97.760726
},{
"label": "Rancho Alegre", "lat": 18.811748, "lng": -97.768834
},{
"label": "Santa Fe (El Espinero) [Granja]", "lat": 18.863665, "lng": -97.721631
},{
"label": "El Búfalo", "lat": 18.821389, "lng": -97.732222
},{
"label": "Los Villegas", "lat": 18.817067, "lng": -97.748272
},{
"label": "Los Flores", "lat": 18.830424, "lng": -97.765421
},{
"label": "San José Machorro", "lat": 18.860645, "lng": -97.775551
},{
"label": "Rancho Grande", "lat": 18.944627, "lng": -97.726649
},{
"label": "Colonia Cuauhtémoc", "lat": 18.829714, "lng": -97.741804
},{
"label": "Tecamachalco", "lat": 18.884692, "lng": -97.728416
},{
"label": "San Baltazar", "lat": 18.785543, "lng": -97.755626
},{
"label": "Rubén Jaramillo", "lat": 18.832836, "lng": -97.754116
},{
"label": "Pozo Número 11 de Tecamachalco", "lat": 18.845951, "lng": -97.755889
},{
"label": "Guadalupe [Rancho]", "lat": 18.950006, "lng": -97.719022
},{
"label": "Laguna Cuarta Sección [Granja]", "lat": 18.818254, "lng": -97.736986
},{
"label": "Guadalupe [Invernadero]", "lat": 18.951366, "lng": -97.738701
},{
"label": "Barrio el Alto", "lat": 18.851033, "lng": -97.701926
},{
"label": "Santa Rosa", "lat": 18.877609, "lng": -97.781865
},{
"label": "Guadalupe", "lat": 18.815115, "lng": -97.737631
},{
"label": "Barrio de Jalacingo (San Mateo Sección 23)", "lat": 18.920843, "lng": -97.723975
},{
"label": "Invernadero Santa Inés", "lat": 18.840403, "lng": -97.730919
},{
"label": "El Salado", "lat": 18.906841, "lng": -97.681451
},{
"label": "Laguna Segunda Sección [Granja]", "lat": 18.814154, "lng": -97.732728
},{
"label": "La Purísima de Hidalgo", "lat": 18.827673, "lng": -97.795336
},{
"label": "Barrio Lagunillas (Colonia Guzmán)", "lat": 18.801078, "lng": -97.773597
},{
"label": "Xochimilco", "lat": 18.840504, "lng": -97.726217
},{
"label": "Barrio la Providencia", "lat": 18.832958, "lng": -97.707188
},{
"label": "Barrio de San Juan", "lat": 18.882864, "lng": -97.759208
},{
"label": "Erika [Granja]", "lat": 18.837383, "lng": -97.771223
},{
"label": "San Cayetano [Rancho]", "lat": 18.864145, "lng": -97.791216
},{
"label": "Colonia del Cuije", "lat": 18.864333, "lng": -97.761126
},{
"label": "Santa Clara", "lat": 18.820992, "lng": -97.77996
},{
"label": "Las Dalias", "lat": 18.845766, "lng": -97.780533
},{
"label": "Rancho Santa Elena", "lat": 18.818466, "lng": -97.768916
},{
"label": "Capula", "lat": 18.89899, "lng": -97.746014
},{
"label": "Betel [Colonia]", "lat": 18.952669, "lng": -97.720287
},{
"label": "Pozo Número 2193 de San Francisco las Palomas", "lat": 18.862996, "lng": -97.747991
},{
"label": "San Antonio Tecolco", "lat": 18.852618, "lng": -97.778546
},{
"label": "Castro [Rancho]", "lat": 18.840738, "lng": -97.778659
},{
"label": "San José de Meza", "lat": 18.892337, "lng": -97.750735
},{
"label": "Los Cortes", "lat": 18.870462, "lng": -97.761736
},{
"label": "San Juan Machorro", "lat": 18.88562, "lng": -97.766554
},{
"label": "Los Chabacanos", "lat": 18.948626, "lng": -97.723222
},{
"label": "Rancho la Luz", "lat": 18.84303, "lng": -97.770174
},{
"label": "Rancho el Laurel (El Laurel)", "lat": 18.86204, "lng": -97.712348
},{
"label": "El Triguero", "lat": 18.906408, "lng": -97.752941
},{
"label": "Rancho San Ignacio", "lat": 18.818254, "lng": -97.775023
},{
"label": "Las Flores [Rancho]", "lat": 18.844654, "lng": -97.788316
},{
"label": "Francisco Villa", "lat": 18.844722, "lng": -97.763068
},{
"label": "El Tepeyac", "lat": 18.899744, "lng": -97.74144
},{
"label": "San Mateo Tlaixpan", "lat": 18.913965, "lng": -97.735798
},{
"label": "San Gregorio Tlacomulco", "lat": 18.896155, "lng": -97.717655
},{
"label": "La Villita (Kilómetro 59)", "lat": 18.864973, "lng": -97.713394
},{
"label": "La Soledad", "lat": 18.808045, "lng": -97.764628
},{
"label": "San José la Portilla", "lat": 18.819735, "lng": -97.756451
},{
"label": "La Villa", "lat": 18.865458, "lng": -97.727068
}]