[{
"label": "El Treinta y Uno", "lat": 18.407046, "lng": -98.342188
},{
"label": "El Rincón", "lat": 18.368993, "lng": -98.286397
},{
"label": "Santa Cruz Tejalpa", "lat": 18.360393, "lng": -98.360516
},{
"label": "Las Amarillas", "lat": 18.391099, "lng": -98.240058
},{
"label": "Los Lobos", "lat": 18.381111, "lng": -98.408889
},{
"label": "Vista Hermosa el Yeso", "lat": 18.380128, "lng": -98.309231
},{
"label": "La Noria Hidalgo", "lat": 18.318757, "lng": -98.193579
},{
"label": "Chicuitlamila", "lat": 18.366432, "lng": -98.402645
},{
"label": "Rancho Pirules", "lat": 18.395332, "lng": -98.258364
},{
"label": "Teyuca", "lat": 18.345149, "lng": -98.380051
},{
"label": "San Vicente Ferrer", "lat": 18.400798, "lng": -98.300619
},{
"label": "Atopoltitlán (Santa Cruz Atopoltitlán)", "lat": 18.265339, "lng": -98.295574
},{
"label": "Tierra Blanca", "lat": 18.339184, "lng": -98.253092
},{
"label": "Rancho Santa Cruz (Rancho los Martínez)", "lat": 18.395059, "lng": -98.253724
},{
"label": "Azuchitlán", "lat": 18.375104, "lng": -98.354471
},{
"label": "El Zapote", "lat": 18.388938, "lng": -98.379232
},{
"label": "San Juan de Dios", "lat": 18.403906, "lng": -98.289502
},{
"label": "El Capulín", "lat": 18.430904, "lng": -98.368181
},{
"label": "Tlapayuca", "lat": 18.346667, "lng": -98.411667
},{
"label": "La Ordeña Vieja", "lat": 18.365235, "lng": -98.206195
},{
"label": "Potrerillos", "lat": 18.397107, "lng": -98.342994
},{
"label": "San José (Las Calaveras)", "lat": 18.299738, "lng": -98.193981
},{
"label": "Tuzantlán (Mariano Escobedo)", "lat": 18.363528, "lng": -98.324948
},{
"label": "Boqueroncito (Santa Cruz)", "lat": 18.300961, "lng": -98.227643
},{
"label": "San Pedro la Junta", "lat": 18.367727, "lng": -98.423969
},{
"label": "El Salado", "lat": 18.354148, "lng": -98.412657
},{
"label": "Tecolutla", "lat": 18.30496, "lng": -98.321661
},{
"label": "Guadalupe Allende (El Pitayo)", "lat": 18.444696, "lng": -98.362983
},{
"label": "La Joyita", "lat": 18.330687, "lng": -98.291154
},{
"label": "Agua Zarca", "lat": 18.275746, "lng": -98.314178
},{
"label": "La Colina de Juárez", "lat": 18.314446, "lng": -98.231646
},{
"label": "La Rinconada", "lat": 18.339733, "lng": -98.257631
},{
"label": "La Junta de Atopoltitlán", "lat": 18.265344, "lng": -98.322376
},{
"label": "Puente Marqués", "lat": 18.386931, "lng": -98.303064
},{
"label": "Barranca Española", "lat": 18.341944, "lng": -98.278056
},{
"label": "Yolanda Guerrero Cardoso", "lat": 18.401094, "lng": -98.277516
},{
"label": "El Astillero", "lat": 18.400744, "lng": -98.410817
},{
"label": "Tehuitzingo", "lat": 18.331714, "lng": -98.276126
},{
"label": "Los Tepetates (La Güajera)", "lat": 18.375278, "lng": -98.263333
},{
"label": "San José Cañada Grande (Jaulillas)", "lat": 18.420102, "lng": -98.33953
},{
"label": "Santo Niño de Atocha", "lat": 18.348787, "lng": -98.281095
},{
"label": "Xoloxúchitl", "lat": 18.272436, "lng": -98.327327
},{
"label": "Los Hornos de Zaragoza", "lat": 18.393112, "lng": -98.202532
},{
"label": "Cuaulutla", "lat": 18.354235, "lng": -98.228266
},{
"label": "Cañada Chica", "lat": 18.425286, "lng": -98.369729
},{
"label": "El Barro", "lat": 18.371812, "lng": -98.411421
},{
"label": "San Francisco de Asís", "lat": 18.435879, "lng": -98.279178
},{
"label": "El Coyote", "lat": 18.334373, "lng": -98.249507
},{
"label": "Tehuitzingo Tercera Sección (Huamuchilera)", "lat": 18.32613, "lng": -98.256471
},{
"label": "El Guayabo", "lat": 18.339361, "lng": -98.238135
},{
"label": "Puerto Tierra Azul", "lat": 18.330145, "lng": -98.254017
},{
"label": "San Martín Toltepec", "lat": 18.440191, "lng": -98.387968
},{
"label": "Las Cañadas", "lat": 18.387956, "lng": -98.352308
},{
"label": "Atlixtaca", "lat": 18.37076, "lng": -98.392398
},{
"label": "Tlachinola", "lat": 18.333933, "lng": -98.333903
},{
"label": "San José Hidalgo (Tehuixtle)", "lat": 18.413922, "lng": -98.40309
},{
"label": "El Guayacán", "lat": 18.320605, "lng": -98.279581
},{
"label": "Texcalapa", "lat": 18.35681, "lng": -98.260142
},{
"label": "Barranca del Tigre", "lat": 18.331389, "lng": -98.174167
}]