[{
"label": "San Juan", "lat": 18.718105, "lng": -98.263618
},{
"label": "San Francisco Jalapexco", "lat": 18.839618, "lng": -98.300181
},{
"label": "San Martin", "lat": 18.717172, "lng": -98.260318
},{
"label": "Rincón de Jaimes", "lat": 18.764246, "lng": -98.272195
},{
"label": "Tecolhuitzo", "lat": 18.762222, "lng": -98.2475
},{
"label": "Teposhuacán", "lat": 18.762778, "lng": -98.268056
},{
"label": "El Zapote", "lat": 18.747844, "lng": -98.265612
},{
"label": "Huitlachapa", "lat": 18.8496, "lng": -98.310843
},{
"label": "Xonacatlán", "lat": 18.759936, "lng": -98.255235
},{
"label": "Héroes Revolucionarios", "lat": 18.728902, "lng": -98.2565
},{
"label": "Los Reyes", "lat": 18.71601, "lng": -98.25776
},{
"label": "Tizihuac", "lat": 18.7475, "lng": -98.252778
},{
"label": "Lagunillas", "lat": 18.749444, "lng": -98.235833
},{
"label": "La Hacienda", "lat": 18.754289, "lng": -98.281157
},{
"label": "San Sebastián Tenango", "lat": 18.660401, "lng": -98.174371
},{
"label": "Tonantzintla", "lat": 18.850746, "lng": -98.323846
},{
"label": "Las Chautlas", "lat": 18.857778, "lng": -98.324722
},{
"label": "Zacahuatlán", "lat": 18.758372, "lng": -98.269216
},{
"label": "Teopantlán", "lat": 18.713259, "lng": -98.262371
},{
"label": "San Lucas", "lat": 18.71311, "lng": -98.255003
},{
"label": "San Sebastián", "lat": 18.709917, "lng": -98.271451
},{
"label": "Xamihorno", "lat": 18.727083, "lng": -98.26328
}]