[{
"label": "Analco", "lat": 19.971895, "lng": -97.845581
},{
"label": "Tlamanca de Hernández", "lat": 19.953408, "lng": -97.812257
},{
"label": "Tlaquimpa", "lat": 19.962193, "lng": -97.880399
},{
"label": "Tlacomulco", "lat": 19.967778, "lng": -97.8475
},{
"label": "Chachayoquila", "lat": 19.946539, "lng": -97.907782
},{
"label": "Xochitlaxco (San Baltazar)", "lat": 19.941833, "lng": -97.86312
},{
"label": "Tecpa", "lat": 19.959648, "lng": -97.826262
},{
"label": "Chicometepec (San Simón)", "lat": 19.962444, "lng": -97.828824
},{
"label": "Tepetzintla", "lat": 19.967086, "lng": -97.840975
},{
"label": "Ejido el Milagro", "lat": 19.964469, "lng": -97.793254
},{
"label": "Tonalixco", "lat": 19.98185, "lng": -97.84
},{
"label": "Tenantitla", "lat": 19.936326, "lng": -97.889296
},{
"label": "Koako", "lat": 19.929078, "lng": -97.870006
},{
"label": "Omitlán", "lat": 19.902344, "lng": -97.85347
},{
"label": "Tempextla", "lat": 19.934015, "lng": -97.82466
},{
"label": "Xicalahuatla", "lat": 19.949644, "lng": -97.839394
}]