[{
"label": "Álamos Tepetitlán", "lat": 19.196496, "lng": -97.438609
},{
"label": "Ex-Hacienda San Felipe", "lat": 19.143429, "lng": -97.458849
},{
"label": "Santa María Oyamecalco (Los Ranchos)", "lat": 19.130786, "lng": -97.391401
},{
"label": "El Paraíso", "lat": 19.080833, "lng": -97.371944
},{
"label": "José María Morelos", "lat": 19.140644, "lng": -97.467017
},{
"label": "Agua Escondida el Salitrero (La Jícara)", "lat": 19.120161, "lng": -97.303979
},{
"label": "El Mirador", "lat": 19.128093, "lng": -97.461381
},{
"label": "Santa Cruz Buena Vista la Capilla", "lat": 19.2257, "lng": -97.372937
},{
"label": "Oyamecalco el Cajón", "lat": 19.11432, "lng": -97.317312
},{
"label": "San Miguel Zoapan", "lat": 19.084051, "lng": -97.353757
},{
"label": "Moralillos", "lat": 19.074596, "lng": -97.322827
},{
"label": "San José Llano Grande (Máquina Vieja)", "lat": 19.052312, "lng": -97.353592
},{
"label": "Ex-Hacienda San José la Capilla", "lat": 19.226264, "lng": -97.370883
},{
"label": "Arcadio Colula", "lat": 19.082523, "lng": -97.373824
},{
"label": "La Joya", "lat": 19.122506, "lng": -97.445517
},{
"label": "La Perla", "lat": 19.129444, "lng": -97.445278
},{
"label": "Los Hornos", "lat": 19.1982, "lng": -97.434562
},{
"label": "Colonia Agrícola Bella Vista (San Vicente)", "lat": 19.248897, "lng": -97.418366
},{
"label": "El Campamento", "lat": 19.167836, "lng": -97.31707
},{
"label": "Julián Amud Montiel", "lat": 19.243865, "lng": -97.402583
},{
"label": "Honorio Macedonio", "lat": 19.114971, "lng": -97.454604
},{
"label": "La Providencia", "lat": 19.1486, "lng": -97.447601
},{
"label": "Colonia Guerra", "lat": 19.106855, "lng": -97.421371
},{
"label": "San Francisco Independencia (Santa María Aserradero)", "lat": 19.068379, "lng": -97.431353
},{
"label": "Las Trancas", "lat": 19.1375, "lng": -97.441111
},{
"label": "Ex-Hacienda Santa Inés Varela", "lat": 19.148017, "lng": -97.398094
},{
"label": "La Colonia de San Pedro", "lat": 19.139501, "lng": -97.465144
},{
"label": "Los Ranchos", "lat": 19.130729, "lng": -97.381907
},{
"label": "Los Pinos", "lat": 19.082304, "lng": -97.366867
},{
"label": "Santa Cruz", "lat": 19.235833, "lng": -97.412778
},{
"label": "Santa Rosa", "lat": 19.199149, "lng": -97.443262
},{
"label": "Lázaro Cárdenas", "lat": 19.143056, "lng": -97.400556
},{
"label": "La Palma", "lat": 19.130763, "lng": -97.464669
},{
"label": "El Aserradero", "lat": 19.1175, "lng": -97.305833
},{
"label": "El Corcel", "lat": 19.125336, "lng": -97.449983
},{
"label": "Manuel Edgardo Ávalos (San Isidro)", "lat": 19.06778, "lng": -97.392387
},{
"label": "Rafael Ávila Camacho", "lat": 19.125639, "lng": -97.412359
},{
"label": "Tlachichuca", "lat": 19.115635, "lng": -97.419113
},{
"label": "Pascual Anguiano", "lat": 19.127943, "lng": -97.463314
},{
"label": "Santa Cecilia Tepetitlán", "lat": 19.19346, "lng": -97.432657
},{
"label": "Santa Inés Varela la Luz", "lat": 19.153943, "lng": -97.389132
},{
"label": "Santa Rita", "lat": 19.089456, "lng": -97.430796
},{
"label": "Tlachichuca Rural", "lat": 19.122569, "lng": -97.418075
},{
"label": "Miguel Hidalgo y Costilla", "lat": 19.081508, "lng": -97.316869
},{
"label": "Ex-Hacienda Zimatepec", "lat": 19.116455, "lng": -97.462527
},{
"label": "Carlos Vázquez", "lat": 19.088333, "lng": -97.399167
},{
"label": "Mercedes Balderas", "lat": 19.130422, "lng": -97.437468
},{
"label": "Santa María el Aserradero (Peones Acasillados)", "lat": 19.070619, "lng": -97.384531
},{
"label": "Ex-Hacienda San José Espiguero", "lat": 19.097683, "lng": -97.402278
},{
"label": "Rancho Limón", "lat": 19.133109, "lng": -97.42617
},{
"label": "Emancipación Quetzalapa", "lat": 19.174373, "lng": -97.392041
},{
"label": "San José la Capilla", "lat": 19.224449, "lng": -97.378703
},{
"label": "Real del Valle", "lat": 19.132964, "lng": -97.450197
},{
"label": "Puerto Nacional", "lat": 19.107532, "lng": -97.324034
},{
"label": "Paso Nacional", "lat": 19.143622, "lng": -97.357215
},{
"label": "Rancho Tres Sabinos", "lat": 19.140556, "lng": -97.4425
},{
"label": "El Salitrero", "lat": 19.135278, "lng": -97.304167
},{
"label": "El Tepeyac", "lat": 19.126695, "lng": -97.418767
},{
"label": "Guadalupe Libertad (Río Valiente)", "lat": 19.186392, "lng": -97.38824
},{
"label": "Rancho Seco", "lat": 19.133611, "lng": -97.465
}]