[{
"label": "Tlalmecate", "lat": 19.159353, "lng": -98.345354
},{
"label": "San José Tepeapulco", "lat": 19.147622, "lng": -98.336143
},{
"label": "Cunicula Florex [Granja]", "lat": 19.145344, "lng": -98.350958
},{
"label": "Tlaltenango", "lat": 19.170023, "lng": -98.344316
},{
"label": "Huitango", "lat": 19.169135, "lng": -98.326104
},{
"label": "Tecolotepec", "lat": 19.161064, "lng": -98.33194
},{
"label": "Cuapilco", "lat": 19.169003, "lng": -98.35483
},{
"label": "El Ranchito", "lat": 19.146904, "lng": -98.35697
},{
"label": "Estación de Ferrocarril Xoxtla", "lat": 19.169116, "lng": -98.324807
},{
"label": "San Carlos", "lat": 19.152446, "lng": -98.346155
}]