[{
"label": "La Palma", "lat": 19.738818, "lng": -97.326853
},{
"label": "San José", "lat": 19.804459, "lng": -97.33449
},{
"label": "La Ventana", "lat": 19.748468, "lng": -97.341696
},{
"label": "Linda Vista (Los Apolinares)", "lat": 19.767492, "lng": -97.344106
},{
"label": "Tomaquilapa", "lat": 19.755411, "lng": -97.32067
},{
"label": "Sección Segunda Xiutetelco", "lat": 19.803016, "lng": -97.321026
},{
"label": "San Andrés Coyotitlán", "lat": 19.764273, "lng": -97.370609
},{
"label": "San Juan Xiutetelco", "lat": 19.796061, "lng": -97.326518
},{
"label": "San Andrés", "lat": 19.791827, "lng": -97.335292
},{
"label": "San Martín", "lat": 19.782523, "lng": -97.340401
},{
"label": "Xaltipan (Sección Décima)", "lat": 19.763206, "lng": -97.337594
},{
"label": "Sección Primera Xiutetelco", "lat": 19.78988, "lng": -97.316531
},{
"label": "La Reforma", "lat": 19.743757, "lng": -97.330366
},{
"label": "Atecax", "lat": 19.698699, "lng": -97.369747
},{
"label": "San Salvador (Naranjillo)", "lat": 19.830087, "lng": -97.316065
},{
"label": "La Posta", "lat": 19.723121, "lng": -97.334202
},{
"label": "San Isidro", "lat": 19.753486, "lng": -97.351805
},{
"label": "El Progreso", "lat": 19.788927, "lng": -97.332873
},{
"label": "Barrio Chiquito", "lat": 19.759788, "lng": -97.324388
},{
"label": "San Antonio", "lat": 19.757969, "lng": -97.35658
},{
"label": "Xaltipan", "lat": 19.766601, "lng": -97.335202
},{
"label": "El Milagro", "lat": 19.873423, "lng": -97.313359
},{
"label": "El Zapote", "lat": 19.773055, "lng": -97.334146
},{
"label": "La Cantera", "lat": 19.75275, "lng": -97.33419
},{
"label": "Alto Lucero", "lat": 19.731143, "lng": -97.337813
},{
"label": "El Aguaje Atoluca", "lat": 19.740803, "lng": -97.346552
},{
"label": "Cañada de Cozcuyucan", "lat": 19.665758, "lng": -97.362721
},{
"label": "Las Chapas", "lat": 19.71578, "lng": -97.386624
},{
"label": "La Hacienda", "lat": 19.752765, "lng": -97.332598
},{
"label": "San Francisco", "lat": 19.776293, "lng": -97.328613
},{
"label": "Santiago", "lat": 19.806423, "lng": -97.326025
},{
"label": "Maxtaloya", "lat": 19.636657, "lng": -97.41759
},{
"label": "Ejido San José", "lat": 19.675634, "lng": -97.371029
},{
"label": "Loma Bonita", "lat": 19.780128, "lng": -97.356285
},{
"label": "Tilca (San José)", "lat": 19.73554, "lng": -97.39536
},{
"label": "Rancho Nuevo", "lat": 19.701641, "lng": -97.379864
},{
"label": "Vista Hermosa", "lat": 19.764989, "lng": -97.325152
},{
"label": "Luis Donaldo Colosio", "lat": 19.789647, "lng": -97.348379
},{
"label": "Chalma", "lat": 19.755988, "lng": -97.328263
},{
"label": "La Ciénega", "lat": 19.758146, "lng": -97.333074
}]