[{
"label": "Ocotlán de Venustiano Carranza", "lat": 18.791337, "lng": -97.669255
},{
"label": "Las Ánimas", "lat": 18.773623, "lng": -97.694818
},{
"label": "Rancho Chico", "lat": 18.745661, "lng": -97.664662
},{
"label": "San Francisco Cuautla", "lat": 18.805966, "lng": -97.700337
},{
"label": "San Mateo Tlacomulco", "lat": 18.735731, "lng": -97.657483
},{
"label": "Agua Azul [Colonia]", "lat": 18.721192, "lng": -97.709273
},{
"label": "San Pedro el Chico", "lat": 18.728654, "lng": -97.677678
},{
"label": "San Juan Ocotlán", "lat": 18.782404, "lng": -97.705241
},{
"label": "Yehualtepec", "lat": 18.793291, "lng": -97.66287
},{
"label": "Santa Rita", "lat": 18.770209, "lng": -97.694654
},{
"label": "San Miguel Zozutla", "lat": 18.757198, "lng": -97.655952
},{
"label": "Benito Juárez [Colonia]", "lat": 18.740662, "lng": -97.683668
},{
"label": "San Ángel", "lat": 18.818711, "lng": -97.691124
},{
"label": "San Pedro Ascona", "lat": 18.743066, "lng": -97.694195
},{
"label": "Cerro Colorado", "lat": 18.756645, "lng": -97.695508
},{
"label": "San Gabriel Tetzoyocan", "lat": 18.757114, "lng": -97.702796
},{
"label": "Llano Grande", "lat": 18.794535, "lng": -97.696113
},{
"label": "El Zorrillal (San Isidro)", "lat": 18.736623, "lng": -97.670933
},{
"label": "La Cañada", "lat": 18.70744, "lng": -97.677502
},{
"label": "Pierna Calzón", "lat": 18.768551, "lng": -97.702549
},{
"label": "La Concepción", "lat": 18.767601, "lng": -97.688374
},{
"label": "Yehualtepec (Jagüey Román)", "lat": 18.785094, "lng": -97.675935
},{
"label": "Ejido de Rancho Chico", "lat": 18.718741, "lng": -97.690327
},{
"label": "Rancho Simón", "lat": 18.731759, "lng": -97.663739
},{
"label": "San Simón", "lat": 18.775548, "lng": -97.68374
}]