[{
"label": "El Recuerdo", "lat": 20.284949, "lng": -97.838433
},{
"label": "Uxmaya", "lat": 20.275278, "lng": -97.783056
},{
"label": "Tecpatlán", "lat": 20.238903, "lng": -97.867446
},{
"label": "Finca las Margaritas", "lat": 20.294784, "lng": -97.825299
},{
"label": "La Tranca de Fierro", "lat": 20.269783, "lng": -97.876681
},{
"label": "El Dorado", "lat": 20.269871, "lng": -97.800076
},{
"label": "Cacahuatlán", "lat": 20.251129, "lng": -97.869965
},{
"label": "Beneficio Alta Sierra", "lat": 20.281097, "lng": -97.814824
},{
"label": "Finca las Chachitas", "lat": 20.292648, "lng": -97.83634
},{
"label": "Finca Loma Bonita", "lat": 20.275268, "lng": -97.815203
},{
"label": "Los Manguitos", "lat": 20.280774, "lng": -97.805136
},{
"label": "Finca el Carmen", "lat": 20.27192, "lng": -97.847631
},{
"label": "Finca Pía", "lat": 20.287222, "lng": -97.775278
},{
"label": "Arroyo Seco", "lat": 20.235704, "lng": -97.909273
},{
"label": "Finca Cre-Leg", "lat": 20.271244, "lng": -97.842158
},{
"label": "Finca el Rosario", "lat": 20.26334, "lng": -97.860057
},{
"label": "Finca Filadelfia", "lat": 20.285243, "lng": -97.796445
},{
"label": "Finca los Manantiales", "lat": 20.30256, "lng": -97.839714
},{
"label": "Finca los Tulipanes", "lat": 20.287534, "lng": -97.822495
},{
"label": "Rancho el Chalahuite", "lat": 20.337607, "lng": -97.777199
},{
"label": "Finca los Puentes", "lat": 20.27147, "lng": -97.79905
},{
"label": "Arroyo Mano", "lat": 20.338333, "lng": -97.735
},{
"label": "El Brujo", "lat": 20.272778, "lng": -97.873889
},{
"label": "María de Lourdes", "lat": 20.281588, "lng": -97.772978
},{
"label": "Rancho la Esperanza", "lat": 20.285399, "lng": -97.791375
},{
"label": "El Cafetín", "lat": 20.27326, "lng": -97.844731
},{
"label": "Tecuantla", "lat": 20.273056, "lng": -97.774444
},{
"label": "El Progreso Grande", "lat": 20.279613, "lng": -97.839385
},{
"label": "La Libertad", "lat": 20.291316, "lng": -97.763334
},{
"label": "Los Amigos (La Hormiga)", "lat": 20.268056, "lng": -97.863611
},{
"label": "Cerro Verde", "lat": 20.339154, "lng": -97.751063
},{
"label": "Finca el Rinconcito", "lat": 20.296784, "lng": -97.777782
},{
"label": "La Chiquita", "lat": 20.281738, "lng": -97.828167
},{
"label": "La Florida", "lat": 20.30577, "lng": -97.760829
},{
"label": "El Plantel", "lat": 20.286956, "lng": -97.825106
},{
"label": "Alejandro Rojas Martínez", "lat": 20.274293, "lng": -97.840762
},{
"label": "Finca la Puebla", "lat": 20.276433, "lng": -97.772889
},{
"label": "Finca Concepción", "lat": 20.299281, "lng": -97.837253
},{
"label": "Finca el Progreso Chico", "lat": 20.27632, "lng": -97.835454
},{
"label": "Finca el Limonar", "lat": 20.271389, "lng": -97.847778
},{
"label": "El Encinal", "lat": 20.318056, "lng": -97.8325
},{
"label": "Finca Santa Mónica", "lat": 20.283267, "lng": -97.800686
},{
"label": "Finca Nueva", "lat": 20.29443, "lng": -97.77415
},{
"label": "Mazacoatlán", "lat": 20.22339, "lng": -97.922756
},{
"label": "Rancho el Porvenir", "lat": 20.305581, "lng": -97.784868
},{
"label": "La Floresta", "lat": 20.303162, "lng": -97.83484
},{
"label": "San Nicolás", "lat": 20.275599, "lng": -97.812168
},{
"label": "Planta de Patla", "lat": 20.238738, "lng": -97.892686
},{
"label": "Finca Flor de Mayo", "lat": 20.277525, "lng": -97.841154
},{
"label": "Loma Alta", "lat": 20.293716, "lng": -97.763039
},{
"label": "San Rafael", "lat": 20.275429, "lng": -97.820511
},{
"label": "La Chiquilla", "lat": 20.267778, "lng": -97.783056
},{
"label": "Azcatlán", "lat": 20.311781, "lng": -97.69989
},{
"label": "Finca Santa Alicia", "lat": 20.287339, "lng": -97.817471
},{
"label": "Coyular", "lat": 20.296991, "lng": -97.859232
},{
"label": "La Mesa del Crucero (La Mesita)", "lat": 20.283853, "lng": -97.738914
},{
"label": "El Rincón", "lat": 20.262796, "lng": -97.864426
},{
"label": "La Laguna", "lat": 20.368886, "lng": -97.759157
},{
"label": "La Planada", "lat": 20.313955, "lng": -97.821332
},{
"label": "Nanacatepec", "lat": 20.31374, "lng": -97.750591
},{
"label": "Noche Buena", "lat": 20.294444, "lng": -97.8575
},{
"label": "El Manantial", "lat": 20.275556, "lng": -97.811111
},{
"label": "Rancho el Mirador", "lat": 20.299049, "lng": -97.789554
},{
"label": "San Andrés", "lat": 20.279995, "lng": -97.808416
},{
"label": "San Patricio", "lat": 20.332543, "lng": -97.832204
},{
"label": "Finca el Abuelo", "lat": 20.297778, "lng": -97.844444
},{
"label": "Las Margaritas", "lat": 20.268333, "lng": -97.859167
},{
"label": "Santo Tomás", "lat": 20.273443, "lng": -97.822665
},{
"label": "Finca la Selva", "lat": 20.339444, "lng": -97.832778
},{
"label": "Carmen (Finca el Matadero)", "lat": 20.335301, "lng": -97.802184
},{
"label": "Cuatechalotla", "lat": 20.243436, "lng": -97.86252
},{
"label": "Sanabu", "lat": 20.278271, "lng": -97.831209
},{
"label": "El Cerro", "lat": 20.26676, "lng": -97.844278
},{
"label": "Yalu", "lat": 20.35731, "lng": -97.779222
},{
"label": "Ocomantla", "lat": 20.244339, "lng": -97.8951
},{
"label": "Finca los Pinos", "lat": 20.303699, "lng": -97.827707
},{
"label": "Ernesto Hernández (Tlacoyuco)", "lat": 20.330582, "lng": -97.75987
},{
"label": "El Remolino", "lat": 20.239444, "lng": -97.883611
},{
"label": "Loma Larga", "lat": 20.273333, "lng": -97.775833
},{
"label": "La Guadalupe", "lat": 20.280507, "lng": -97.771053
},{
"label": "Ejido Tenanguito", "lat": 20.361599, "lng": -97.77429
},{
"label": "La Herradura", "lat": 20.298333, "lng": -97.836944
},{
"label": "Finca Grano de Oro", "lat": 20.285196, "lng": -97.819525
},{
"label": "Finca la Trinidad", "lat": 20.294039, "lng": -97.785114
},{
"label": "La Quinta Estrella", "lat": 20.30594, "lng": -97.78076
},{
"label": "Loma Alta (Los Arroyos)", "lat": 20.290377, "lng": -97.859899
},{
"label": "Santa María", "lat": 20.271667, "lng": -97.788611
},{
"label": "Santa Luz", "lat": 20.332128, "lng": -97.821469
},{
"label": "Cuaunepixca (La Cumbre)", "lat": 20.309135, "lng": -97.842699
},{
"label": "Los Pinos", "lat": 20.225815, "lng": -97.931794
},{
"label": "Ojo de Agua", "lat": 20.273826, "lng": -97.872658
},{
"label": "Santa Elena", "lat": 20.275724, "lng": -97.780398
},{
"label": "Finca la Providencia", "lat": 20.273129, "lng": -97.841122
},{
"label": "Finca María Dolores", "lat": 20.287945, "lng": -97.827852
},{
"label": "Rancho Linda Vista", "lat": 20.308003, "lng": -97.782164
},{
"label": "Lagunillas", "lat": 20.224053, "lng": -97.944399
},{
"label": "Telolotla", "lat": 20.212585, "lng": -97.911822
},{
"label": "Cerro Azul", "lat": 20.323566, "lng": -97.762055
},{
"label": "Finca Cuaunepixca", "lat": 20.32672, "lng": -97.828559
},{
"label": "El Sacrificio", "lat": 20.314901, "lng": -97.837904
},{
"label": "Tenanguito", "lat": 20.326038, "lng": -97.783814
},{
"label": "Finca el Viejote", "lat": 20.286015, "lng": -97.82774
},{
"label": "El Milagro", "lat": 20.306168, "lng": -97.770952
},{
"label": "Rancho las Filipinas", "lat": 20.329937, "lng": -97.747551
},{
"label": "La Unión", "lat": 20.26529, "lng": -97.880446
},{
"label": "La Cañada", "lat": 20.270374, "lng": -97.854248
},{
"label": "El Rosario (Anayal)", "lat": 20.317778, "lng": -97.793889
},{
"label": "La Virgen", "lat": 20.266667, "lng": -97.849444
},{
"label": "Loma Bonita", "lat": 20.280382, "lng": -97.830864
},{
"label": "Zihuateutla", "lat": 20.249621, "lng": -97.886397
},{
"label": "La Orquídea", "lat": 20.281251, "lng": -97.763783
},{
"label": "Finca Susy", "lat": 20.282098, "lng": -97.829732
}]