[{
"label": "Zongozotla", "lat": 19.978638, "lng": -97.726742
},{
"label": "Tapula", "lat": 19.975477, "lng": -97.735053
},{
"label": "Zotik", "lat": 19.983996, "lng": -97.730665
},{
"label": "Santa Cruz", "lat": 20.000717, "lng": -97.783978
},{
"label": "Ejido Atlipopoca", "lat": 19.977505, "lng": -97.78326
}]