[{
"label": "Ampliación la Diana", "lat": 24.010288, "lng": -99.160515
},{
"label": "Luz del Campesino (Corona)", "lat": 23.96495, "lng": -99.108194
},{
"label": "Erasto Hernández", "lat": 23.710556, "lng": -98.898056
},{
"label": "El Petaqueño", "lat": 23.712081, "lng": -98.942618
},{
"label": "La San Juana (Ramón Rodríguez)", "lat": 23.911982, "lng": -99.118771
},{
"label": "La Ganadería", "lat": 23.81296, "lng": -98.906107
},{
"label": "Tultepec", "lat": 23.797568, "lng": -99.047134
},{
"label": "Unidos Venceremos", "lat": 23.908911, "lng": -99.423432
},{
"label": "Felipe Rodríguez Domínguez", "lat": 24.065058, "lng": -99.096429
},{
"label": "El Arco", "lat": 24.015409, "lng": -99.242249
},{
"label": "Las Urracas", "lat": 24.012762, "lng": -99.113999
},{
"label": "El Chorro Tres", "lat": 23.702233, "lng": -98.843166
},{
"label": "Anastasio Salazar", "lat": 23.737449, "lng": -98.929969
},{
"label": "El Errante", "lat": 23.859441, "lng": -99.080076
},{
"label": "Mis Amores", "lat": 23.800308, "lng": -99.011231
},{
"label": "Viento Libre (Guadalupe Rodríguez)", "lat": 23.804651, "lng": -98.990348
},{
"label": "José Guadalupe Puente Covarrubias", "lat": 23.92215, "lng": -99.138176
},{
"label": "El Carrizo", "lat": 23.950993, "lng": -99.024008
},{
"label": "La Posta", "lat": 23.939167, "lng": -99.108056
},{
"label": "Luisa Gabriela", "lat": 23.924842, "lng": -99.037446
},{
"label": "El Once", "lat": 24.075111, "lng": -99.106506
},{
"label": "Güémez", "lat": 23.919141, "lng": -99.00833
},{
"label": "El Veintiséis", "lat": 24.031532, "lng": -99.099329
},{
"label": "Los San Pedros [Ejido]", "lat": 23.864381, "lng": -99.38097
},{
"label": "Santa Martha", "lat": 23.926695, "lng": -99.109257
},{
"label": "El Talismán", "lat": 23.725191, "lng": -98.92278
},{
"label": "El Soldado", "lat": 23.718392, "lng": -98.876486
},{
"label": "Flor de Teresita", "lat": 23.858296, "lng": -98.982064
},{
"label": "El Fuereño", "lat": 23.794968, "lng": -98.992686
},{
"label": "Dos Hermanos", "lat": 23.935155, "lng": -99.055773
},{
"label": "Las Palmas (Los Generales)", "lat": 23.715761, "lng": -98.922498
},{
"label": "José Zúñiga", "lat": 23.886822, "lng": -99.114587
},{
"label": "San Luisito (Alfredo Salinas)", "lat": 23.907634, "lng": -99.120918
},{
"label": "Los Ébanos (Las Abejas)", "lat": 23.999215, "lng": -99.153313
},{
"label": "La Carreta", "lat": 23.903055, "lng": -99.017944
},{
"label": "El Alamito", "lat": 24.0022, "lng": -99.294941
},{
"label": "El Melón", "lat": 23.774795, "lng": -98.893191
},{
"label": "El Treinta (Carlos Flores)", "lat": 23.919492, "lng": -99.138633
},{
"label": "Guadalupe Sánchez (Las Palmas)", "lat": 23.991949, "lng": -99.210556
},{
"label": "Santa Fe", "lat": 23.934638, "lng": -98.950457
},{
"label": "El Zurdo", "lat": 23.930444, "lng": -98.987944
},{
"label": "Ernesto Serna (Héctor Villarreal)", "lat": 23.923906, "lng": -98.994565
},{
"label": "Ninguno", "lat": 23.705858, "lng": -98.902073
},{
"label": "María del Carmen", "lat": 23.954285, "lng": -98.999568
},{
"label": "Hermanos Terán", "lat": 23.913508, "lng": -99.057594
},{
"label": "Modesto Hernández Escamilla", "lat": 24.016944, "lng": -99.275933
},{
"label": "El Palmar", "lat": 23.842526, "lng": -98.989937
},{
"label": "El Águila", "lat": 23.9057, "lng": -99.109479
},{
"label": "El Doce", "lat": 24.07182, "lng": -99.115641
},{
"label": "Las Tunas", "lat": 23.860547, "lng": -99.049264
},{
"label": "El Camaleón", "lat": 23.731511, "lng": -98.976981
},{
"label": "Los Manueles", "lat": 23.947944, "lng": -99.119722
},{
"label": "La Florida", "lat": 24.06617, "lng": -99.094431
},{
"label": "Guadalupe", "lat": 24.011063, "lng": -99.233174
},{
"label": "La Palma", "lat": 23.836383, "lng": -98.970858
},{
"label": "Bellavista (Rita Cárdenas)", "lat": 23.997884, "lng": -99.244893
},{
"label": "Las Esperanzas", "lat": 24.063789, "lng": -99.121004
},{
"label": "Los San Pedros", "lat": 23.957539, "lng": -99.027567
},{
"label": "Juan Nieto", "lat": 24.056143, "lng": -99.133647
},{
"label": "Cuatro Caminos", "lat": 23.792575, "lng": -99.02135
},{
"label": "Servando Canales", "lat": 24.009447, "lng": -99.189844
},{
"label": "San José de las Flores", "lat": 23.903437, "lng": -99.116966
},{
"label": "Adriana", "lat": 23.791937, "lng": -99.025284
},{
"label": "La Palestina", "lat": 24.027545, "lng": -99.100215
},{
"label": "El Veracruzano (El Treinta)", "lat": 23.719022, "lng": -98.840011
},{
"label": "Nuevo Guadalupe (Enrique Arce)", "lat": 23.899943, "lng": -99.031441
},{
"label": "Halcón", "lat": 23.945556, "lng": -99.085556
},{
"label": "El Colorado", "lat": 23.845623, "lng": -99.052104
},{
"label": "Santa Rita Dos", "lat": 23.90447, "lng": -99.04418
},{
"label": "Quinta Agapita (El Forastero)", "lat": 24.010556, "lng": -99.109594
},{
"label": "Tamatán [Club de Tiro Caza y Pesca]", "lat": 23.701536, "lng": -98.898211
},{
"label": "Graciano Sánchez", "lat": 23.926141, "lng": -99.296471
},{
"label": "El Olmo", "lat": 24.004037, "lng": -99.326299
},{
"label": "El Encino", "lat": 23.944989, "lng": -99.012422
},{
"label": "Santa Eustolia", "lat": 23.823768, "lng": -98.989679
},{
"label": "El Control", "lat": 23.905126, "lng": -99.016527
},{
"label": "San Carlos", "lat": 23.901158, "lng": -99.110358
},{
"label": "Lazarillos", "lat": 23.931481, "lng": -98.986548
},{
"label": "Santa Laura", "lat": 23.93093, "lng": -99.002426
},{
"label": "San Enrique", "lat": 23.917209, "lng": -99.141116
},{
"label": "La Diana", "lat": 23.999294, "lng": -99.140074
},{
"label": "Hermelinda Báez", "lat": 24.064817, "lng": -99.140323
},{
"label": "Borinquen", "lat": 23.856464, "lng": -99.093428
},{
"label": "El Cime", "lat": 23.934405, "lng": -99.049239
},{
"label": "La Reata", "lat": 23.921579, "lng": -98.996618
},{
"label": "Santana Rodríguez", "lat": 23.949576, "lng": -99.316781
},{
"label": "Ampliación el Refugio (El Chamizal)", "lat": 23.868525, "lng": -99.110667
},{
"label": "La Gloria [Huerta]", "lat": 24.064945, "lng": -99.097987
},{
"label": "La Mesa", "lat": 23.794287, "lng": -98.885952
},{
"label": "La Pomarosa (Doctor Montalvo)", "lat": 23.894866, "lng": -99.044529
},{
"label": "El Guarniz", "lat": 23.97013, "lng": -99.066493
},{
"label": "La Encarnación", "lat": 23.990154, "lng": -99.162776
},{
"label": "Ramona Hernández", "lat": 23.708734, "lng": -98.899036
},{
"label": "El Corral de Ana Victoria", "lat": 23.717445, "lng": -98.933467
},{
"label": "González (Amadeo González)", "lat": 23.742275, "lng": -98.924636
},{
"label": "Santa Rita Uno", "lat": 23.901747, "lng": -99.042905
},{
"label": "Santa Cecilia", "lat": 23.975964, "lng": -99.079081
},{
"label": "Villa Fuerte (Las Negras)", "lat": 23.916266, "lng": -98.98681
},{
"label": "El Veintiuno", "lat": 23.886853, "lng": -99.028261
},{
"label": "Apolinar Castro", "lat": 23.935718, "lng": -99.285709
},{
"label": "Santa Isabel (El Veinticuatro)", "lat": 24.039847, "lng": -99.097619
},{
"label": "El Solito", "lat": 24.061648, "lng": -99.106941
},{
"label": "Santa Virginia", "lat": 24.06515, "lng": -99.114021
},{
"label": "Crucero San Patricio", "lat": 24.069433, "lng": -99.122213
},{
"label": "La Parrita", "lat": 23.98959, "lng": -99.154546
},{
"label": "El Porvenir (Manuel Braña)", "lat": 23.71635, "lng": -98.935537
},{
"label": "Los Naranjos", "lat": 23.841989, "lng": -99.077117
},{
"label": "La Norteñita [Quinta]", "lat": 23.882292, "lng": -99.114556
},{
"label": "Las Tres Pitas", "lat": 23.730654, "lng": -98.964554
},{
"label": "Agua Fría", "lat": 23.938913, "lng": -99.315362
},{
"label": "El Gavilán", "lat": 23.921453, "lng": -99.442269
},{
"label": "El Chilaquil", "lat": 23.800784, "lng": -98.973011
},{
"label": "Javier Adame (Panamá)", "lat": 23.909859, "lng": -99.113596
},{
"label": "La Papana", "lat": 24.089457, "lng": -99.151336
},{
"label": "La Presita", "lat": 23.990978, "lng": -99.173819
},{
"label": "Carlos Flores", "lat": 23.8746, "lng": -99.105838
},{
"label": "Los Encinos", "lat": 23.880767, "lng": -99.096205
},{
"label": "Viento Libre", "lat": 23.793421, "lng": -98.985358
},{
"label": "Maurilio Gámez", "lat": 23.687549, "lng": -98.880392
},{
"label": "San Cayetano", "lat": 23.907526, "lng": -99.097849
},{
"label": "El Gallo", "lat": 23.929682, "lng": -98.944157
},{
"label": "Ana Luisa de Jesús Matamoros Morales", "lat": 23.970442, "lng": -99.097359
},{
"label": "Jacinto García", "lat": 24.059694, "lng": -99.11076
},{
"label": "El Baluarte", "lat": 23.845362, "lng": -99.089187
},{
"label": "El Texano", "lat": 23.968623, "lng": -99.055609
},{
"label": "Antonio Esparza", "lat": 24.055019, "lng": -99.128397
},{
"label": "El Zapote", "lat": 23.840225, "lng": -99.074769
},{
"label": "Los Gallitos", "lat": 23.902844, "lng": -99.120157
},{
"label": "Los Nogales (El Polviento)", "lat": 23.967399, "lng": -99.05292
},{
"label": "El Corral", "lat": 23.722991, "lng": -98.930828
},{
"label": "Clemente Castro González", "lat": 23.947096, "lng": -99.274749
},{
"label": "Santa Victorina de las Palmas", "lat": 23.813618, "lng": -99.013139
},{
"label": "María Isabel", "lat": 23.954026, "lng": -99.27464
},{
"label": "Santa María", "lat": 24.052029, "lng": -99.092214
},{
"label": "Jorge Guerrero", "lat": 24.043622, "lng": -99.151463
},{
"label": "El Potrillo", "lat": 23.898608, "lng": -99.023407
},{
"label": "Las Lomas", "lat": 23.913611, "lng": -99.046022
},{
"label": "Los Pinos", "lat": 23.89459, "lng": -99.111099
},{
"label": "Ignacio Meza", "lat": 23.800489, "lng": -99.044855
},{
"label": "Paulo Castillo", "lat": 24.058922, "lng": -99.120555
},{
"label": "El Polvorín (El Venadito) [Huerta]", "lat": 23.934192, "lng": -99.109854
},{
"label": "Vista Hermosa", "lat": 23.981062, "lng": -99.186341
},{
"label": "Las Comas", "lat": 23.890556, "lng": -99.122222
},{
"label": "Los Macabeos (Cuatro Vientos)", "lat": 23.914541, "lng": -99.033941
},{
"label": "Don Felipe", "lat": 23.969953, "lng": -99.088816
},{
"label": "Santa Teresa (El Federal)", "lat": 23.949459, "lng": -99.107031
},{
"label": "San Matías", "lat": 23.803202, "lng": -98.965233
},{
"label": "Rancho Nuevo (Revilla)", "lat": 23.937961, "lng": -99.478396
},{
"label": "Loma Blanca", "lat": 23.711511, "lng": -98.826061
},{
"label": "Rancho Viejo", "lat": 23.916252, "lng": -99.137985
},{
"label": "El Catorce", "lat": 23.827289, "lng": -99.05535
},{
"label": "Tres Hermanos (Las Conchas)", "lat": 23.804675, "lng": -99.037084
},{
"label": "Linda", "lat": 23.972632, "lng": -99.077436
},{
"label": "San Martín", "lat": 23.926272, "lng": -99.100895
},{
"label": "Las Peñas", "lat": 23.893118, "lng": -99.12677
},{
"label": "Los Compadres", "lat": 24.024416, "lng": -99.112951
},{
"label": "La Leona", "lat": 23.710351, "lng": -98.895591
},{
"label": "El Novillo", "lat": 23.717108, "lng": -98.909985
},{
"label": "Purificación", "lat": 24.075405, "lng": -99.123368
},{
"label": "San Antonio Uno", "lat": 23.976022, "lng": -99.107558
},{
"label": "Santa Isabel (Sergio Castillo)", "lat": 24.018823, "lng": -99.170864
},{
"label": "Los Albertos", "lat": 23.948789, "lng": -99.004029
},{
"label": "El Carmen (Antonio Hernández) [Ganadería]", "lat": 24.062119, "lng": -99.182822
},{
"label": "Desfibradora el Petaqueño", "lat": 23.716139, "lng": -98.919397
},{
"label": "Edgar Melhen Treviño", "lat": 23.95115, "lng": -99.108694
},{
"label": "El Progreso", "lat": 23.969006, "lng": -99.082378
},{
"label": "El Mango", "lat": 23.911592, "lng": -99.059232
},{
"label": "La Escondida (Luis Ramírez Jácome)", "lat": 23.900605, "lng": -98.962807
},{
"label": "Cuadra Popeye", "lat": 23.718479, "lng": -98.944851
},{
"label": "Tres Sabinos", "lat": 24.007517, "lng": -99.170853
},{
"label": "San Cayetano (Las Pastas)", "lat": 23.884113, "lng": -99.063465
},{
"label": "El Jaguar", "lat": 23.955828, "lng": -99.322699
},{
"label": "Los Fresnos", "lat": 23.791054, "lng": -99.023917
},{
"label": "El Suspiro", "lat": 23.747261, "lng": -98.916714
},{
"label": "Santa Gertrudis", "lat": 23.903033, "lng": -99.096485
},{
"label": "El Coyote", "lat": 23.903345, "lng": -98.996478
},{
"label": "Claudio Morales", "lat": 24.002635, "lng": -99.164018
},{
"label": "San Francisco", "lat": 23.912751, "lng": -99.058526
},{
"label": "El Verde", "lat": 23.826601, "lng": -98.978654
},{
"label": "San Manuel", "lat": 24.011707, "lng": -99.175124
},{
"label": "La Palabra", "lat": 23.727255, "lng": -98.953936
},{
"label": "El Carmen", "lat": 24.071279, "lng": -99.133839
},{
"label": "Ricardo Flores Magón", "lat": 23.791956, "lng": -99.008737
},{
"label": "Los Ébanos", "lat": 23.973558, "lng": -99.084255
},{
"label": "La Coma", "lat": 23.789623, "lng": -98.999046
},{
"label": "Acatlán (Plutarco Elías Calles)", "lat": 23.969921, "lng": -99.130335
},{
"label": "Profesor Manuel Silva", "lat": 23.796586, "lng": -98.970664
},{
"label": "El Principio", "lat": 23.970542, "lng": -99.112347
},{
"label": "Plan de Ayala", "lat": 24.054489, "lng": -99.120185
},{
"label": "El Paraíso", "lat": 23.87793, "lng": -99.115507
},{
"label": "San Benito", "lat": 23.809078, "lng": -98.958546
},{
"label": "Jaime Guardiola", "lat": 23.939415, "lng": -98.937112
},{
"label": "El Cerrito Nuevo", "lat": 24.066444, "lng": -99.088666
},{
"label": "La Gloria", "lat": 24.008957, "lng": -99.155406
},{
"label": "El Quince", "lat": 23.84265, "lng": -99.060458
},{
"label": "La Gloria (Santa Gertrudis)", "lat": 24.012889, "lng": -99.180563
},{
"label": "Tampiquito", "lat": 23.884383, "lng": -99.030692
},{
"label": "San Isidro", "lat": 23.957312, "lng": -99.053702
},{
"label": "Los Brujos", "lat": 23.970823, "lng": -99.248477
},{
"label": "María Flores", "lat": 23.77873, "lng": -98.996437
},{
"label": "El Sauzal", "lat": 23.813341, "lng": -98.955907
},{
"label": "El Eléctrico (Agua Fría)", "lat": 23.836181, "lng": -98.969466
},{
"label": "Hacienda San José (San José de Montemayor)", "lat": 23.970052, "lng": -99.242101
},{
"label": "Los Tres García", "lat": 23.888745, "lng": -99.027882
},{
"label": "Escuela Normal Rural de Tamaulipas", "lat": 23.882111, "lng": -99.112944
},{
"label": "El Aniego", "lat": 23.841298, "lng": -98.849459
},{
"label": "San Juanito", "lat": 23.908389, "lng": -99.088986
},{
"label": "Las Peñitas", "lat": 23.859933, "lng": -99.069614
},{
"label": "El Chile", "lat": 23.991829, "lng": -99.154329
},{
"label": "Los Kikos", "lat": 23.970555, "lng": -99.106666
},{
"label": "El Consuelo", "lat": 23.804584, "lng": -98.997791
},{
"label": "La Malinche (Francisco Mendiola)", "lat": 23.927967, "lng": -99.050999
},{
"label": "Lomas Blancas", "lat": 23.901686, "lng": -98.953593
},{
"label": "El Rusio (Martínez)", "lat": 23.981421, "lng": -99.201272
},{
"label": "Santa Estefana", "lat": 23.942998, "lng": -99.108954
},{
"label": "El Futuro", "lat": 23.799254, "lng": -99.027521
},{
"label": "El Compadre", "lat": 23.714838, "lng": -98.922988
},{
"label": "Balconcitos", "lat": 24.010947, "lng": -99.199089
},{
"label": "La Esperanza (El Ranchito)", "lat": 23.946901, "lng": -99.166643
},{
"label": "La Escondida", "lat": 23.830049, "lng": -99.396787
},{
"label": "El Robalo", "lat": 23.770192, "lng": -99.010975
},{
"label": "La Diana (Eleno Reséndez)", "lat": 24.007988, "lng": -99.152854
},{
"label": "Los Dos Potrillos", "lat": 23.721055, "lng": -98.945381
},{
"label": "Casa de Esperanza", "lat": 23.835847, "lng": -99.065829
},{
"label": "Tres Flechas", "lat": 23.927549, "lng": -98.944821
},{
"label": "Santa Rosa", "lat": 23.961342, "lng": -99.263678
},{
"label": "San Ramón", "lat": 23.825026, "lng": -98.857676
},{
"label": "Miraflores (Luis Santiago Zapata Fuentes)", "lat": 23.968214, "lng": -99.080464
},{
"label": "Esfuerzo del Campesino", "lat": 23.931852, "lng": -99.140124
},{
"label": "Santa Josefa", "lat": 23.963297, "lng": -99.049209
},{
"label": "Mi Ranchito", "lat": 23.837056, "lng": -99.06425
},{
"label": "Criadero Azteca", "lat": 23.842679, "lng": -98.964623
},{
"label": "Rubén García", "lat": 23.834764, "lng": -99.066267
},{
"label": "Elba Rodríguez", "lat": 24.047142, "lng": -99.097541
},{
"label": "Santa Isabel (Andrés Autriques)", "lat": 24.021645, "lng": -99.16155
},{
"label": "Layo", "lat": 23.843747, "lng": -99.074214
},{
"label": "Gilberto de León", "lat": 23.818388, "lng": -98.989625
},{
"label": "Finca y de Palma", "lat": 23.792107, "lng": -98.993795
},{
"label": "Guadalupe Victoria", "lat": 24.074722, "lng": -99.143333
},{
"label": "14 de Noviembre", "lat": 23.88048, "lng": -98.973004
},{
"label": "San Elías", "lat": 23.962023, "lng": -99.006199
},{
"label": "Seis de Octubre", "lat": 23.719389, "lng": -98.93896
},{
"label": "El Veinticinco", "lat": 24.039364, "lng": -99.097811
},{
"label": "Las Bugambilias [Fraccionamiento Campestre]", "lat": 23.825333, "lng": -99.064003
},{
"label": "Baltazar Reyna", "lat": 24.069125, "lng": -99.127229
},{
"label": "Buenos Aires", "lat": 24.063031, "lng": -99.096441
},{
"label": "Palo Blanco", "lat": 23.942978, "lng": -99.106994
},{
"label": "Santa Juana", "lat": 23.977222, "lng": -99.109722
},{
"label": "San Lucas", "lat": 23.904989, "lng": -99.106846
},{
"label": "El Chorro Dos", "lat": 23.710212, "lng": -98.877124
},{
"label": "Magueyes", "lat": 24.07252, "lng": -99.116996
},{
"label": "Palma Real (Juan Carranza Cruz)", "lat": 23.942745, "lng": -99.279258
},{
"label": "El Edén", "lat": 23.954443, "lng": -99.11143
},{
"label": "Puertas Coloradas (Bertha Arce)", "lat": 23.895716, "lng": -99.04696
},{
"label": "El Roble", "lat": 24.004274, "lng": -99.299263
},{
"label": "Los Tocayos", "lat": 23.791396, "lng": -99.020624
},{
"label": "Buena Vista (San Martín Uno)", "lat": 23.993917, "lng": -99.109295
},{
"label": "San Rafael", "lat": 23.854574, "lng": -99.072878
},{
"label": "La Maroma", "lat": 23.889519, "lng": -98.994663
},{
"label": "San Fernandito", "lat": 23.981834, "lng": -99.224546
},{
"label": "Las Crucitas", "lat": 24.009366, "lng": -99.166422
},{
"label": "Jaime Reyes Ríos", "lat": 23.784608, "lng": -99.019106
},{
"label": "Ampliación el Arco", "lat": 24.006865, "lng": -99.248606
},{
"label": "La Yerbabuena", "lat": 23.911059, "lng": -99.424232
},{
"label": "El Racane", "lat": 23.886435, "lng": -99.113606
},{
"label": "Raúl Riestra González", "lat": 23.739168, "lng": -98.928946
},{
"label": "La Gardenia", "lat": 23.90045, "lng": -99.119391
},{
"label": "El Porvenir", "lat": 23.989134, "lng": -99.1694
},{
"label": "Corrales Don José", "lat": 24.015435, "lng": -99.110374
},{
"label": "Tampiqueño", "lat": 23.88806, "lng": -99.115962
},{
"label": "Juan José Aranda", "lat": 23.836624, "lng": -99.06531
},{
"label": "Loma Prieta", "lat": 23.769766, "lng": -98.749359
},{
"label": "San José", "lat": 24.045771, "lng": -99.10281
},{
"label": "San Alfredo", "lat": 23.878056, "lng": -99.033889
},{
"label": "Noche Buena", "lat": 23.893273, "lng": -99.024574
},{
"label": "Villa Vieja (Jesús González)", "lat": 23.924943, "lng": -98.999461
},{
"label": "San Felipe", "lat": 23.856719, "lng": -99.089975
},{
"label": "San Andrés", "lat": 23.807053, "lng": -99.034
},{
"label": "Aldapes Dos", "lat": 23.992114, "lng": -99.077452
},{
"label": "Servando Canales (Víctor Ramírez)", "lat": 23.987702, "lng": -99.186151
},{
"label": "Dos de Abril (El Granjeno)", "lat": 23.714453, "lng": -98.831033
},{
"label": "El Mirador", "lat": 24.000833, "lng": -99.124167
},{
"label": "El Jiníguaro", "lat": 23.972111, "lng": -99.079722
},{
"label": "Constitución del Diecisiete", "lat": 23.718301, "lng": -98.961136
},{
"label": "Las Palomas (El Baluarte)", "lat": 23.835579, "lng": -99.079604
},{
"label": "Los Moreno (Mis Tres Amores)", "lat": 23.872609, "lng": -99.040024
},{
"label": "Corona", "lat": 23.928975, "lng": -98.938337
},{
"label": "Miraflores", "lat": 23.965341, "lng": -99.066983
},{
"label": "Ceylán", "lat": 23.981132, "lng": -99.139696
},{
"label": "El Recodo", "lat": 23.911935, "lng": -99.071917
},{
"label": "El Mezquite (Humberto Rodríguez)", "lat": 23.995811, "lng": -99.199782
},{
"label": "Río Verdito", "lat": 23.738851, "lng": -98.983379
},{
"label": "Las Palmas [Huerta]", "lat": 23.790815, "lng": -99.02752
},{
"label": "La Rosita", "lat": 24.077731, "lng": -99.122764
},{
"label": "El Ciprés", "lat": 24.057328, "lng": -99.115711
},{
"label": "Rancho de Canolas", "lat": 23.907559, "lng": -99.121659
},{
"label": "La Herradura", "lat": 23.916659, "lng": -98.925938
},{
"label": "El Rompope", "lat": 23.933611, "lng": -98.989166
},{
"label": "La Bodega", "lat": 24.009537, "lng": -99.156785
},{
"label": "La Providencia", "lat": 23.935184, "lng": -99.080555
},{
"label": "El Chupadero", "lat": 23.880875, "lng": -98.958559
},{
"label": "Cuatro Ases", "lat": 23.911447, "lng": -99.025176
},{
"label": "José Rodríguez", "lat": 24.050363, "lng": -99.097628
},{
"label": "San Juan [Granero]", "lat": 23.716695, "lng": -98.951016
},{
"label": "Las Trillas", "lat": 23.922623, "lng": -99.111806
},{
"label": "Campo la Unión", "lat": 24.006284, "lng": -99.153047
},{
"label": "El Tigre", "lat": 24.003993, "lng": -99.342692
},{
"label": "Rancho Nuevo (Las Chinas)", "lat": 23.864341, "lng": -99.452245
},{
"label": "Los Macabeos", "lat": 23.918979, "lng": -99.040665
},{
"label": "La San Juana", "lat": 23.929213, "lng": -99.140155
},{
"label": "La Magnolia", "lat": 23.972433, "lng": -99.100953
},{
"label": "El Refugio de los Ángeles", "lat": 23.958304, "lng": -99.013938
},{
"label": "Jesús Crescencio Montalvo", "lat": 23.930813, "lng": -98.953156
},{
"label": "San Joaquín (La Esperanza)", "lat": 24.034964, "lng": -99.166695
},{
"label": "Ojo de Agua", "lat": 23.919659, "lng": -99.045344
},{
"label": "Ampliación Viento Libre", "lat": 23.791349, "lng": -98.982804
},{
"label": "El Ebanito", "lat": 23.921604, "lng": -99.111557
},{
"label": "José Esparza", "lat": 24.055721, "lng": -99.140485
},{
"label": "Subida Alta", "lat": 23.912537, "lng": -99.112865
},{
"label": "Revolución Verde", "lat": 23.80412, "lng": -98.933088
},{
"label": "CFICET General Francisco Villa (CONAFRUT)", "lat": 23.897944, "lng": -99.133611
},{
"label": "Los Trejo", "lat": 23.80874, "lng": -98.972578
},{
"label": "El Regalo", "lat": 24.051558, "lng": -99.107344
},{
"label": "Las Bugambilias", "lat": 24.046639, "lng": -99.097539
},{
"label": "La Quila", "lat": 23.898397, "lng": -98.948527
},{
"label": "El Palmito", "lat": 23.965924, "lng": -99.127053
},{
"label": "Las Hadas (Jaime Rodríguez)", "lat": 23.911569, "lng": -99.062081
},{
"label": "La Palapa", "lat": 23.841867, "lng": -99.073567
},{
"label": "Santa Isabel", "lat": 23.814157, "lng": -98.978543
},{
"label": "El Cantador", "lat": 23.732385, "lng": -98.940372
},{
"label": "Talismanes", "lat": 23.716515, "lng": -98.81913
},{
"label": "Arturo del Carmen", "lat": 23.790311, "lng": -99.039908
},{
"label": "El Milagro", "lat": 23.924624, "lng": -99.046709
},{
"label": "La Guayalca", "lat": 23.782358, "lng": -99.032583
},{
"label": "La Esperanza", "lat": 23.965651, "lng": -99.328651
},{
"label": "Arnoldo González", "lat": 23.945632, "lng": -99.051067
},{
"label": "Marcos Quevedo", "lat": 24.014442, "lng": -99.278825
},{
"label": "El Potosí (Puertas Coloradas)", "lat": 23.889529, "lng": -99.045636
},{
"label": "El Diez", "lat": 24.057163, "lng": -99.116634
},{
"label": "La Forqueta (Laura Montoto)", "lat": 23.910381, "lng": -99.117176
},{
"label": "La Luz", "lat": 23.973246, "lng": -99.080124
},{
"label": "La Guadalupana", "lat": 23.793602, "lng": -99.043467
},{
"label": "El Aguacate", "lat": 24.046736, "lng": -99.108585
},{
"label": "La Cañada", "lat": 24.00976, "lng": -99.11617
},{
"label": "El Semental", "lat": 23.717578, "lng": -98.922917
},{
"label": "Gerónimo Martínez", "lat": 23.937297, "lng": -99.300989
},{
"label": "El Milagro (El Forastero)", "lat": 24.029615, "lng": -99.103434
},{
"label": "El Carmen (Nemorio Cavazos) [Ganadería]", "lat": 24.052839, "lng": -99.192327
},{
"label": "Palos Altos", "lat": 23.940916, "lng": -98.935298
},{
"label": "Ernesto Camero Ochoa", "lat": 23.933922, "lng": -99.299314
},{
"label": "El Muro", "lat": 23.711559, "lng": -98.890271
},{
"label": "El Carmen (Eduardo Mancilla) [Ganadería]", "lat": 24.031733, "lng": -99.18008
}]