[{
"label": "Algodonera Gómez Farías [Planta Despepitadora]", "lat": 22.910704, "lng": -99.026845
},{
"label": "El Calamaco", "lat": 22.937693, "lng": -99.102205
},{
"label": "El Carmen", "lat": 22.913945, "lng": -99.029269
},{
"label": "La Carbonera", "lat": 22.95999, "lng": -99.05722
},{
"label": "Los Ébanos", "lat": 22.969516, "lng": -99.015879
},{
"label": "La Y a Xicoténcatl", "lat": 22.928753, "lng": -99.027064
},{
"label": "Las Ofemias", "lat": 22.899911, "lng": -99.011001
},{
"label": "El Sabino (Los Popotes)", "lat": 22.899195, "lng": -99.027726
},{
"label": "Valle del Ovni", "lat": 23.057859, "lng": -99.228355
},{
"label": "Benito Juárez (La Ribera)", "lat": 22.844079, "lng": -99.023075
},{
"label": "Nuevo Pensar del Campesino", "lat": 23.024523, "lng": -99.148112
},{
"label": "La Reyna", "lat": 22.925288, "lng": -99.110238
},{
"label": "La Taxqueña", "lat": 22.907579, "lng": -99.087111
},{
"label": "El Paraíso", "lat": 22.975649, "lng": -98.995754
},{
"label": "El Rosario", "lat": 22.990511, "lng": -99.068924
},{
"label": "El Pedregal", "lat": 23.026985, "lng": -99.139126
},{
"label": "Nueva Rosita", "lat": 22.987733, "lng": -99.042358
},{
"label": "El Corozo (El Azteca)", "lat": 23.085612, "lng": -99.131335
},{
"label": "La Primavera", "lat": 22.935704, "lng": -99.08234
},{
"label": "La Curva", "lat": 22.956969, "lng": -99.117002
},{
"label": "Las Gracielas", "lat": 22.945612, "lng": -99.035631
},{
"label": "El Chamizal", "lat": 22.869041, "lng": -99.062515
},{
"label": "Las Dos Huastecas", "lat": 22.949182, "lng": -99.038342
},{
"label": "San Isidro", "lat": 22.975014, "lng": -99.107674
},{
"label": "Narciso Mendoza (La Ardilla)", "lat": 22.990478, "lng": -99.005233
},{
"label": "La Bocatoma", "lat": 22.986749, "lng": -99.142232
},{
"label": "Santa Amalia", "lat": 22.988809, "lng": -99.035572
},{
"label": "Santa Teresa", "lat": 22.94358, "lng": -99.100801
},{
"label": "Campo Experimental", "lat": 22.945041, "lng": -99.006584
},{
"label": "Mario Campos", "lat": 22.904011, "lng": -99.00932
},{
"label": "Poblado Seiscientos Uno", "lat": 22.966893, "lng": -99.051923
},{
"label": "Las Dos Morenas", "lat": 22.993964, "lng": -99.071185
},{
"label": "El Espiaje", "lat": 22.928565, "lng": -99.082507
},{
"label": "Emilio Portes Gil (La Gloria)", "lat": 23.046094, "lng": -99.251723
},{
"label": "Plan de Guadalupe", "lat": 22.960202, "lng": -99.119781
},{
"label": "San Lorenzo", "lat": 22.989038, "lng": -99.027563
},{
"label": "Don Carlos", "lat": 22.967132, "lng": -98.998211
},{
"label": "La Isla", "lat": 22.853711, "lng": -99.039101
},{
"label": "Navojoa", "lat": 22.867173, "lng": -99.028041
},{
"label": "Ninguno", "lat": 23.015138, "lng": -99.107961
},{
"label": "La Escondida", "lat": 22.955973, "lng": -99.01219
},{
"label": "El Palmar", "lat": 23.016621, "lng": -99.10047
},{
"label": "El Cascabel", "lat": 22.937352, "lng": -99.02999
},{
"label": "Las Adjuntas", "lat": 22.971589, "lng": -98.994313
},{
"label": "Sabinas y Saucillo", "lat": 23.034705, "lng": -99.102652
},{
"label": "La Paquita", "lat": 22.915327, "lng": -99.077681
},{
"label": "Santa Rosa", "lat": 22.853659, "lng": -99.075812
},{
"label": "Julilo", "lat": 23.141837, "lng": -99.212484
},{
"label": "El Fuste", "lat": 22.93458, "lng": -99.049071
},{
"label": "El Esfuerzo (El Tulillo)", "lat": 22.957598, "lng": -99.091075
},{
"label": "La Nutria", "lat": 22.998191, "lng": -99.07613
},{
"label": "El Sony", "lat": 22.986584, "lng": -99.065981
},{
"label": "Los Cachorros", "lat": 22.983167, "lng": -98.994714
},{
"label": "La Kika (La Milla Tres)", "lat": 22.847628, "lng": -99.068041
},{
"label": "San Ernesto", "lat": 22.859139, "lng": -99.089209
},{
"label": "Pedro Hernández Ruiz", "lat": 23.078065, "lng": -99.167261
},{
"label": "Guadalupe Victoria", "lat": 22.846101, "lng": -99.059227
},{
"label": "El Ojo de Agua", "lat": 23.036426, "lng": -99.125586
},{
"label": "El Venadito", "lat": 22.993175, "lng": -99.069709
},{
"label": "La Mangana", "lat": 22.951545, "lng": -99.100416
},{
"label": "Porción Treinta y Ocho", "lat": 22.915172, "lng": -99.008991
},{
"label": "San Carlos", "lat": 22.92781, "lng": -99.096181
},{
"label": "Raúl Vela García (Las Adelas)", "lat": 22.929128, "lng": -99.003422
},{
"label": "Los Hernández", "lat": 22.981139, "lng": -99.017748
},{
"label": "Ojo de Agua (La Morita)", "lat": 23.021615, "lng": -99.102083
},{
"label": "El Bernal", "lat": 22.996022, "lng": -99.032167
},{
"label": "Las Auroras", "lat": 22.925796, "lng": -99.08266
},{
"label": "Huerta Reyna", "lat": 22.938998, "lng": -99.101373
},{
"label": "San Antonio", "lat": 22.988395, "lng": -99.040491
},{
"label": "La Pedrera", "lat": 22.985565, "lng": -99.064235
},{
"label": "San Miguel de la Mora", "lat": 22.933666, "lng": -99.025088
},{
"label": "Gómez Farías Dos", "lat": 23.089368, "lng": -99.136968
},{
"label": "Siete Leguas [Ladrillera]", "lat": 22.969251, "lng": -99.052588
},{
"label": "Los Pepes", "lat": 22.908236, "lng": -99.081291
},{
"label": "El Alacrán", "lat": 22.944494, "lng": -99.009823
},{
"label": "El Rajador", "lat": 22.924993, "lng": -99.064138
},{
"label": "Rancho del Rey", "lat": 22.940914, "lng": -99.032269
},{
"label": "Huerta el Cielo", "lat": 22.998516, "lng": -99.073352
},{
"label": "Quinta Rosario", "lat": 22.971183, "lng": -99.130113
},{
"label": "El Pujido", "lat": 22.943507, "lng": -99.011064
},{
"label": "El Moro", "lat": 22.991739, "lng": -99.126931
},{
"label": "Los Berrones", "lat": 23.073984, "lng": -99.164141
},{
"label": "El Profe", "lat": 22.836, "lng": -99.067979
},{
"label": "Canal Alto", "lat": 22.943491, "lng": -99.058172
},{
"label": "La Palapa del General", "lat": 22.860438, "lng": -99.090166
},{
"label": "Diez Hermanos", "lat": 23.003736, "lng": -99.044504
},{
"label": "Ventura Hernández", "lat": 23.122068, "lng": -99.14894
},{
"label": "Tres Hermanos", "lat": 22.950022, "lng": -99.038901
},{
"label": "Santa Anita", "lat": 22.941116, "lng": -99.013049
},{
"label": "José Carmen Berrones", "lat": 23.080534, "lng": -99.131475
},{
"label": "San Gerardo", "lat": 22.984951, "lng": -99.06497
},{
"label": "Cabañas Canindo", "lat": 23.052289, "lng": -99.232329
},{
"label": "Ampliación Héroes de Chapultepec (Rodolfo Sánchez)", "lat": 22.920681, "lng": -99.131986
},{
"label": "San José", "lat": 23.045736, "lng": -99.229576
},{
"label": "Las Quinientas", "lat": 22.883763, "lng": -99.0799
},{
"label": "El Esfuerzo Número Uno", "lat": 22.965399, "lng": -99.095517
},{
"label": "Loma Alta (Loma Alta de Gómez Farías)", "lat": 22.886455, "lng": -99.027775
},{
"label": "Santa Virginia", "lat": 23.067722, "lng": -99.160704
},{
"label": "El Cielo", "lat": 23.100107, "lng": -99.193225
},{
"label": "San Pedrito", "lat": 22.996184, "lng": -99.134796
},{
"label": "San Felipe", "lat": 22.911551, "lng": -99.008227
},{
"label": "San Antonio (Tres Palacios)", "lat": 22.970484, "lng": -99.069999
},{
"label": "El Cedeño", "lat": 22.9403, "lng": -99.01616
},{
"label": "María Elena (El Pasiego)", "lat": 22.961996, "lng": -99.046584
},{
"label": "El Nacimiento", "lat": 23.000711, "lng": -99.136643
},{
"label": "La Misión", "lat": 22.843449, "lng": -99.028092
},{
"label": "Santa Fe Uno", "lat": 22.981526, "lng": -99.146688
},{
"label": "Emiliano Zapata", "lat": 22.936719, "lng": -99.138106
},{
"label": "Segunda Ampliación del Ojo de Agua", "lat": 22.984554, "lng": -99.128794
},{
"label": "Cinco de Mayo (El Barrote)", "lat": 22.891181, "lng": -99.013554
},{
"label": "San Gregorio", "lat": 22.995864, "lng": -99.072772
},{
"label": "El Farolito", "lat": 22.975569, "lng": -99.106309
},{
"label": "Las Alejandras (Los Vega)", "lat": 22.933783, "lng": -99.067132
},{
"label": "Alejandro Bolaños Castillo", "lat": 23.066537, "lng": -99.168006
},{
"label": "La Pavita", "lat": 22.948098, "lng": -99.10039
},{
"label": "Nayarit", "lat": 22.979793, "lng": -99.142041
},{
"label": "La Herradura", "lat": 22.92673, "lng": -99.081281
},{
"label": "Gómez Farías", "lat": 23.047103, "lng": -99.155513
},{
"label": "El Barrote", "lat": 22.886289, "lng": -99.013272
},{
"label": "Sierra Nahola", "lat": 22.926675, "lng": -99.110197
},{
"label": "El Riachuelo", "lat": 22.863069, "lng": -99.111622
},{
"label": "La Providencia", "lat": 22.948983, "lng": -99.039725
},{
"label": "Nuevo Bello", "lat": 22.895411, "lng": -99.027648
},{
"label": "El Zamay", "lat": 22.906667, "lng": -99.028056
},{
"label": "Héroes de Chapultepec", "lat": 22.945546, "lng": -99.037119
},{
"label": "Las Cotorras", "lat": 22.881342, "lng": -99.039325
},{
"label": "San Hipólito", "lat": 22.876195, "lng": -99.025866
},{
"label": "San Pedro", "lat": 22.992579, "lng": -99.070185
},{
"label": "María Isabel", "lat": 22.956656, "lng": -99.117351
},{
"label": "Santa María", "lat": 22.915059, "lng": -99.083815
},{
"label": "Abraham Bolaños Yáñez", "lat": 23.072227, "lng": -99.163487
},{
"label": "Agustín Melgar", "lat": 22.958197, "lng": -98.996752
},{
"label": "Américo Villarreal", "lat": 22.921913, "lng": -99.133034
},{
"label": "Maricela", "lat": 23.008532, "lng": -99.091553
},{
"label": "El Huasteco", "lat": 22.972542, "lng": -99.125518
},{
"label": "Lázaro Cárdenas Dos", "lat": 22.939431, "lng": -99.133959
},{
"label": "El Barrote (Dolores Vázquez de Vázquez)", "lat": 22.898117, "lng": -99.011522
},{
"label": "Ojo de Agua", "lat": 23.033636, "lng": -99.102938
},{
"label": "El Conconco", "lat": 22.959643, "lng": -99.047349
},{
"label": "Huerta Estrella", "lat": 22.954923, "lng": -99.043548
},{
"label": "San Pablo", "lat": 23.104194, "lng": -99.204514
},{
"label": "Los Compadres", "lat": 22.948455, "lng": -99.037821
},{
"label": "Miguel Gallegos", "lat": 22.965242, "lng": -99.115928
},{
"label": "El Riachuelo (Hipólito Sotelo)", "lat": 22.861528, "lng": -99.111245
},{
"label": "El Volado", "lat": 22.9451, "lng": -99.104013
},{
"label": "Alta Cima", "lat": 23.060113, "lng": -99.1981
},{
"label": "El Vergel", "lat": 22.840376, "lng": -99.07612
},{
"label": "Villa Victoria", "lat": 23.019478, "lng": -99.100506
},{
"label": "Los Papanes", "lat": 22.97552, "lng": -99.078549
},{
"label": "Lázaro Cárdenas (El Malacate)", "lat": 23.119589, "lng": -99.195016
},{
"label": "Joya de Manantiales", "lat": 23.013188, "lng": -99.282254
},{
"label": "El Progreso", "lat": 23.069421, "lng": -99.165904
},{
"label": "El Sacrificio", "lat": 22.990118, "lng": -99.050546
},{
"label": "San Juan", "lat": 22.996127, "lng": -99.031103
},{
"label": "Los Mateos", "lat": 22.937419, "lng": -99.082998
},{
"label": "La Caseta", "lat": 22.983809, "lng": -99.016901
},{
"label": "El Tirón Parejo (El Zamay)", "lat": 22.903757, "lng": -99.034134
},{
"label": "La Loma", "lat": 22.924715, "lng": -99.032712
},{
"label": "Santa Sofía (El Gavilán)", "lat": 22.936413, "lng": -98.994454
},{
"label": "El Jaguar", "lat": 22.976788, "lng": -99.059011
},{
"label": "Tepeyac (Cantarranas)", "lat": 22.941196, "lng": -99.033646
},{
"label": "La Esperanza", "lat": 22.949322, "lng": -98.999556
},{
"label": "Alfredo V. Bonfil (El Papalote)", "lat": 22.883896, "lng": -99.127754
},{
"label": "San Francisco", "lat": 22.982034, "lng": -98.99534
},{
"label": "El Azteca", "lat": 23.11387, "lng": -99.14587
},{
"label": "La Unión", "lat": 22.974852, "lng": -99.057661
},{
"label": "La Guadalupana", "lat": 22.95676, "lng": -99.043929
},{
"label": "La Morena", "lat": 22.922293, "lng": -99.063883
},{
"label": "Nuevo León", "lat": 22.961716, "lng": -99.048328
},{
"label": "Palo Dulce", "lat": 22.937315, "lng": -99.030847
},{
"label": "Fracción Corazón de Jesús", "lat": 22.934431, "lng": -99.042915
},{
"label": "Unión Aurora", "lat": 22.912632, "lng": -99.028498
},{
"label": "Las Adelas", "lat": 22.916874, "lng": -99.02701
},{
"label": "Rancho Alegre (El Ébano)", "lat": 22.903727, "lng": -99.043998
},{
"label": "Pinas", "lat": 22.967567, "lng": -99.051511
}]