[{
"label": "Trece de Mayo", "lat": 24.268922, "lng": -98.326389
},{
"label": "El Tinieblo", "lat": 24.316256, "lng": -98.502164
},{
"label": "Campesinos Insurgentes (El Tío Beto)", "lat": 24.132428, "lng": -98.472127
},{
"label": "Los Ébanos", "lat": 24.340437, "lng": -98.636272
},{
"label": "La Coma", "lat": 24.388739, "lng": -98.687598
},{
"label": "Siete Leguas", "lat": 24.382586, "lng": -98.395394
},{
"label": "Allende", "lat": 24.157111, "lng": -98.413055
},{
"label": "La Mezcalera", "lat": 24.22158, "lng": -98.494619
},{
"label": "La Noria", "lat": 24.306954, "lng": -98.410847
},{
"label": "El Rosario", "lat": 24.38156, "lng": -98.317104
},{
"label": "El Silverado", "lat": 24.409835, "lng": -98.446582
},{
"label": "Tierra Blanca (El Ocotillal)", "lat": 24.404157, "lng": -98.467834
},{
"label": "La Gloria", "lat": 24.341388, "lng": -98.666028
},{
"label": "El Carrizo", "lat": 24.383974, "lng": -98.707689
},{
"label": "Tres Marías", "lat": 24.310393, "lng": -98.437659
},{
"label": "Enrique Vargas González", "lat": 24.112556, "lng": -98.528616
},{
"label": "El Ruidoso", "lat": 24.159167, "lng": -98.442778
},{
"label": "La Bonita", "lat": 24.35213, "lng": -98.581925
},{
"label": "San Isidro", "lat": 24.268366, "lng": -98.70651
},{
"label": "La Luz de la Sierra", "lat": 24.043621, "lng": -98.514797
},{
"label": "La Ceja", "lat": 24.104813, "lng": -98.483308
},{
"label": "San Juanito", "lat": 24.058701, "lng": -98.524759
},{
"label": "José Silva Sánchez", "lat": 24.281252, "lng": -98.455858
},{
"label": "El Padrino", "lat": 24.407846, "lng": -98.302716
},{
"label": "San Juan (Presa la Loba)", "lat": 24.360123, "lng": -98.618016
},{
"label": "El Toro (El Ebanito)", "lat": 24.153484, "lng": -98.607264
},{
"label": "El Guadalupe", "lat": 24.155767, "lng": -98.560344
},{
"label": "Ninguno", "lat": 24.259505, "lng": -98.364809
},{
"label": "El Capricho", "lat": 24.341075, "lng": -98.684808
},{
"label": "El Cuerudo", "lat": 24.338831, "lng": -98.293041
},{
"label": "Santa Lucía (El Carmen)", "lat": 24.144954, "lng": -98.576998
},{
"label": "El Gitano", "lat": 24.081111, "lng": -98.5025
},{
"label": "El Tamaulipeco (Santa Martha)", "lat": 24.38927, "lng": -98.390596
},{
"label": "Independencia", "lat": 24.298456, "lng": -98.553505
},{
"label": "El Elefante Blanco", "lat": 24.26617, "lng": -98.46518
},{
"label": "Guadalupe", "lat": 23.949408, "lng": -98.588135
},{
"label": "La Palma", "lat": 24.414761, "lng": -98.374664
},{
"label": "El Encinal", "lat": 24.396887, "lng": -98.384808
},{
"label": "Nueva Era", "lat": 24.255283, "lng": -98.470146
},{
"label": "El Ebanal", "lat": 24.122342, "lng": -98.470633
},{
"label": "El Capullo", "lat": 24.407748, "lng": -98.314208
},{
"label": "Casa Blanca", "lat": 24.047785, "lng": -98.614508
},{
"label": "El Alvaradeño", "lat": 24.394765, "lng": -98.318559
},{
"label": "Los Manantiales", "lat": 24.354004, "lng": -98.546843
},{
"label": "Las Palmas", "lat": 24.394722, "lng": -98.296667
},{
"label": "Santander Jiménez", "lat": 24.214493, "lng": -98.485704
},{
"label": "Santa Rita", "lat": 24.335108, "lng": -98.341459
},{
"label": "Los Concuates", "lat": 24.096745, "lng": -98.510243
},{
"label": "Guayabitas", "lat": 24.172858, "lng": -98.558331
},{
"label": "La Piedad", "lat": 24.360649, "lng": -98.407848
},{
"label": "Pascual", "lat": 24.25253, "lng": -98.690115
},{
"label": "San Antonio", "lat": 24.326017, "lng": -98.516633
},{
"label": "La Isla [Granja Acuícola]", "lat": 24.355719, "lng": -98.623991
},{
"label": "Cavazos Cárdenas", "lat": 24.155478, "lng": -98.549354
},{
"label": "El Altamireño (La Lomita)", "lat": 24.277646, "lng": -98.380736
},{
"label": "Leticia", "lat": 24.289878, "lng": -98.568621
},{
"label": "El Camotal", "lat": 23.994699, "lng": -98.614023
},{
"label": "Santa Gertrudis (El Mogote)", "lat": 24.345357, "lng": -98.348199
},{
"label": "El Refugio", "lat": 24.261193, "lng": -98.379082
},{
"label": "Juan Báez Guerra", "lat": 24.147597, "lng": -98.439316
},{
"label": "El Perico", "lat": 24.405205, "lng": -98.525484
},{
"label": "Brecha Tres", "lat": 24.187796, "lng": -98.461092
},{
"label": "Benito Juárez (El Tepeyac)", "lat": 24.339456, "lng": -98.418846
},{
"label": "Las Alazanas (Santa Juana)", "lat": 24.038385, "lng": -98.52011
},{
"label": "La Fe del Golfo", "lat": 24.407909, "lng": -98.499989
},{
"label": "El Pujido", "lat": 24.367944, "lng": -98.4225
},{
"label": "La Piedra", "lat": 24.282823, "lng": -98.629292
},{
"label": "La Libertad Campesina", "lat": 24.148286, "lng": -98.556869
},{
"label": "El Cordero", "lat": 24.234677, "lng": -98.478384
},{
"label": "Tres Hermanos", "lat": 24.356808, "lng": -98.340075
},{
"label": "Río Escondido (Sacramento)", "lat": 24.411848, "lng": -98.571028
},{
"label": "General Sidronio Rodríguez (La Misión)", "lat": 24.262543, "lng": -98.357671
},{
"label": "San José", "lat": 24.297737, "lng": -98.687064
},{
"label": "El Cóndor", "lat": 24.342034, "lng": -98.425774
},{
"label": "El Minero (El Refugio)", "lat": 24.373251, "lng": -98.395908
},{
"label": "El Manantial", "lat": 24.269179, "lng": -98.541654
},{
"label": "Los Charcos", "lat": 24.279274, "lng": -98.580149
},{
"label": "Santa Julia (Santa Lucía)", "lat": 24.244308, "lng": -98.571202
},{
"label": "Porvenir el Alto", "lat": 24.414707, "lng": -98.638865
},{
"label": "El Calvario", "lat": 24.333531, "lng": -98.662105
},{
"label": "San Joaquín", "lat": 24.240035, "lng": -98.450161
},{
"label": "San Andrés", "lat": 24.218491, "lng": -98.49788
},{
"label": "Ingeniero Eduardo Chávez", "lat": 24.34, "lng": -98.292778
},{
"label": "El Fuerte", "lat": 24.216274, "lng": -98.642614
},{
"label": "El Cuatro Caminos", "lat": 24.1552, "lng": -98.432362
},{
"label": "La Esperanza (La Polvareda)", "lat": 24.318992, "lng": -98.575713
},{
"label": "El Cuatro", "lat": 24.292429, "lng": -98.549766
},{
"label": "El Toro", "lat": 24.187785, "lng": -98.558439
},{
"label": "Río Escondido", "lat": 24.39541, "lng": -98.466359
},{
"label": "El Mayor", "lat": 24.227296, "lng": -98.454745
},{
"label": "La Presita", "lat": 24.237255, "lng": -98.430878
},{
"label": "San Manuel del Carmen", "lat": 24.233429, "lng": -98.469789
},{
"label": "La Granja", "lat": 24.249567, "lng": -98.473263
},{
"label": "La Fuente (La Parida)", "lat": 24.406047, "lng": -98.421042
},{
"label": "San Juan y las Pocitas", "lat": 24.16138, "lng": -98.649642
},{
"label": "La Rosita", "lat": 24.219664, "lng": -98.465258
},{
"label": "El Caracol [Campo Turístico]", "lat": 23.979314, "lng": -98.521571
},{
"label": "La Paloma", "lat": 24.250922, "lng": -98.563703
},{
"label": "El Pequeño (Cuatro Hermanos)", "lat": 24.419226, "lng": -98.374132
},{
"label": "La Herradura", "lat": 24.231935, "lng": -98.482461
},{
"label": "Las Cecilias", "lat": 24.262038, "lng": -98.600279
},{
"label": "María Trinidad", "lat": 24.346366, "lng": -98.300818
},{
"label": "San Pedro", "lat": 24.341839, "lng": -98.632127
},{
"label": "Jiménez (Humberto Salazar Saldívar)", "lat": 24.177326, "lng": -98.495046
},{
"label": "La Morita", "lat": 24.257457, "lng": -98.529011
},{
"label": "Los Brasiles", "lat": 24.068129, "lng": -98.625394
},{
"label": "Don Leoncio", "lat": 24.256029, "lng": -98.468149
},{
"label": "Las Lomas", "lat": 24.423329, "lng": -98.3415
},{
"label": "El Peñón", "lat": 24.195657, "lng": -98.502044
},{
"label": "San Jorge", "lat": 24.265596, "lng": -98.465584
},{
"label": "Tres de Abril (El Tulillo)", "lat": 24.263429, "lng": -98.584216
},{
"label": "Santa Cruz", "lat": 24.423718, "lng": -98.552404
},{
"label": "Paso del Norte", "lat": 24.447856, "lng": -98.581619
},{
"label": "Las Colinas", "lat": 24.122598, "lng": -98.594054
},{
"label": "Santa Elena", "lat": 24.086648, "lng": -98.513721
},{
"label": "Tochín", "lat": 24.40005, "lng": -98.38472
},{
"label": "Hacienda Don Quixote [Hotel]", "lat": 24.203413, "lng": -98.495676
},{
"label": "Los Yugos", "lat": 24.120546, "lng": -98.585261
},{
"label": "El Chapote", "lat": 24.054737, "lng": -98.635591
},{
"label": "María Mercedes", "lat": 24.342868, "lng": -98.315484
},{
"label": "San Pablo", "lat": 24.194913, "lng": -98.369086
},{
"label": "San Martín", "lat": 24.171661, "lng": -98.448378
},{
"label": "Los Laureles", "lat": 24.175347, "lng": -98.478938
},{
"label": "La Huastequita", "lat": 24.352417, "lng": -98.649908
},{
"label": "La Reforma", "lat": 24.202764, "lng": -98.43531
},{
"label": "Los Laureles (Eugenio Veliz)", "lat": 24.160361, "lng": -98.45646
},{
"label": "Cuatro Hermanos (Morales)", "lat": 24.284546, "lng": -98.577528
},{
"label": "El Charro", "lat": 24.295362, "lng": -98.325213
},{
"label": "El Rodeo", "lat": 24.293247, "lng": -98.352226
},{
"label": "Dieciocho de Mayo", "lat": 24.327937, "lng": -98.435048
},{
"label": "La Rosa", "lat": 24.01615, "lng": -98.585177
},{
"label": "Santo Domingo", "lat": 24.352567, "lng": -98.47217
},{
"label": "San Juan", "lat": 24.344181, "lng": -98.61455
},{
"label": "La Contra", "lat": 24.446837, "lng": -98.525058
},{
"label": "María de los Ángeles", "lat": 24.410572, "lng": -98.691784
},{
"label": "General Luis Caballero (Santo Domingo)", "lat": 24.32892, "lng": -98.672923
},{
"label": "El Milagro", "lat": 24.108272, "lng": -98.484443
},{
"label": "San Roberto", "lat": 24.226009, "lng": -98.336977
},{
"label": "La Esperanza", "lat": 24.367109, "lng": -98.316025
},{
"label": "El Refugio (Los Compadres)", "lat": 24.196277, "lng": -98.369659
},{
"label": "Mariano Escobedo (La Azufrosa)", "lat": 24.134507, "lng": -98.57788
},{
"label": "La Luz", "lat": 24.282767, "lng": -98.416547
},{
"label": "San Francisco", "lat": 24.307508, "lng": -98.55599
},{
"label": "La Unión", "lat": 24.193913, "lng": -98.65491
},{
"label": "El Chapotal", "lat": 24.451813, "lng": -98.643119
},{
"label": "San Manuel", "lat": 24.335444, "lng": -98.650111
},{
"label": "La Barreta", "lat": 24.104463, "lng": -98.648364
},{
"label": "Las Comas Altas", "lat": 24.283112, "lng": -98.548979
},{
"label": "Rosario del Sur", "lat": 24.147523, "lng": -98.489751
},{
"label": "Sor Juana Inés de la Cruz", "lat": 24.274739, "lng": -98.461553
},{
"label": "11 de Julio", "lat": 24.257341, "lng": -98.374409
},{
"label": "Cuatro Milpas (La Posta)", "lat": 24.418372, "lng": -98.374762
}]