[{
"label": "Brasileño", "lat": 25.519067, "lng": -97.723686
},{
"label": "Santa Maty (Fructuoso García Longoria)", "lat": 25.996133, "lng": -97.702257
},{
"label": "Licenciado Guillermo Sánchez", "lat": 25.798246, "lng": -97.490984
},{
"label": "Brecha 128 de Kilómetro 79 a Kilómetro 80", "lat": 25.694217, "lng": -97.735673
},{
"label": "Isla el Ramireño", "lat": 25.426424, "lng": -97.52651
},{
"label": "La Luz (Rancho Vileta)", "lat": 25.806575, "lng": -97.535514
},{
"label": "J. Carmen García Barajas", "lat": 25.499316, "lng": -97.663844
},{
"label": "Villa Hermosa", "lat": 25.980962, "lng": -97.717212
},{
"label": "San Juan (El Regalo)", "lat": 25.591559, "lng": -97.601396
},{
"label": "Francisco Gracia", "lat": 25.831715, "lng": -97.307085
},{
"label": "El Paraíso (Juan Acosta)", "lat": 25.866553, "lng": -97.585353
},{
"label": "El Ramireño (María Villafranca)", "lat": 25.445896, "lng": -97.487587
},{
"label": "La Paloma (Apolonio Peña Barrientos)", "lat": 25.853633, "lng": -97.701419
},{
"label": "Úrsulo Galván (Martín Reyes González)", "lat": 25.866035, "lng": -97.781536
},{
"label": "La Luz (Gregorio Elizondo)", "lat": 25.788297, "lng": -97.541304
},{
"label": "Isla Rincón del Chile", "lat": 25.419719, "lng": -97.445142
},{
"label": "San Juan de las Flores", "lat": 25.532949, "lng": -97.559792
},{
"label": "Progreso Agrario (Santa Librada)", "lat": 25.968001, "lng": -97.760314
},{
"label": "Rancho Viejo (Israel Carbajal)", "lat": 26.008026, "lng": -97.780862
},{
"label": "Veintiuno de Marzo (Las Cuatrocientas)", "lat": 25.802357, "lng": -97.661764
},{
"label": "El Banco (Ramiro González)", "lat": 26.024416, "lng": -97.676604
},{
"label": "Tino Salazar", "lat": 25.930161, "lng": -97.854083
},{
"label": "La Sierrita (Álvaro Rivera)", "lat": 25.990079, "lng": -97.869863
},{
"label": "La Dieta", "lat": 25.774273, "lng": -97.563763
},{
"label": "El Tobi (Señor Tobías de la Fuente)", "lat": 25.832077, "lng": -97.563241
},{
"label": "Rigoberto Pastorela", "lat": 25.935016, "lng": -97.855775
},{
"label": "El Arbolito", "lat": 25.611707, "lng": -97.634025
},{
"label": "La Misión (José Quevedo Ramírez)", "lat": 25.425384, "lng": -97.410318
},{
"label": "Ramírez", "lat": 25.949617, "lng": -97.787309
},{
"label": "San Luisito (José Garza)", "lat": 25.855556, "lng": -97.321391
},{
"label": "La Higuera", "lat": 25.857272, "lng": -97.280195
},{
"label": "Los Limones (Dionisio Pérez)", "lat": 25.970835, "lng": -97.713968
},{
"label": "El Sufrimiento", "lat": 25.721454, "lng": -97.575156
},{
"label": "El Charco del Monte", "lat": 25.775535, "lng": -97.700742
},{
"label": "Santa Fe", "lat": 25.920851, "lng": -97.322888
},{
"label": "Everardo Sandoval Buenrostro", "lat": 25.977126, "lng": -97.708546
},{
"label": "Ninguno", "lat": 25.586125, "lng": -97.649091
},{
"label": "El Águila", "lat": 25.666758, "lng": -97.599756
},{
"label": "San José del Caracol", "lat": 25.582679, "lng": -97.482453
},{
"label": "El Perote (Humberto García)", "lat": 25.909653, "lng": -97.710523
},{
"label": "La Palma", "lat": 26.047518, "lng": -97.841799
},{
"label": "Los San Pedros", "lat": 25.68049, "lng": -97.590221
},{
"label": "El Arenal", "lat": 25.468694, "lng": -97.815564
},{
"label": "Daniel Ayala", "lat": 25.712664, "lng": -97.695601
},{
"label": "Isla el Té", "lat": 25.226441, "lng": -97.471046
},{
"label": "Mayab", "lat": 25.523293, "lng": -97.718115
},{
"label": "Prisciliano Delgado (Francisco Vega)", "lat": 25.947011, "lng": -97.896756
},{
"label": "La Soledad (Asunción Álvarez)", "lat": 25.934068, "lng": -97.915867
},{
"label": "Tanque Alegre (Jaime Acosta)", "lat": 25.846882, "lng": -97.708859
},{
"label": "Los Arados (Juan José Sauceda)", "lat": 25.839656, "lng": -97.559484
},{
"label": "Las Vacas (Jaime Villarreal)", "lat": 25.361839, "lng": -97.805802
},{
"label": "Antonio Soberón", "lat": 25.503814, "lng": -97.80348
},{
"label": "Alberto Domingo de la Garza", "lat": 25.744346, "lng": -97.408022
},{
"label": "El Puerto", "lat": 25.739533, "lng": -97.627223
},{
"label": "Isla del Yuca", "lat": 25.418667, "lng": -97.453002
},{
"label": "La Altamira (Bartolo Martínez)", "lat": 26.013233, "lng": -97.697709
},{
"label": "Los Torres (Celestino de la O)", "lat": 25.665326, "lng": -97.712481
},{
"label": "Las Ventanas [Parque Industrial]", "lat": 25.917411, "lng": -97.599406
},{
"label": "El Silencio (Manuel Campos)", "lat": 25.894792, "lng": -97.692538
},{
"label": "Úrsulo Galván (Jesús María González)", "lat": 25.855454, "lng": -97.772759
},{
"label": "Club Matamorense [Campo de Tiro]", "lat": 25.735379, "lng": -97.558741
},{
"label": "La Vanguardia (Claudio Zúñiga)", "lat": 25.83826, "lng": -97.715358
},{
"label": "Amador Villarreal (Las Casas de Galván)", "lat": 25.756237, "lng": -97.340583
},{
"label": "Isla de Lucas Meza (Isla de Pocho)", "lat": 25.375936, "lng": -97.486335
},{
"label": "La Boladeña", "lat": 25.482231, "lng": -97.533611
},{
"label": "La Lomita (La Loma)", "lat": 25.462926, "lng": -97.435706
},{
"label": "La Punta del Toro", "lat": 25.308333, "lng": -97.530472
},{
"label": "Barriales (Guadalupe Narváez Mireles)", "lat": 25.591744, "lng": -97.695454
},{
"label": "Don Ramiro (El Novillo)", "lat": 25.919941, "lng": -97.284044
},{
"label": "Artemio Garza", "lat": 25.815205, "lng": -97.711259
},{
"label": "El Sabino", "lat": 25.945998, "lng": -97.59747
},{
"label": "El Torreoncito", "lat": 25.500403, "lng": -97.715315
},{
"label": "La Luz (Pedro Garza)", "lat": 25.806527, "lng": -97.546039
},{
"label": "Isla la Muela", "lat": 25.291406, "lng": -97.442328
},{
"label": "El Longoreño (Rolando Cabrera)", "lat": 25.828048, "lng": -97.417185
},{
"label": "Ampliación Villa de Cortez (Toribio Hernández)", "lat": 25.818848, "lng": -97.487333
},{
"label": "Alhelíes", "lat": 25.912073, "lng": -97.747322
},{
"label": "Eustacio Olvera", "lat": 25.839476, "lng": -97.41594
},{
"label": "Santa Cecilia", "lat": 25.83507, "lng": -97.730079
},{
"label": "El Perrito", "lat": 25.580242, "lng": -97.479703
},{
"label": "Maribel", "lat": 25.704947, "lng": -97.604515
},{
"label": "El Chaparral (Sergio Segura)", "lat": 25.764116, "lng": -97.640783
},{
"label": "El Manantial", "lat": 25.782853, "lng": -97.593888
},{
"label": "Santa Adelaida (Las Esquinas)", "lat": 25.855357, "lng": -97.627631
},{
"label": "Ampliación las Yesquitas", "lat": 25.645985, "lng": -97.479787
},{
"label": "Vista Hermosa (Anselmo Garza)", "lat": 25.910525, "lng": -97.849544
},{
"label": "El Galaneño", "lat": 25.760621, "lng": -97.544321
},{
"label": "Brecha 134 de Kilómetro 75 a Kilómetro 78 Norte", "lat": 25.718306, "lng": -97.675969
},{
"label": "San Lorenzo (Francisca Arriaga Ruvalcaba)", "lat": 25.654139, "lng": -97.556079
},{
"label": "La Marina", "lat": 25.286703, "lng": -97.719688
},{
"label": "Isla la Florida", "lat": 25.314201, "lng": -97.630739
},{
"label": "Medrano", "lat": 25.820844, "lng": -97.607434
},{
"label": "La Presita", "lat": 25.529314, "lng": -97.589827
},{
"label": "Caseta del Canalero (Brecha 131 con Kilómetro 92)", "lat": 25.576222, "lng": -97.70694
},{
"label": "Isla de la Sal", "lat": 25.393398, "lng": -97.501866
},{
"label": "Margaritas", "lat": 25.320155, "lng": -97.741039
},{
"label": "El Pereño", "lat": 25.713708, "lng": -97.572219
},{
"label": "Las Palmas [Centro Cristiano]", "lat": 25.837222, "lng": -97.387384
},{
"label": "Revolución (María Pérez Rosas)", "lat": 25.849904, "lng": -97.740899
},{
"label": "El Sabino (Sergio Campos)", "lat": 25.929071, "lng": -97.597882
},{
"label": "La Tijerita", "lat": 25.733169, "lng": -97.570809
},{
"label": "San Epitacio [Granja]", "lat": 25.894855, "lng": -97.525826
},{
"label": "Oxxo [Tienda de Autoservicio y Gasolinera]", "lat": 25.93881, "lng": -97.598409
},{
"label": "El Ebanito (Erasmo Muñoz)", "lat": 25.950558, "lng": -97.648927
},{
"label": "Isla de las Mujeres Solas", "lat": 25.404133, "lng": -97.434168
},{
"label": "Quinta Quezada", "lat": 25.747826, "lng": -97.557046
},{
"label": "Juanillo", "lat": 25.927468, "lng": -97.570717
},{
"label": "Isla de las Naranjas", "lat": 25.356867, "lng": -97.476113
},{
"label": "Comercializadora de Metales Villarreal [Localidad Económica]", "lat": 25.816331, "lng": -97.4866
},{
"label": "Las Rusias (Aurora Coronado)", "lat": 25.92549, "lng": -97.564871
},{
"label": "Paulino Santillana", "lat": 25.709594, "lng": -97.574352
},{
"label": "El Tecolote (Martín García Ramírez)", "lat": 25.806033, "lng": -97.411779
},{
"label": "Revolución (Vicente Rodríguez)", "lat": 25.854215, "lng": -97.720987
},{
"label": "Estación Sandoval", "lat": 25.902538, "lng": -97.66354
},{
"label": "La Cuchilla", "lat": 25.965178, "lng": -97.818492
},{
"label": "Baldemar González", "lat": 25.874431, "lng": -97.788164
},{
"label": "Jalisco", "lat": 25.915559, "lng": -97.856603
},{
"label": "Vista Hermosa", "lat": 25.895489, "lng": -97.819198
},{
"label": "CEFERESO Número 3", "lat": 25.847618, "lng": -97.633687
},{
"label": "Los Nogales", "lat": 25.699092, "lng": -97.577517
},{
"label": "Mogote de Santiago", "lat": 25.806633, "lng": -97.626456
},{
"label": "San Joaquín (José Matilde Luna)", "lat": 26.013176, "lng": -97.744664
},{
"label": "Las Nuevas Flores", "lat": 25.722162, "lng": -97.525548
},{
"label": "El Moraleño", "lat": 25.690969, "lng": -97.581695
},{
"label": "Santa Isabel (María Isabel Rodríguez)", "lat": 25.58499, "lng": -97.726293
},{
"label": "Las Flores", "lat": 25.443428, "lng": -97.462265
},{
"label": "Casas Blancas", "lat": 25.643788, "lng": -97.67579
},{
"label": "El Milagro (Noé Barrera)", "lat": 25.927546, "lng": -97.750637
},{
"label": "La Mora", "lat": 25.969693, "lng": -97.906553
},{
"label": "Isla los Ébanos", "lat": 25.383033, "lng": -97.447501
},{
"label": "Las Yescas", "lat": 25.44924, "lng": -97.816815
},{
"label": "Las Palmas del Caracol", "lat": 25.608347, "lng": -97.477861
},{
"label": "Vista Hermosa (Roberto González)", "lat": 25.906189, "lng": -97.823334
},{
"label": "Santa Rosa (Jorge Luis Suárez Ríos)", "lat": 26.015984, "lng": -97.778493
},{
"label": "Los González", "lat": 25.927304, "lng": -97.786708
},{
"label": "Brecha 136 Kilómetro 86.5 (Pedro Treviño Guajardo)", "lat": 25.624075, "lng": -97.657723
},{
"label": "Isla de Roberto Garza", "lat": 25.408465, "lng": -97.465689
},{
"label": "San Francisco", "lat": 25.525471, "lng": -97.667956
},{
"label": "Los Mezquites (Joel Tovar)", "lat": 25.908184, "lng": -97.658986
},{
"label": "La Soledad", "lat": 25.557893, "lng": -97.727244
},{
"label": "El Tahuachal", "lat": 25.968653, "lng": -97.619081
},{
"label": "Los Timones (Reynaldo Garza)", "lat": 25.954389, "lng": -97.679263
},{
"label": "La Capilla", "lat": 25.377294, "lng": -97.428494
},{
"label": "Los Ramírez", "lat": 25.642824, "lng": -97.536571
},{
"label": "Santa Adelaida (Amalia Medrano Villafranca)", "lat": 25.846544, "lng": -97.670425
},{
"label": "Belem", "lat": 26.02134, "lng": -97.760659
},{
"label": "Los Guayabos", "lat": 25.713517, "lng": -97.398453
},{
"label": "San Juan (La Cuarenta) [Graneros]", "lat": 25.385714, "lng": -97.858801
},{
"label": "El Recuerdo", "lat": 25.757553, "lng": -97.623009
},{
"label": "Estación Rosita", "lat": 25.857063, "lng": -97.608993
},{
"label": "El Paraíso", "lat": 26.015297, "lng": -97.76875
},{
"label": "Monsiváis [Grúas]", "lat": 25.795106, "lng": -97.534375
},{
"label": "Heliodoro Rodríguez C.", "lat": 25.750662, "lng": -97.557923
},{
"label": "Los Salazar", "lat": 25.482102, "lng": -97.816542
},{
"label": "Brecha 134 de Kilómetro 80 a Kilómetro 82 Norte", "lat": 25.673995, "lng": -97.675906
},{
"label": "Isla el Rubí", "lat": 25.264197, "lng": -97.444976
},{
"label": "Santa Lucía", "lat": 25.732691, "lng": -97.560629
},{
"label": "Feliciano (Gustavo Villarreal)", "lat": 25.78978, "lng": -97.635489
},{
"label": "El Olmito", "lat": 25.494681, "lng": -97.786204
},{
"label": "Santa Teresa", "lat": 25.784029, "lng": -97.718829
},{
"label": "El Barrileño [Colonia]", "lat": 25.848147, "lng": -97.647008
},{
"label": "Galaneño la Resaca (Santa Rosa)", "lat": 25.776384, "lng": -97.541769
},{
"label": "Doble R", "lat": 25.382573, "lng": -97.794154
},{
"label": "El Consuelo", "lat": 25.658684, "lng": -97.508332
},{
"label": "Gracia Infinita (Edelmiro Rosas) [Iglesia]", "lat": 25.874745, "lng": -97.58502
},{
"label": "Laguna Redonda (Florencio Raya)", "lat": 25.791514, "lng": -97.563093
},{
"label": "Los Dos Potrillos", "lat": 25.666229, "lng": -97.716076
},{
"label": "La Cabaña", "lat": 25.52842, "lng": -97.709264
},{
"label": "El Parral", "lat": 25.829329, "lng": -97.279151
},{
"label": "11 de Agosto", "lat": 25.965029, "lng": -97.735904
},{
"label": "Recicladora de Tarimas", "lat": 25.783297, "lng": -97.544263
},{
"label": "El Placer", "lat": 25.624118, "lng": -97.440066
},{
"label": "Ramiro Guajardo", "lat": 25.932316, "lng": -97.58404
},{
"label": "Luis de la Garza", "lat": 25.921414, "lng": -97.579974
},{
"label": "San Ramón", "lat": 25.457204, "lng": -97.81188
},{
"label": "San Luis del Alto", "lat": 25.615549, "lng": -97.630697
},{
"label": "Juanillo (Concepción Mata)", "lat": 25.869803, "lng": -97.576994
},{
"label": "Paso Matamoros", "lat": 25.832703, "lng": -97.300664
},{
"label": "El Rodeo (Luis Lauro González)", "lat": 25.851584, "lng": -97.547395
},{
"label": "Granjenitos", "lat": 25.700841, "lng": -97.396029
},{
"label": "Arroyo del Tigre", "lat": 25.677263, "lng": -97.585949
},{
"label": "Isla la Larga", "lat": 25.296567, "lng": -97.502359
},{
"label": "La Rosita (Oscar Villarreal)", "lat": 25.857379, "lng": -97.617437
},{
"label": "San Juan del Sauz", "lat": 25.738036, "lng": -97.394795
},{
"label": "Hacienda de las Rusias (El Lago de las Rusias)", "lat": 25.914862, "lng": -97.551201
},{
"label": "Prisciliano Delgado (Moisés Azuara)", "lat": 25.928294, "lng": -97.896138
},{
"label": "El Roble", "lat": 25.889767, "lng": -97.800834
},{
"label": "Rancho Viejo (Álvaro González Martínez)", "lat": 25.996397, "lng": -97.789457
},{
"label": "El Estribo", "lat": 25.979744, "lng": -97.757808
},{
"label": "José Villarreal Alanís", "lat": 25.834277, "lng": -97.309233
},{
"label": "El Tabaco", "lat": 25.497506, "lng": -97.625839
},{
"label": "Las Esquinas", "lat": 25.854666, "lng": -97.627447
},{
"label": "Mario Guerra", "lat": 25.585526, "lng": -97.696143
},{
"label": "Alma Acosta", "lat": 25.864966, "lng": -97.5852
},{
"label": "El Ebanito (Doctor López)", "lat": 25.935619, "lng": -97.618322
},{
"label": "Brecha 134 con Kilómetro 83.5", "lat": 25.654121, "lng": -97.679816
},{
"label": "El Panalito", "lat": 26.015013, "lng": -97.721583
},{
"label": "La Ventana (José Sánchez)", "lat": 25.908056, "lng": -97.599446
},{
"label": "La Vanguardia", "lat": 25.839776, "lng": -97.707837
},{
"label": "El Olmito (Genaro Hernández)", "lat": 25.738324, "lng": -97.557594
},{
"label": "Santa Inés (Brecha 132 Sur 88)", "lat": 25.612249, "lng": -97.694474
},{
"label": "El Tecolote (Noé Cortinas)", "lat": 25.786761, "lng": -97.422201
},{
"label": "Escobedo (Guadalupe Escobedo)", "lat": 25.817741, "lng": -97.67252
},{
"label": "Prisciliano Delgado (Gilberto Alonso)", "lat": 25.95214, "lng": -97.905311
},{
"label": "San José", "lat": 25.618087, "lng": -97.358608
},{
"label": "El Greco", "lat": 25.466588, "lng": -97.774846
},{
"label": "Flor de Mayo", "lat": 25.536758, "lng": -97.694337
},{
"label": "Los Llanos (Juan N. Guerra)", "lat": 25.810572, "lng": -97.457579
},{
"label": "Ramón Caballero", "lat": 25.931678, "lng": -97.5867
},{
"label": "El Calvario", "lat": 25.867135, "lng": -97.616368
},{
"label": "El Ramireño (María Luisa Limas)", "lat": 25.951699, "lng": -97.770085
},{
"label": "El Longoreño (Saúl Mireles)", "lat": 25.817211, "lng": -97.441532
},{
"label": "Isla del Suspiro", "lat": 25.266355, "lng": -97.435859
},{
"label": "Santa María (Jesús de la Garza)", "lat": 25.648561, "lng": -97.553603
},{
"label": "Sandoval (Familia Pizaña)", "lat": 25.879506, "lng": -97.638347
},{
"label": "Isla del Jarocho", "lat": 25.416472, "lng": -97.510126
},{
"label": "La Puerta (José Hernández)", "lat": 26.0165, "lng": -97.67318
},{
"label": "Hermanos de León", "lat": 25.578386, "lng": -97.607474
},{
"label": "Porcina Blanquis", "lat": 25.721918, "lng": -97.580883
},{
"label": "La Tijerita [Familias Sauceda Garza, Garza Padilla y Garza Elías]", "lat": 25.734135, "lng": -97.569603
},{
"label": "El Pretil", "lat": 25.794983, "lng": -97.35454
},{
"label": "La Perla", "lat": 25.494036, "lng": -97.777615
},{
"label": "La Relación (Antonio Ramírez)", "lat": 25.496921, "lng": -97.66632
},{
"label": "El Zacatal", "lat": 25.634744, "lng": -97.635735
},{
"label": "José María Morelos (Israel Castillo Durán)", "lat": 25.892823, "lng": -97.766478
},{
"label": "El Tecolote (Joaquín Renteral)", "lat": 25.819792, "lng": -97.409509
},{
"label": "Presidente Cárdenas (Villa Cárdenas)", "lat": 25.908018, "lng": -97.796891
},{
"label": "Isla de los Barrera", "lat": 25.401038, "lng": -97.476683
},{
"label": "Isla de los Pitufos", "lat": 25.407378, "lng": -97.455835
},{
"label": "El Apagón", "lat": 25.675829, "lng": -97.540009
},{
"label": "El Tigre", "lat": 25.686175, "lng": -97.580745
},{
"label": "El Soliseño (Juan Manuel Alamillo)", "lat": 26.00237, "lng": -97.788635
},{
"label": "Antonio Sánchez Torres", "lat": 25.943268, "lng": -97.758225
},{
"label": "Revolución (San Isidro)", "lat": 25.835717, "lng": -97.728163
},{
"label": "El Soliseño Sur (Santa Fe)", "lat": 26.013227, "lng": -97.791474
},{
"label": "Isla la Quemada", "lat": 25.284712, "lng": -97.598882
},{
"label": "Los Fernandos", "lat": 25.358311, "lng": -97.815208
},{
"label": "El Tesoro (Socorro Carpio)", "lat": 25.483856, "lng": -97.660076
},{
"label": "Ojo de Agua", "lat": 25.403325, "lng": -97.82016
},{
"label": "El Trabuco", "lat": 25.627769, "lng": -97.443636
},{
"label": "Sandoval (Agustín Gutiérrez)", "lat": 25.872929, "lng": -97.655122
},{
"label": "San Vicente", "lat": 25.821913, "lng": -97.281031
},{
"label": "Santa Evangelina", "lat": 25.610426, "lng": -97.634676
},{
"label": "La Esperanza (Pedro Barajas)", "lat": 25.599729, "lng": -97.658952
},{
"label": "Las Rusias (Manuel Castillo)", "lat": 25.916152, "lng": -97.540476
},{
"label": "Brecha 132 entre Kilómetro 83 y 85", "lat": 25.653985, "lng": -97.696027
},{
"label": "Las Bugambilias", "lat": 25.549391, "lng": -97.670638
},{
"label": "San José de los Rosas", "lat": 25.494588, "lng": -97.765849
},{
"label": "El Caracol", "lat": 25.578789, "lng": -97.510798
},{
"label": "Los Laureles", "lat": 25.703784, "lng": -97.579484
},{
"label": "Rancho de León", "lat": 25.846241, "lng": -97.316508
},{
"label": "Primer Campo Pesquero", "lat": 25.817503, "lng": -97.153717
},{
"label": "El Palmito", "lat": 25.810894, "lng": -97.302698
},{
"label": "Dionisio García", "lat": 25.480004, "lng": -97.756756
},{
"label": "Los Timones", "lat": 25.944578, "lng": -97.681756
},{
"label": "Las Rusias (Cristóbal Lozano)", "lat": 25.912884, "lng": -97.563819
},{
"label": "Santa Isabel", "lat": 25.635857, "lng": -97.67687
},{
"label": "El Río", "lat": 26.020521, "lng": -97.668859
},{
"label": "Santa Luisa", "lat": 25.578215, "lng": -97.478042
},{
"label": "El Barril", "lat": 25.714684, "lng": -97.1777
},{
"label": "Sandoval (Javier Rodríguez)", "lat": 25.861457, "lng": -97.647887
},{
"label": "Los Arados (Joaquín Luitón)", "lat": 25.868358, "lng": -97.570268
},{
"label": "Longoria [Empresas]", "lat": 25.66574, "lng": -97.601773
},{
"label": "Villaverde", "lat": 25.962044, "lng": -97.617221
},{
"label": "La Norita", "lat": 25.557466, "lng": -97.661776
},{
"label": "Tepehuaje", "lat": 25.916612, "lng": -97.343208
},{
"label": "El Toro Viejo", "lat": 25.449564, "lng": -97.754185
},{
"label": "La Gota (Santa Julia)", "lat": 25.732638, "lng": -97.386156
},{
"label": "El Paso del Tigre", "lat": 25.743195, "lng": -97.555609
},{
"label": "Doctor Burat", "lat": 25.948326, "lng": -97.646168
},{
"label": "Emiliano Zapata (Jesús Pérez)", "lat": 25.975043, "lng": -97.822636
},{
"label": "La Luz", "lat": 25.476298, "lng": -97.816613
},{
"label": "Rancho Naranja", "lat": 25.808616, "lng": -97.441395
},{
"label": "Francisco I. Madero", "lat": 25.566418, "lng": -97.631682
},{
"label": "San Vicente (Sergio Larrasquitu)", "lat": 25.828071, "lng": -97.290979
},{
"label": "El Sabino (Napoleón Benavides)", "lat": 25.947969, "lng": -97.600811
},{
"label": "La Vanguardia (Mario García)", "lat": 25.848705, "lng": -97.692289
},{
"label": "La Venada (Antonio Cabello)", "lat": 25.795705, "lng": -97.631296
},{
"label": "Los Cuates", "lat": 25.967986, "lng": -97.688408
},{
"label": "Veinte de Noviembre (Alejandro Piña)", "lat": 25.818944, "lng": -97.478096
},{
"label": "Soledad Sección 19", "lat": 25.956675, "lng": -97.613448
},{
"label": "Loma el Perrito", "lat": 25.581114, "lng": -97.486729
},{
"label": "El Texano (Manuel Ordoñez)", "lat": 25.843138, "lng": -97.325087
},{
"label": "El Tecolote (Natividad Reyna)", "lat": 25.7767, "lng": -97.411391
},{
"label": "Las Rusias (El Alto)", "lat": 25.924302, "lng": -97.554721
},{
"label": "Niki [Quinta]", "lat": 25.838023, "lng": -97.350194
},{
"label": "Juan José Andrade (Santa Adelaida)", "lat": 25.85007, "lng": -97.644935
},{
"label": "El Solecito", "lat": 25.970172, "lng": -97.693458
},{
"label": "El Ébano (Edmundo Pérez)", "lat": 25.739007, "lng": -97.695595
},{
"label": "La Palangana", "lat": 26.024441, "lng": -97.764351
},{
"label": "Las Yesquitas (Vicente de León R.)", "lat": 25.738394, "lng": -97.473455
},{
"label": "La Escuadra (Rómulo Zermeño)", "lat": 25.853906, "lng": -97.688836
},{
"label": "Nueva Rosita (Bertha Alicia Muller J.)", "lat": 25.803811, "lng": -97.649384
},{
"label": "El Lirio", "lat": 26.00957, "lng": -97.723586
},{
"label": "El Rocío (Álvaro Dorado Trejo)", "lat": 25.411638, "lng": -97.808783
},{
"label": "El Carrizo", "lat": 25.515661, "lng": -97.664645
},{
"label": "El Mezquite (Julián Rodríguez Loya)", "lat": 26.007699, "lng": -97.869591
},{
"label": "El Puerto (La Laguna)", "lat": 25.266398, "lng": -97.718493
},{
"label": "Sexta Palmar (César Cevallos)", "lat": 25.813506, "lng": -97.219073
},{
"label": "Santa Martha", "lat": 25.860833, "lng": -97.257225
},{
"label": "El Tecolote (Francisco García)", "lat": 25.801355, "lng": -97.40676
},{
"label": "Bethania", "lat": 25.943245, "lng": -97.708249
},{
"label": "Las Lomas Sección 24", "lat": 25.933091, "lng": -97.224763
},{
"label": "Bizerta", "lat": 25.480615, "lng": -97.792612
},{
"label": "Mirasol", "lat": 25.546871, "lng": -97.67496
},{
"label": "Pacheco (Alberto Lerma R.)", "lat": 25.649691, "lng": -97.626403
},{
"label": "Las Blancas (Brigido Salazar)", "lat": 25.777171, "lng": -97.633684
},{
"label": "Los Muletos", "lat": 25.603076, "lng": -97.655447
},{
"label": "La Atravesada", "lat": 25.511944, "lng": -97.457037
},{
"label": "Isla la Mamis", "lat": 25.255456, "lng": -97.444485
},{
"label": "María del Carmen", "lat": 25.399322, "lng": -97.851004
},{
"label": "Par de Ases", "lat": 25.590251, "lng": -97.486929
},{
"label": "Río Rico", "lat": 26.057807, "lng": -97.889257
},{
"label": "La Pita", "lat": 25.741981, "lng": -97.381371
},{
"label": "Rafael Ramírez", "lat": 25.785183, "lng": -97.546633
},{
"label": "Santa Fe (Héctor del Real)", "lat": 25.873619, "lng": -97.574834
},{
"label": "El Pedernal", "lat": 25.990217, "lng": -97.638962
},{
"label": "Villa Escondida", "lat": 25.928031, "lng": -97.537786
},{
"label": "Pinto Bayo", "lat": 25.465215, "lng": -97.816588
},{
"label": "El Mezquite (Hermenegildo Flores)", "lat": 26.008012, "lng": -97.866209
},{
"label": "Barriales (Brecha 131 con Kilómetro 89)", "lat": 25.604545, "lng": -97.706744
},{
"label": "El Tirón", "lat": 25.667572, "lng": -97.708453
},{
"label": "Brecha 128 entre Kilómetro 84 y 85", "lat": 25.643029, "lng": -97.735654
},{
"label": "Cuatro Caminos", "lat": 25.408005, "lng": -97.845025
},{
"label": "San Pedro (Sección Catorce)", "lat": 25.764535, "lng": -97.458336
},{
"label": "El Ramireño (El Álamo)", "lat": 25.923487, "lng": -97.784481
},{
"label": "El Paso del Trabuco", "lat": 25.607186, "lng": -97.454636
},{
"label": "Progreso Agrario (Familia Peña Quintero)", "lat": 25.97863, "lng": -97.754542
},{
"label": "Casa Blanca", "lat": 25.713188, "lng": -97.623446
},{
"label": "Isla el Limón (Isla de Loreto)", "lat": 25.377782, "lng": -97.480604
},{
"label": "El Colorado", "lat": 25.839101, "lng": -97.255885
},{
"label": "Fidel Velázquez", "lat": 25.914016, "lng": -97.571679
},{
"label": "Santa Clara", "lat": 25.745179, "lng": -97.572798
},{
"label": "San Vicente (Álvaro Cárdenas)", "lat": 25.846658, "lng": -97.748451
},{
"label": "Las Rusias (El Ranchito)", "lat": 25.896425, "lng": -97.532603
},{
"label": "San Agustín (Los Coyotes)", "lat": 25.762271, "lng": -97.471408
},{
"label": "San Francisco (Francisco Treviño)", "lat": 25.9692, "lng": -97.791175
},{
"label": "Vista Hermosa (Paulino Sánchez)", "lat": 25.914584, "lng": -97.848526
},{
"label": "La Barranca", "lat": 26.012539, "lng": -97.737038
},{
"label": "El Venadito", "lat": 25.813364, "lng": -97.386089
},{
"label": "El Mexicano (Los Olvera)", "lat": 25.487274, "lng": -97.779202
},{
"label": "San Carlos", "lat": 25.424386, "lng": -97.834005
},{
"label": "La Jarita Norte", "lat": 25.667135, "lng": -97.683061
},{
"label": "Los Ancira", "lat": 25.38139, "lng": -97.930393
},{
"label": "Isla el Paraíso", "lat": 25.413458, "lng": -97.496416
},{
"label": "Los Olmos (Arturo Cárdenas)", "lat": 25.96168, "lng": -97.719121
},{
"label": "Leopoldo Saldaña", "lat": 25.721485, "lng": -97.73275
},{
"label": "El Ranchito y Refugio (Delfina de Rivera)", "lat": 25.835894, "lng": -97.323163
},{
"label": "Rancho de la Cruz", "lat": 25.876013, "lng": -97.243531
},{
"label": "Las Tres Huastecas", "lat": 25.587456, "lng": -97.493196
},{
"label": "Tanque Alegre (Isabel Treviño)", "lat": 25.855142, "lng": -97.710084
},{
"label": "Las Blancas", "lat": 25.764048, "lng": -97.633739
},{
"label": "La Cincuenta", "lat": 25.559039, "lng": -97.727136
},{
"label": "Miramar", "lat": 25.470659, "lng": -97.802724
},{
"label": "La Setenta (Brecha 133 con Kilómetro 70)", "lat": 25.774698, "lng": -97.683672
},{
"label": "La Piedra", "lat": 25.819278, "lng": -97.234561
},{
"label": "Barriales", "lat": 25.592452, "lng": -97.699244
},{
"label": "El Peregrino", "lat": 25.52792, "lng": -97.632976
},{
"label": "La Pira", "lat": 25.300146, "lng": -97.721478
},{
"label": "La Ventana (San Juana de la Cruz)", "lat": 25.883608, "lng": -97.599382
},{
"label": "Los Lirios", "lat": 25.457473, "lng": -97.810008
},{
"label": "Tres Hermanos", "lat": 25.573932, "lng": -97.480198
},{
"label": "El Escondido", "lat": 25.425349, "lng": -97.831101
},{
"label": "Esteban Benavides", "lat": 25.636592, "lng": -97.656915
},{
"label": "La Ventana", "lat": 25.887673, "lng": -97.603201
},{
"label": "Los Ranchitos (El Crucero)", "lat": 25.845009, "lng": -97.682507
},{
"label": "Guadalupe [Granja]", "lat": 25.936017, "lng": -97.585884
},{
"label": "La Vanguardia (Mariano Aguirre)", "lat": 25.825059, "lng": -97.70604
},{
"label": "La Loma del Bizcocho", "lat": 25.702155, "lng": -97.412651
},{
"label": "Juan Moisés Hernández C.", "lat": 25.667005, "lng": -97.601291
},{
"label": "Alejandro Martínez Domínguez", "lat": 25.826608, "lng": -97.569753
},{
"label": "Los Naranjos", "lat": 25.342729, "lng": -97.785659
},{
"label": "El Gavilán", "lat": 25.422278, "lng": -97.860777
},{
"label": "Plan Hondo (Salvador Mosqueda)", "lat": 25.488874, "lng": -97.776654
},{
"label": "Panamá", "lat": 25.837366, "lng": -97.416925
},{
"label": "El Caballo Blanco", "lat": 25.413307, "lng": -97.84027
},{
"label": "El Naranjo (Rodolfo Alvarado)", "lat": 25.826051, "lng": -97.680709
},{
"label": "La Roca (Graciela Treviño)", "lat": 25.881844, "lng": -97.687636
},{
"label": "Manuel Gamboa", "lat": 25.76228, "lng": -97.735741
},{
"label": "El Alto Mando", "lat": 25.615875, "lng": -97.551425
},{
"label": "Santa Cruz (Benjamín Alonso García)", "lat": 25.946846, "lng": -97.885788
},{
"label": "La Bartolina (El Mogote Largo)", "lat": 25.8467, "lng": -97.216391
},{
"label": "Segundo Campo Pesquero y el Chinchonal", "lat": 25.812529, "lng": -97.155713
},{
"label": "El Arenal (Licenciado José Luis Martínez Anaya)", "lat": 25.757721, "lng": -97.535959
},{
"label": "Esperanza y Reforma (Celestino Milián)", "lat": 25.813466, "lng": -97.49639
},{
"label": "Mario Álvarez Carvajal (Brecha 136 Kilómetro 77 Sur)", "lat": 25.70993, "lng": -97.655778
},{
"label": "Rigo Morán", "lat": 25.801629, "lng": -97.541649
},{
"label": "Las Bayitas", "lat": 26.049563, "lng": -97.824109
},{
"label": "Laguna Seca (Emeterio Ramírez)", "lat": 25.608901, "lng": -97.606149
},{
"label": "Isla Fantasía Norte", "lat": 25.271534, "lng": -97.44382
},{
"label": "Isla el Muelle (Isla de Anastasio Flores)", "lat": 25.399691, "lng": -97.458599
},{
"label": "Curva Texas", "lat": 25.992333, "lng": -97.748027
},{
"label": "Los Fresnos (Alberto Castillo)", "lat": 25.948412, "lng": -97.813955
},{
"label": "La Sierrita (Caseta del Canalero)", "lat": 25.965814, "lng": -97.889779
},{
"label": "La Bolsa (Pedro Cantú García)", "lat": 26.055566, "lng": -97.869837
},{
"label": "Carretera 82 con Brecha 137", "lat": 25.666995, "lng": -97.647633
},{
"label": "San José de Cortázar", "lat": 25.630767, "lng": -97.696828
},{
"label": "Pekaly", "lat": 25.827389, "lng": -97.300112
},{
"label": "La Vanguardia (Joel Santos)", "lat": 25.841277, "lng": -97.697187
},{
"label": "La Muralla", "lat": 25.536339, "lng": -97.647187
},{
"label": "Álvaro García", "lat": 25.802679, "lng": -97.322691
},{
"label": "Isla la Mano de León", "lat": 25.311965, "lng": -97.443418
},{
"label": "Ampliación las Yesquitas (Matilde González)", "lat": 25.653238, "lng": -97.497773
},{
"label": "Rancho Viejo", "lat": 26.026788, "lng": -97.773096
},{
"label": "Isla de Leonardo Martínez", "lat": 25.385236, "lng": -97.485748
},{
"label": "Isla de Héctor Soto (Isla del Profe)", "lat": 25.384634, "lng": -97.465459
},{
"label": "Isla las Malvinas", "lat": 25.253556, "lng": -97.447799
},{
"label": "El Rosario (Loma Mogote Largo)", "lat": 25.779215, "lng": -97.258603
},{
"label": "Los Treviño", "lat": 25.514317, "lng": -97.647934
},{
"label": "San Isaías", "lat": 25.95173, "lng": -97.651263
},{
"label": "Los Sauces (Julio Leyva)", "lat": 25.765519, "lng": -97.597143
},{
"label": "Los Federales", "lat": 25.798618, "lng": -97.445376
},{
"label": "Control 3 Norte", "lat": 25.886135, "lng": -97.521824
},{
"label": "El Longoreño (El Rincón)", "lat": 25.845862, "lng": -97.409122
},{
"label": "Grupo Chapa Quiroga [Compra Venta de Grano y Asesoría]", "lat": 25.809094, "lng": -97.579653
},{
"label": "El Forzado (El Divisadero)", "lat": 25.575704, "lng": -97.490396
},{
"label": "Héctor Rodríguez Sampayo", "lat": 25.915994, "lng": -97.572206
},{
"label": "El Veintidós", "lat": 25.694588, "lng": -97.577749
},{
"label": "San Manuel", "lat": 25.57367, "lng": -97.691042
},{
"label": "El Soliseño (José Serrata)", "lat": 26.002634, "lng": -97.789351
},{
"label": "La Poza", "lat": 25.601833, "lng": -97.618056
},{
"label": "Ramón del Río Rosas", "lat": 25.463877, "lng": -97.471979
},{
"label": "Siglo XX", "lat": 25.776447, "lng": -97.37327
},{
"label": "Timones (Ovidio Peña)", "lat": 25.953941, "lng": -97.68265
},{
"label": "Las Flores (Hipólito Patiño)", "lat": 25.39473, "lng": -97.81105
},{
"label": "El Agave", "lat": 25.715029, "lng": -97.585672
},{
"label": "Unidad Habitacional 23 de Noviembre", "lat": 25.740628, "lng": -97.555612
},{
"label": "El Ébano (Eduardo Loya)", "lat": 26.011516, "lng": -97.87426
},{
"label": "Los Ranchitos (José Guadalupe Cantú Villarreal)", "lat": 25.831246, "lng": -97.700543
},{
"label": "Estación Ensenada (Juan Fernando Cárdenas García)", "lat": 25.975429, "lng": -97.8441
},{
"label": "La Palmita", "lat": 26.051689, "lng": -97.858435
},{
"label": "Celestino de la O", "lat": 25.666259, "lng": -97.726507
},{
"label": "Los Patos (Los Treviño)", "lat": 25.520322, "lng": -97.648433
},{
"label": "El Rosario", "lat": 25.984231, "lng": -97.746917
},{
"label": "Los Hoteles", "lat": 25.067319, "lng": -97.50771
},{
"label": "Isla de Cheto", "lat": 25.393769, "lng": -97.482288
},{
"label": "Sesteaderos", "lat": 25.46877, "lng": -97.742194
},{
"label": "Mar Thoma", "lat": 25.571261, "lng": -97.500082
},{
"label": "Azael Valdez", "lat": 25.564617, "lng": -97.696239
},{
"label": "Isla del Paisa", "lat": 25.332611, "lng": -97.531113
},{
"label": "Isla de Pablo Vázquez", "lat": 25.395317, "lng": -97.442728
},{
"label": "Buenavista", "lat": 25.811012, "lng": -97.535601
},{
"label": "Las Blancas (Josué Banda)", "lat": 25.760089, "lng": -97.639491
},{
"label": "Isauro Benavides Fernández", "lat": 25.792027, "lng": -97.729633
},{
"label": "Matías Pérez Villarreal", "lat": 26.013907, "lng": -97.672117
},{
"label": "Los Quintero", "lat": 25.498616, "lng": -97.816822
},{
"label": "Los Cedros", "lat": 25.588828, "lng": -97.650636
},{
"label": "San Luisito Sección 24 (Juan M. Sánchez)", "lat": 25.851633, "lng": -97.324446
},{
"label": "Tres Hermanos (Guadalupe Luna)", "lat": 26.016134, "lng": -97.779619
},{
"label": "Brecha 130 con Kilómetro 81", "lat": 25.677256, "lng": -97.718002
},{
"label": "La Cuina", "lat": 25.747609, "lng": -97.681224
},{
"label": "As [Construcciones]", "lat": 25.943798, "lng": -97.599191
},{
"label": "La Venada (Francisco Cabello)", "lat": 25.800133, "lng": -97.628818
},{
"label": "Timones (Elva Bazaldúas)", "lat": 25.938588, "lng": -97.688091
},{
"label": "El Tecolote (Alfredo Ramírez)", "lat": 25.815568, "lng": -97.41194
},{
"label": "Sandoval (Gumaro Sánchez)", "lat": 25.886289, "lng": -97.644503
},{
"label": "Isla del Hermano", "lat": 25.387443, "lng": -97.472808
},{
"label": "Contreras [Graneros]", "lat": 25.385431, "lng": -97.860387
},{
"label": "Isla Sección Puntilla Norte", "lat": 25.246695, "lng": -97.459742
},{
"label": "La Escondida", "lat": 25.612954, "lng": -97.526342
},{
"label": "San Fernando", "lat": 25.608274, "lng": -97.70743
},{
"label": "Santa Rosa", "lat": 25.962267, "lng": -97.848933
},{
"label": "Antonio Silva", "lat": 25.863854, "lng": -97.646386
},{
"label": "Ezequiel Alcocer", "lat": 25.93477, "lng": -97.586289
},{
"label": "Las Palmas", "lat": 25.542408, "lng": -97.684786
},{
"label": "San Luisito", "lat": 26.00394, "lng": -97.658384
},{
"label": "El Alteño", "lat": 25.682955, "lng": -97.564242
},{
"label": "Guadalupe (Licenciado José del Bosque)", "lat": 25.918751, "lng": -97.578164
},{
"label": "Santo Niño", "lat": 25.71065, "lng": -97.528745
},{
"label": "La Encantada", "lat": 25.41417, "lng": -97.565225
},{
"label": "Reforma Sur (La Roca)", "lat": 25.902876, "lng": -97.675807
},{
"label": "Isla de Maravillas", "lat": 25.381649, "lng": -97.461059
},{
"label": "El Perro", "lat": 25.742611, "lng": -97.635834
},{
"label": "Ranita (René Guzmán Campos) [Quinta]", "lat": 25.923172, "lng": -97.877597
},{
"label": "La Burrita", "lat": 25.942104, "lng": -97.261761
},{
"label": "La Esmeralda", "lat": 25.713936, "lng": -97.468049
},{
"label": "El Salerito", "lat": 25.9, "lng": -97.230558
},{
"label": "Don Ramiro", "lat": 25.837921, "lng": -97.422834
},{
"label": "Delfino Valdez", "lat": 26.021189, "lng": -97.823889
},{
"label": "El Guajolote", "lat": 25.722198, "lng": -97.716819
},{
"label": "Las Rusias (Francisco Arredondo González)", "lat": 25.894139, "lng": -97.552583
},{
"label": "La Candelaria y San Enrique", "lat": 25.443758, "lng": -97.880332
},{
"label": "Rincón de Buenavista", "lat": 25.308605, "lng": -97.706439
},{
"label": "Benjamín Rodríguez Hinojosa", "lat": 25.610833, "lng": -97.646352
},{
"label": "Ampliación la Tijerita", "lat": 25.749322, "lng": -97.545727
},{
"label": "La Venada (Rafael Ramos)", "lat": 25.816635, "lng": -97.619718
},{
"label": "Rancho Nuevo", "lat": 25.531245, "lng": -97.704769
},{
"label": "Las Dos Lupitas", "lat": 25.782203, "lng": -97.519329
},{
"label": "San Gerardo", "lat": 25.810288, "lng": -97.689127
},{
"label": "Los Sauces", "lat": 25.464962, "lng": -97.622273
},{
"label": "Las Quinientas", "lat": 25.455272, "lng": -97.76668
},{
"label": "La Gloria (El Llano)", "lat": 25.908457, "lng": -97.60965
},{
"label": "Los Cuervos (José Villafranca H.)", "lat": 25.759425, "lng": -97.444436
},{
"label": "Campo San Juan", "lat": 25.102323, "lng": -97.516407
},{
"label": "Prisciliano Delgado", "lat": 25.938007, "lng": -97.906519
},{
"label": "La Bolsa (Félix Elizaldi)", "lat": 25.943922, "lng": -97.571389
},{
"label": "El Tecolote", "lat": 25.793809, "lng": -97.415425
},{
"label": "Las Delicias", "lat": 25.722343, "lng": -97.439073
},{
"label": "La Escuadra", "lat": 25.849369, "lng": -97.692001
},{
"label": "Nuevo San Juan", "lat": 26.023614, "lng": -97.751464
},{
"label": "Club de Tiro, Caza y Pesca del Noreste", "lat": 25.728879, "lng": -97.561077
},{
"label": "El Olmito (Guadalupe Gracia)", "lat": 25.738597, "lng": -97.568731
},{
"label": "Casitas (Andrés Casanova)", "lat": 25.808034, "lng": -97.541249
},{
"label": "El Becerro", "lat": 25.477941, "lng": -97.498786
},{
"label": "Miradores", "lat": 25.719133, "lng": -97.428613
},{
"label": "Mi Paraíso", "lat": 25.839995, "lng": -97.324763
},{
"label": "Los Ranchitos (Arturo García)", "lat": 25.823241, "lng": -97.693924
},{
"label": "Las Vacas", "lat": 25.349277, "lng": -97.799834
},{
"label": "Magueyes [Quinta]", "lat": 25.962794, "lng": -97.676751
},{
"label": "Laguna Redonda (Juana Raya)", "lat": 25.814966, "lng": -97.56556
},{
"label": "Pájaros Azules", "lat": 25.844748, "lng": -97.317701
},{
"label": "Rancho Grande", "lat": 25.665733, "lng": -97.635185
},{
"label": "Gomeño Nuevo", "lat": 25.88279, "lng": -97.353372
},{
"label": "La Antena (Rogelio González Caballero)", "lat": 25.819631, "lng": -97.273687
},{
"label": "San Pedro", "lat": 25.731459, "lng": -97.295236
},{
"label": "Tres Molinos [Fraccionamiento]", "lat": 25.732264, "lng": -97.563136
},{
"label": "Isla de José Vázquez", "lat": 25.419763, "lng": -97.495091
},{
"label": "Las Cuatas (Irma Torres Ceballos)", "lat": 25.88135, "lng": -97.579448
},{
"label": "Los Borregos", "lat": 25.787986, "lng": -97.370598
},{
"label": "La Victoria (Alberto Cárdenas)", "lat": 25.742227, "lng": -97.716643
},{
"label": "Isla el Ebanal", "lat": 25.318522, "lng": -97.652223
},{
"label": "Guadalupe (Juan Degollado)", "lat": 25.942426, "lng": -97.579811
},{
"label": "El Realito", "lat": 25.955266, "lng": -97.659193
},{
"label": "La Laguna (José Saldaña)", "lat": 25.867547, "lng": -97.732066
},{
"label": "Loma de San Juan", "lat": 25.916054, "lng": -97.242313
},{
"label": "La Luz (Hacienda de la Flor)", "lat": 25.792328, "lng": -97.534771
},{
"label": "Las Margaritas [Colonia]", "lat": 25.832286, "lng": -97.350406
},{
"label": "El Ebanito", "lat": 25.952955, "lng": -97.612237
},{
"label": "El Tahuachal (Los Guerra)", "lat": 25.980146, "lng": -97.625406
},{
"label": "Laguna Honda (Miguel Salinas)", "lat": 25.584032, "lng": -97.683474
},{
"label": "Carlos Narváez Peña", "lat": 25.858959, "lng": -97.281335
},{
"label": "El Tecolote (Carlos Longoria)", "lat": 25.824889, "lng": -97.410248
},{
"label": "San Juan del Alto", "lat": 25.558469, "lng": -97.569222
},{
"label": "La Bartolina (Ricardo Gómez)", "lat": 25.85085, "lng": -97.315658
},{
"label": "La Sierrita (Horacio Neira Echavarría)", "lat": 25.937432, "lng": -97.888954
},{
"label": "San Juan (Santiago Mercedes)", "lat": 25.83057, "lng": -97.370564
},{
"label": "El Saucito (Javier García)", "lat": 25.841074, "lng": -97.674003
},{
"label": "Los Ranchitos (Santana Garza)", "lat": 25.81508, "lng": -97.698042
},{
"label": "Señor Durón Guerra", "lat": 25.797192, "lng": -97.532969
},{
"label": "El Tule", "lat": 25.90247, "lng": -97.338729
},{
"label": "El Brinco (Rolando González)", "lat": 25.850089, "lng": -97.55694
},{
"label": "Brecha 132 entre Kilómetro 82 y 83", "lat": 25.664114, "lng": -97.697246
},{
"label": "Gregorio Flores", "lat": 25.649875, "lng": -97.548386
},{
"label": "Santa Ileana (Sandra)", "lat": 25.560011, "lng": -97.664525
},{
"label": "Las Cuatas (Josué García)", "lat": 25.810553, "lng": -97.734271
},{
"label": "Quinta Campestre Miraflores", "lat": 25.907471, "lng": -97.538159
},{
"label": "Luciano Ramírez", "lat": 25.830773, "lng": -97.299146
},{
"label": "Los Indios", "lat": 25.985458, "lng": -97.727601
},{
"label": "Mario Herrera Alanís", "lat": 25.667408, "lng": -97.618317
},{
"label": "Jesús García Murillón", "lat": 25.822568, "lng": -97.481374
},{
"label": "El Brasil", "lat": 25.881258, "lng": -97.289031
},{
"label": "Santa Irene (Tomás Trejo Naranjo)", "lat": 25.873586, "lng": -97.628269
},{
"label": "Barrote de las Naranjas", "lat": 25.603228, "lng": -97.488844
},{
"label": "Santa Rosa (Hermes Alejandro Flores)", "lat": 25.92684, "lng": -97.858333
},{
"label": "La Puerta (José Roberto Barrera)", "lat": 25.959543, "lng": -97.669256
},{
"label": "Manuel de la Fuente", "lat": 25.622408, "lng": -97.706298
},{
"label": "Los Amaro II", "lat": 25.43713, "lng": -97.440221
},{
"label": "Cabras Pintas (El Banquito)", "lat": 25.859927, "lng": -97.553099
},{
"label": "El Senderito", "lat": 25.567849, "lng": -97.659992
},{
"label": "El Pial", "lat": 25.557827, "lng": -97.707548
},{
"label": "La Alberca", "lat": 25.694157, "lng": -97.400188
},{
"label": "Francisco Serna", "lat": 25.479339, "lng": -97.649639
},{
"label": "El Ramireño (Jesús Moisés Baltazar Garza Amaya)", "lat": 25.958566, "lng": -97.766228
},{
"label": "El Paso de la Pita (La Gloria)", "lat": 25.744292, "lng": -97.382773
},{
"label": "La Luz (Carlos Flores)", "lat": 25.798355, "lng": -97.543424
},{
"label": "Cantamar [Fraccionamiento]", "lat": 25.776704, "lng": -97.161021
},{
"label": "Los Fresnos (Los Guajardo)", "lat": 25.943417, "lng": -97.811209
},{
"label": "La Polvareda (Francisco Ledezma)", "lat": 25.756667, "lng": -97.479447
},{
"label": "Morales", "lat": 25.473268, "lng": -97.667315
},{
"label": "Mogote de Santiago (Antonia Esparza)", "lat": 25.807862, "lng": -97.633064
},{
"label": "Los Limones", "lat": 25.976659, "lng": -97.705398
},{
"label": "Los Abuelos (Virgilio Torres)", "lat": 25.9169, "lng": -97.806898
},{
"label": "La Barranca (Curva Texas)", "lat": 25.990031, "lng": -97.749668
},{
"label": "La Paloma (Clemente Arizpe)", "lat": 25.854367, "lng": -97.702417
},{
"label": "Las Cabañas", "lat": 25.809329, "lng": -97.440898
},{
"label": "El Golfo", "lat": 25.453291, "lng": -97.81306
},{
"label": "El Rescate", "lat": 25.622649, "lng": -97.514731
},{
"label": "Mi Ranchito [Quinta]", "lat": 25.831598, "lng": -97.378067
},{
"label": "Isla la Mula", "lat": 25.274032, "lng": -97.61655
},{
"label": "El Mezquite (Martín Rodríguez Loya)", "lat": 26.008014, "lng": -97.865222
},{
"label": "Don Lalo [Quinta]", "lat": 25.810783, "lng": -97.444586
},{
"label": "Genaro García", "lat": 25.497752, "lng": -97.815556
},{
"label": "Brecha 132 de Kilómetro 78 a Kilómetro 82 Norte", "lat": 25.691118, "lng": -97.696951
},{
"label": "El Ramireño (María Guadalupe Zúñiga)", "lat": 25.956189, "lng": -97.766945
},{
"label": "Los Potrillos [Quinta]", "lat": 25.863693, "lng": -97.592204
},{
"label": "Isla del Padre", "lat": 25.339637, "lng": -97.478538
},{
"label": "La Tijerita (Potrero Nuevo)", "lat": 25.753935, "lng": -97.549292
},{
"label": "San Agustín", "lat": 25.67772, "lng": -97.657329
},{
"label": "El Palmar", "lat": 25.487431, "lng": -97.78477
},{
"label": "El Rocío las Flores", "lat": 25.397659, "lng": -97.815923
},{
"label": "Santa Irene", "lat": 25.886186, "lng": -97.64138
},{
"label": "La Nueva Victoria (Felipe Galván García)", "lat": 25.915691, "lng": -97.744209
},{
"label": "El Rosillo", "lat": 25.412268, "lng": -97.782048
},{
"label": "La Florida (Marciano González)", "lat": 25.6201, "lng": -97.609361
},{
"label": "El Temporal", "lat": 25.901795, "lng": -97.331379
},{
"label": "La Florida", "lat": 25.62943, "lng": -97.622136
},{
"label": "Los Barriales", "lat": 25.607047, "lng": -97.696251
},{
"label": "Los Timones (Raúl Guerra)", "lat": 25.951332, "lng": -97.680111
},{
"label": "Prisciliano Delgado (Héctor Trejo)", "lat": 26.003345, "lng": -97.905981
},{
"label": "Asociación Agrícola de Matamoros", "lat": 25.962906, "lng": -97.673976
},{
"label": "La Venada", "lat": 25.78951, "lng": -97.591139
},{
"label": "La Aguedita", "lat": 25.44821, "lng": -97.685552
},{
"label": "Graneros Semillas y Forrajes de Matamoros", "lat": 25.851884, "lng": -97.638324
},{
"label": "Clemente Herebia", "lat": 25.967611, "lng": -97.684168
},{
"label": "La Paloma (Daniel Urbina)", "lat": 25.85464, "lng": -97.703225
},{
"label": "Club Fronterizo de Tiro, Caza y Pesca", "lat": 25.816652, "lng": -97.229175
},{
"label": "Eugenio Hernández Flores", "lat": 25.805717, "lng": -97.48054
},{
"label": "Revolución (Pablo Criado Garza)", "lat": 25.838145, "lng": -97.720194
},{
"label": "La Engorda", "lat": 25.862146, "lng": -97.729796
},{
"label": "La Espuela", "lat": 25.814969, "lng": -97.679831
},{
"label": "Baltazar Hinojosa Ochoa", "lat": 25.802222, "lng": -97.483056
},{
"label": "Brecha 136 de Kilómetro 81 a Kilómetro 82 Norte", "lat": 25.67025, "lng": -97.657702
},{
"label": "Rancho Viejo (Benito González)", "lat": 25.995092, "lng": -97.789851
},{
"label": "Alfredo Quintanilla [Campo Pesquero]", "lat": 25.965101, "lng": -97.176236
},{
"label": "Raúl Arrazola", "lat": 25.916692, "lng": -97.536363
},{
"label": "San Antonio (Cristo Jesús Rodríguez)", "lat": 25.819828, "lng": -97.298797
},{
"label": "Aurelio Campuzano", "lat": 26.024707, "lng": -97.698533
},{
"label": "El Venadito (Juan Castañeda)", "lat": 25.811174, "lng": -97.64147
},{
"label": "El Socorro", "lat": 25.729667, "lng": -97.626081
},{
"label": "El Rabón", "lat": 25.443851, "lng": -97.416127
},{
"label": "Santa Silvia", "lat": 25.879857, "lng": -97.792467
},{
"label": "Mi Hacienda [Quinta]", "lat": 25.831989, "lng": -97.384485
},{
"label": "Rancho Nuevo (Esther Gaytán)", "lat": 25.873698, "lng": -97.246258
},{
"label": "Alicia Alvarado", "lat": 25.841004, "lng": -97.31496
},{
"label": "Isla Puntilla Norte", "lat": 25.24487, "lng": -97.451639
},{
"label": "San Ignacio", "lat": 25.421385, "lng": -97.88162
},{
"label": "Los Tres Quiroga", "lat": 25.484072, "lng": -97.816618
},{
"label": "Araguz Garza", "lat": 25.575797, "lng": -97.515553
},{
"label": "Enrique Cárdenas Escamilla", "lat": 25.703007, "lng": -97.697075
},{
"label": "Brecha 136 con Kilómetro 88 (Los Muletos)", "lat": 25.611485, "lng": -97.656364
},{
"label": "El Mezquite (José Luis Rodríguez Flores)", "lat": 26.00731, "lng": -97.868791
},{
"label": "El Mogote", "lat": 25.848119, "lng": -97.289113
},{
"label": "Romedu (Patio Trasero) [Transportes]", "lat": 25.840507, "lng": -97.427178
},{
"label": "Cabras Pintas (Celso Cortina)", "lat": 25.859325, "lng": -97.551412
},{
"label": "Laguna Honda", "lat": 25.613085, "lng": -97.670777
},{
"label": "La Bartolina", "lat": 25.858874, "lng": -97.267974
},{
"label": "El Solito", "lat": 26.000374, "lng": -97.856453
},{
"label": "El Huilote", "lat": 25.724434, "lng": -97.267124
},{
"label": "Plan del Alazán [Agroporcícolas]", "lat": 25.859769, "lng": -97.624089
},{
"label": "El Tahuachal (Encarnación Puentes)", "lat": 25.985375, "lng": -97.631154
},{
"label": "La Venada (Merced Casas)", "lat": 25.801116, "lng": -97.619691
},{
"label": "El Rocío", "lat": 25.394775, "lng": -97.799304
},{
"label": "Isla de los Vázquez", "lat": 25.400712, "lng": -97.444369
},{
"label": "Los Olivares", "lat": 25.583101, "lng": -97.614363
},{
"label": "Estación Santa Rosa (Antena Canal Siete)", "lat": 25.95, "lng": -97.852206
},{
"label": "San Miguel", "lat": 25.890556, "lng": -97.353613
},{
"label": "Villanueva", "lat": 26.010295, "lng": -97.68792
},{
"label": "Paso del Águila", "lat": 25.665176, "lng": -97.600766
},{
"label": "Sandoval (Ernesto Gutiérrez)", "lat": 25.860079, "lng": -97.651336
},{
"label": "Campamento la Noria", "lat": 25.816867, "lng": -97.559945
},{
"label": "Predio el Moquete (Javier Aguirre)", "lat": 25.659091, "lng": -97.564867
},{
"label": "Santa Irene (Fructuoso Pérez)", "lat": 25.915444, "lng": -97.665001
},{
"label": "Los Pinavetes", "lat": 25.305111, "lng": -97.412779
},{
"label": "Las Chapitas (Santos Santiago)", "lat": 25.409133, "lng": -97.507501
},{
"label": "Sacramento", "lat": 25.393579, "lng": -97.853371
},{
"label": "Revolución (El Alto)", "lat": 25.857176, "lng": -97.710976
},{
"label": "Tomás Cruz", "lat": 25.584363, "lng": -97.515151
},{
"label": "Huizachal (Camilo Cisneros)", "lat": 25.819233, "lng": -97.268119
},{
"label": "El Triángulo", "lat": 25.780019, "lng": -97.661318
},{
"label": "El Divisadero", "lat": 25.723147, "lng": -97.613081
},{
"label": "El Crucero", "lat": 25.845322, "lng": -97.681959
},{
"label": "Santa Adelaida (Seferino Torres)", "lat": 25.855993, "lng": -97.663943
},{
"label": "Las Lomas", "lat": 25.810859, "lng": -97.367849
},{
"label": "Los Pinos", "lat": 25.648474, "lng": -97.721101
},{
"label": "Santa Irene (José Ángel Zamorano)", "lat": 25.874569, "lng": -97.628211
},{
"label": "Basilio Vidal Minguela", "lat": 25.766734, "lng": -97.715789
},{
"label": "Roberto F. García (Elvira Rodríguez)", "lat": 25.829444, "lng": -97.285002
},{
"label": "Milagros en Acción (Benjamín Vela) [Iglesia]", "lat": 25.873307, "lng": -97.582799
},{
"label": "El Salado", "lat": 25.541096, "lng": -97.286968
},{
"label": "Las Higuerillas", "lat": 25.263505, "lng": -97.432246
},{
"label": "Las Ánimas", "lat": 25.540085, "lng": -97.594892
},{
"label": "El Ramireño (Durán González)", "lat": 25.917141, "lng": -97.789006
},{
"label": "El Mezquital", "lat": 25.243886, "lng": -97.44349
},{
"label": "La Venada (Pablo Gil)", "lat": 25.830111, "lng": -97.579683
},{
"label": "Las Yesquitas (Ernesto Gracia de la Garza)", "lat": 25.667602, "lng": -97.511709
},{
"label": "Villa Freinet [Escuela Preparatoria]", "lat": 25.813026, "lng": -97.54922
},{
"label": "La Ochenta y Dos", "lat": 25.653488, "lng": -97.608031
},{
"label": "Héctor Garza Garza", "lat": 25.934071, "lng": -97.607973
},{
"label": "El Saucito", "lat": 25.672572, "lng": -97.372789
},{
"label": "Brecha 136 con Kilómetro 83", "lat": 25.656891, "lng": -97.656187
},{
"label": "El Progreso", "lat": 25.693488, "lng": -97.392938
},{
"label": "Brecha 136 con Kilómetro 82", "lat": 25.665903, "lng": -97.656911
},{
"label": "Isla la Media Naranja", "lat": 25.344356, "lng": -97.510857
},{
"label": "La Sierrita (Marcelino Carrizales)", "lat": 26.009038, "lng": -97.889531
},{
"label": "Santo Domingo", "lat": 25.906664, "lng": -97.329104
},{
"label": "El Ebanito (Mario Hernández)", "lat": 25.942427, "lng": -97.628256
},{
"label": "La Misión (El Rincón del Chile)", "lat": 25.418173, "lng": -97.42781
},{
"label": "La Puerta", "lat": 26.002641, "lng": -97.674605
},{
"label": "Los Corrales", "lat": 25.563623, "lng": -97.472237
},{
"label": "Ramireño", "lat": 25.511951, "lng": -97.514003
},{
"label": "Los Fresnos", "lat": 25.518839, "lng": -97.722644
},{
"label": "Don Jesús [Graneros]", "lat": 25.489259, "lng": -97.815058
},{
"label": "Emilio Pedraza", "lat": 26.020202, "lng": -97.724933
},{
"label": "Santa Gertrudis", "lat": 25.641568, "lng": -97.61521
},{
"label": "La Roca", "lat": 25.901536, "lng": -97.677103
},{
"label": "Prisciliano Delgado (Antonio Reyna)", "lat": 25.931444, "lng": -97.885552
},{
"label": "La Concepción", "lat": 25.999842, "lng": -97.831791
},{
"label": "La Puerta (Hilario Valdez)", "lat": 25.977682, "lng": -97.682353
},{
"label": "Isla de Fausto Rivera", "lat": 25.382833, "lng": -97.491128
},{
"label": "San Amparo", "lat": 25.838625, "lng": -97.564723
},{
"label": "Dos de Copas", "lat": 25.839031, "lng": -97.329065
},{
"label": "El Descanso", "lat": 25.726331, "lng": -97.409623
},{
"label": "Ignacio Zaragoza", "lat": 25.865869, "lng": -97.6186
},{
"label": "Sagrado Corazón", "lat": 25.442104, "lng": -97.820755
},{
"label": "San Lorenzo (Juan José Jaramillo)", "lat": 25.631869, "lng": -97.584659
},{
"label": "Vista Nueva", "lat": 25.664223, "lng": -97.675569
},{
"label": "Pueblitos", "lat": 25.818469, "lng": -97.559811
},{
"label": "Las Casas Grandes", "lat": 25.846047, "lng": -97.14957
},{
"label": "Quinta Don Chuy", "lat": 25.800928, "lng": -97.541566
},{
"label": "El Laurel (Abel García)", "lat": 26.014596, "lng": -97.7899
},{
"label": "El Sauz", "lat": 25.691744, "lng": -97.565353
},{
"label": "Quinta Doña Fela", "lat": 25.867691, "lng": -97.567644
},{
"label": "Dora Alicia Quezada", "lat": 25.494994, "lng": -97.671969
},{
"label": "Agapito García Corpus (Brecha 136 con Kilómetro 79 Sur)", "lat": 25.695498, "lng": -97.65544
},{
"label": "Campo el Pedregal", "lat": 25.352438, "lng": -97.487716
},{
"label": "La Gloria", "lat": 25.874506, "lng": -97.621749
},{
"label": "Isla del Amor (Puntilla Sur)", "lat": 25.237646, "lng": -97.455747
},{
"label": "Isla de Pancho Hernández", "lat": 25.407213, "lng": -97.484157
},{
"label": "San Joaquín (Fructuoso de la Cruz)", "lat": 26.015833, "lng": -97.747779
},{
"label": "Predio Cantuneño (Concepción Gallaga)", "lat": 26.00845, "lng": -97.90438
},{
"label": "San Isidro", "lat": 25.715091, "lng": -97.519777
},{
"label": "La Joya", "lat": 25.7325, "lng": -97.630557
},{
"label": "Santa Adelaida (Francisco Villarreal)", "lat": 25.841448, "lng": -97.650999
},{
"label": "Feria de las Flores", "lat": 25.521276, "lng": -97.719733
},{
"label": "La Liga", "lat": 25.793838, "lng": -97.676556
},{
"label": "San Juanito", "lat": 25.729939, "lng": -97.57545
},{
"label": "Santa Irene (Gregoria Velázquez)", "lat": 25.877269, "lng": -97.630083
},{
"label": "Heroica Matamoros", "lat": 25.879915, "lng": -97.504823
},{
"label": "Los Vázquez", "lat": 25.93048, "lng": -97.288029
},{
"label": "Isla del Queso (Isla los Pelones)", "lat": 25.406812, "lng": -97.503697
},{
"label": "Las Guajolotas", "lat": 25.72221, "lng": -97.528576
},{
"label": "Antolín Álvarez Gallegos", "lat": 25.502247, "lng": -97.662646
},{
"label": "Isla la Pita", "lat": 25.351422, "lng": -97.687223
},{
"label": "Santa Irene (Jesús Rosas)", "lat": 25.870204, "lng": -97.640727
},{
"label": "Ernesto de la Garza", "lat": 25.80604, "lng": -97.544434
},{
"label": "Los Dos Arbolitos", "lat": 25.67178, "lng": -97.657646
},{
"label": "La Venada (Gabriel Hernández)", "lat": 25.814819, "lng": -97.615801
},{
"label": "La Feria", "lat": 25.547888, "lng": -97.675237
},{
"label": "Santa Trinidad (Humberto Castillo)", "lat": 25.471208, "lng": -97.787183
},{
"label": "R. R. (Roberto Rodríguez)", "lat": 25.74272, "lng": -97.473184
},{
"label": "Eloy Fuentes Hernández (Fabián Fuentes)", "lat": 25.944828, "lng": -97.755108
},{
"label": "Revolución (Modesto Cerda)", "lat": 25.875846, "lng": -97.75291
},{
"label": "La Relación (José Juan González)", "lat": 25.489776, "lng": -97.670809
},{
"label": "Kilómetro 20", "lat": 25.710389, "lng": -97.577464
},{
"label": "El Tepehuaje", "lat": 25.722442, "lng": -97.572504
},{
"label": "Javier Castañeda", "lat": 25.86093, "lng": -97.625688
},{
"label": "María Rosa (Elena de Flores)", "lat": 25.765927, "lng": -97.434944
},{
"label": "Laguna Redonda Kilómetro 7 (José Reyna Quintero)", "lat": 25.860023, "lng": -97.593463
},{
"label": "Esperanza Castillo Viuda de Arnáu", "lat": 25.666932, "lng": -97.718137
},{
"label": "Santa Rita", "lat": 25.675388, "lng": -97.566547
},{
"label": "La Sierrita (Goliat)", "lat": 25.951297, "lng": -97.889005
},{
"label": "Río Hondo (Los Lugo)", "lat": 26.018735, "lng": -97.786428
},{
"label": "San Nicolás", "lat": 25.930043, "lng": -97.586291
},{
"label": "El Sol", "lat": 25.78463, "lng": -97.637068
},{
"label": "El Ranchito y Refugio (El Refugio)", "lat": 25.842123, "lng": -97.35656
},{
"label": "La Madera", "lat": 25.782877, "lng": -97.729598
},{
"label": "Buenos Aires", "lat": 25.972768, "lng": -97.682149
},{
"label": "El Mezquite (Arturo Yáñez)", "lat": 26.016296, "lng": -97.873005
},{
"label": "Palo Blanco", "lat": 25.930648, "lng": -97.698248
},{
"label": "Los Amaro", "lat": 25.725807, "lng": -97.571117
},{
"label": "La Comunidad", "lat": 25.445169, "lng": -97.793598
},{
"label": "Román Cuéllar", "lat": 25.959842, "lng": -97.816916
},{
"label": "La Chimenea (El Paisa)", "lat": 25.311891, "lng": -97.524708
},{
"label": "San Antonio", "lat": 25.72831, "lng": -97.56831
},{
"label": "Los Olivos", "lat": 25.634717, "lng": -97.606726
},{
"label": "Las Carolinas", "lat": 25.588391, "lng": -97.49944
},{
"label": "El Caracol (Ramiro Cárdenas Rubalcava)", "lat": 25.591312, "lng": -97.513195
},{
"label": "Las Tres Lechuzas", "lat": 25.717034, "lng": -97.292328
},{
"label": "Jesús Garza Cuevas", "lat": 25.752611, "lng": -97.694723
},{
"label": "Revolución (Sergio Martínez)", "lat": 25.885992, "lng": -97.760243
},{
"label": "Don Tenos (San Román)", "lat": 25.734281, "lng": -97.573196
},{
"label": "Doctor José Arredondo", "lat": 25.92847, "lng": -97.582651
},{
"label": "La Nopalera", "lat": 25.896965, "lng": -97.30905
},{
"label": "El Ramireño (Ignacio Zúñiga)", "lat": 25.959692, "lng": -97.771809
},{
"label": "Altavista", "lat": 25.710309, "lng": -97.351344
},{
"label": "Los Nogales (Víctor Perales)", "lat": 25.840116, "lng": -97.314388
},{
"label": "El Huizachal (Cornelio Segura)", "lat": 25.803202, "lng": -97.244872
},{
"label": "Los Granados", "lat": 25.714729, "lng": -97.665823
},{
"label": "Brecha 128 de Kilómetro 81 a Carretera 82 Norte", "lat": 25.667169, "lng": -97.735764
},{
"label": "Los Girasoles [Colonia]", "lat": 25.847367, "lng": -97.352008
},{
"label": "Revolución (Flor Esthela Rodríguez)", "lat": 25.875785, "lng": -97.750943
},{
"label": "Ramón Treviño [Campo Pesquero]", "lat": 25.947251, "lng": -97.158899
},{
"label": "San Pedrito", "lat": 25.607746, "lng": -97.511092
},{
"label": "Cinco de Mayo (Eugenio Garza)", "lat": 25.561088, "lng": -97.614907
},{
"label": "El Horcón", "lat": 26.053032, "lng": -97.881243
},{
"label": "San Andrés", "lat": 25.951687, "lng": -97.739064
},{
"label": "El Sacrificio (Los Ramírez)", "lat": 25.802378, "lng": -97.273058
},{
"label": "Los Ranchitos (Clemente Arizpe)", "lat": 25.833092, "lng": -97.699845
},{
"label": "José María Morelos", "lat": 25.885091, "lng": -97.773473
},{
"label": "Dios con Nosotros (Juan Sergio) [Ejido Juanillo]", "lat": 25.873522, "lng": -97.580064
},{
"label": "Los Olmos (Alejandro García)", "lat": 25.963718, "lng": -97.724446
},{
"label": "Isla de los Sosa", "lat": 25.379064, "lng": -97.470958
},{
"label": "Isla la Fantasía", "lat": 25.237599, "lng": -97.447962
},{
"label": "La Redova (Antonio Ceballos)", "lat": 25.901867, "lng": -97.590557
},{
"label": "El Mayito", "lat": 25.496652, "lng": -97.816867
},{
"label": "Vista Hermosa (Ana Belem)", "lat": 25.900986, "lng": -97.831776
},{
"label": "Las Tres R", "lat": 25.381459, "lng": -97.90952
},{
"label": "Palo Blanco (Los Hernández)", "lat": 25.922177, "lng": -97.7184
},{
"label": "Isla de la Cruz", "lat": 25.294921, "lng": -97.578496
},{
"label": "La Barranca (El Porvenir)", "lat": 26.003863, "lng": -97.762996
},{
"label": "San Luisito (Hermenegildo Sáenz)", "lat": 25.972256, "lng": -97.67731
},{
"label": "La Herradura", "lat": 25.416139, "lng": -97.841517
},{
"label": "Venancia Vázquez", "lat": 25.84021, "lng": -97.424966
},{
"label": "Rolando Vázquez Hinojosa [Tarimas y Embalajes de Matamoros]", "lat": 25.917507, "lng": -97.576156
},{
"label": "Isla del Yosio", "lat": 25.390134, "lng": -97.501062
},{
"label": "Mar Caribe", "lat": 25.477781, "lng": -97.792166
},{
"label": "San Juan de los Lagos", "lat": 25.922261, "lng": -97.875107
},{
"label": "La Chapaneca", "lat": 25.516467, "lng": -97.727601
},{
"label": "La Jabalina", "lat": 25.567029, "lng": -97.352665
},{
"label": "Los Coyotes (Juan Delgado)", "lat": 25.754408, "lng": -97.470587
},{
"label": "Los Corrales (San Bartolo)", "lat": 25.412299, "lng": -97.658396
},{
"label": "San Bartolo", "lat": 25.455746, "lng": -97.620986
},{
"label": "MECASA Plus", "lat": 25.914216, "lng": -97.569097
},{
"label": "La Jarita Sur", "lat": 25.665954, "lng": -97.68186
},{
"label": "San Ignacio Segundo", "lat": 25.381449, "lng": -97.910949
},{
"label": "Santa Elena", "lat": 26.000033, "lng": -97.762167
},{
"label": "El Capote", "lat": 26.021195, "lng": -97.706246
},{
"label": "El Guardián", "lat": 25.462017, "lng": -97.741869
},{
"label": "El Testerazo (Francisco Salazar)", "lat": 25.826194, "lng": -97.292415
},{
"label": "Isla el Pajaral", "lat": 25.290474, "lng": -97.610831
},{
"label": "Presidente Cárdenas (Roberto Hernández Zúñiga)", "lat": 25.914408, "lng": -97.789587
},{
"label": "Iñaqui [Quinta]", "lat": 25.819208, "lng": -97.254146
},{
"label": "La Quinta", "lat": 25.701893, "lng": -97.564169
},{
"label": "La Sierrita (Juan José Cabada)", "lat": 25.998725, "lng": -97.886942
},{
"label": "Los Tres Potrillos", "lat": 25.596345, "lng": -97.379865
},{
"label": "El Potrero", "lat": 25.81985, "lng": -97.710471
},{
"label": "El Carrizal", "lat": 25.74086, "lng": -97.556991
},{
"label": "Las Rusias (Alfredo Báez)", "lat": 25.925717, "lng": -97.550104
},{
"label": "Tres Hermanas", "lat": 25.683551, "lng": -97.657385
},{
"label": "La Venada (José Guadalupe Cabello)", "lat": 25.804509, "lng": -97.626351
},{
"label": "Salinas de Guajardo", "lat": 25.366936, "lng": -97.402252
},{
"label": "Prisciliano Delgado (Francisco Rodríguez)", "lat": 25.937095, "lng": -97.916089
},{
"label": "La Reforma", "lat": 25.940956, "lng": -97.693787
},{
"label": "El Cíbolo", "lat": 25.823667, "lng": -97.193373
},{
"label": "Banco los Indios", "lat": 26.027413, "lng": -97.735042
},{
"label": "Isla de los Martínez", "lat": 25.362203, "lng": -97.473413
},{
"label": "El Alegre", "lat": 25.601195, "lng": -97.48128
},{
"label": "San Marcos", "lat": 25.855978, "lng": -97.703869
},{
"label": "Arroyo de Enmedio (Omar Cárdenas)", "lat": 25.736884, "lng": -97.526579
},{
"label": "La Puerta (Pedro González)", "lat": 25.960262, "lng": -97.667659
},{
"label": "San Juan", "lat": 25.830671, "lng": -97.381369
},{
"label": "El Juguete", "lat": 25.688771, "lng": -97.584914
},{
"label": "La Barranca (Ángel González García)", "lat": 26.006989, "lng": -97.731278
},{
"label": "La Ermita", "lat": 25.738275, "lng": -97.569999
},{
"label": "El Huizachal (Luis Hernández Barrientos)", "lat": 25.807378, "lng": -97.260836
},{
"label": "La Loma", "lat": 25.411895, "lng": -97.765749
},{
"label": "Las Margaritas (Javier González)", "lat": 25.941149, "lng": -97.854198
},{
"label": "El Ébano (Hermelinda Benavides)", "lat": 25.911406, "lng": -97.695078
},{
"label": "Isla la Rumorosa", "lat": 25.389936, "lng": -97.493493
},{
"label": "Isla el Mezquite", "lat": 25.240844, "lng": -97.460328
},{
"label": "La Esperanza", "lat": 25.391318, "lng": -97.855106
},{
"label": "Luis González", "lat": 25.797536, "lng": -97.536383
},{
"label": "Las Pencas", "lat": 25.704348, "lng": -97.577033
},{
"label": "El Longoreño (Los Becerros)", "lat": 25.824982, "lng": -97.440556
},{
"label": "La Carrera", "lat": 25.8967, "lng": -97.354423
},{
"label": "Las Cuarenta", "lat": 25.651022, "lng": -97.621112
},{
"label": "La Unión", "lat": 25.60321, "lng": -97.567343
},{
"label": "José María Morelos (Rafael Pérez)", "lat": 25.891295, "lng": -97.762452
},{
"label": "Rincón de las Bayas (Martín Ramírez)", "lat": 25.339848, "lng": -97.634048
},{
"label": "La Venada (Conrado Guel)", "lat": 25.795565, "lng": -97.577247
},{
"label": "San Fructuoso [Noé Santos García]", "lat": 25.970086, "lng": -97.69038
},{
"label": "El Ranchito y Refugio (Jesús Guzmán)", "lat": 25.823342, "lng": -97.358623
},{
"label": "Las Glorias", "lat": 25.598331, "lng": -97.460276
},{
"label": "Roberto F. García (Guadalupe Rincón)", "lat": 25.845065, "lng": -97.291857
},{
"label": "La Pradera", "lat": 25.528796, "lng": -97.70624
},{
"label": "Santa Julia", "lat": 25.629851, "lng": -97.538434
},{
"label": "Santa Mónica", "lat": 25.706544, "lng": -97.576518
},{
"label": "Los Potrillos", "lat": 25.715478, "lng": -97.507653
},{
"label": "Isla de Raúl Flores", "lat": 25.390178, "lng": -97.467324
},{
"label": "Playa Bagdad [Centro Recreativo]", "lat": 25.82717, "lng": -97.151956
},{
"label": "Palomas", "lat": 25.664959, "lng": -97.565401
},{
"label": "El Mogote de Santiago", "lat": 25.774877, "lng": -97.672044
},{
"label": "Isla de Chacón", "lat": 25.414509, "lng": -97.443972
},{
"label": "Revolución", "lat": 25.869775, "lng": -97.739459
},{
"label": "El Ebanito (Juan Zamarripa)", "lat": 25.939121, "lng": -97.624227
},{
"label": "Reyes Betancourt", "lat": 25.668715, "lng": -97.725714
},{
"label": "Los Ángeles", "lat": 25.474996, "lng": -97.632998
},{
"label": "La Adelita", "lat": 25.5155, "lng": -97.732153
},{
"label": "Prisciliano Delgado (Cruz Reyna)", "lat": 25.92897, "lng": -97.876051
},{
"label": "Las Palmas de Don Eutimio", "lat": 25.728444, "lng": -97.696683
},{
"label": "Los Cuervos (Basilio Reyes)", "lat": 25.741672, "lng": -97.43476
},{
"label": "Kilómetro 24.5", "lat": 25.986966, "lng": -97.727911
},{
"label": "Sandoval (Los Soto)", "lat": 25.886311, "lng": -97.661924
},{
"label": "Cinco de Mayo", "lat": 25.550589, "lng": -97.614166
},{
"label": "La Loma (El Chapeño)", "lat": 25.817466, "lng": -97.237117
},{
"label": "Flores", "lat": 25.56653, "lng": -97.696233
},{
"label": "El Ciruelo (Abel García Balderas)", "lat": 26.020089, "lng": -97.76261
},{
"label": "El Equanil", "lat": 25.69993, "lng": -97.580975
},{
"label": "Siete Hermanas", "lat": 25.590031, "lng": -97.621419
},{
"label": "Isla los Potros (Isla San Juan)", "lat": 25.09095, "lng": -97.531709
},{
"label": "26 de Febrero", "lat": 25.719414, "lng": -97.537864
},{
"label": "Vista Hermosa (José Luis Ruiz)", "lat": 25.898025, "lng": -97.829597
},{
"label": "El Moquete (Guadalupe García)", "lat": 25.662405, "lng": -97.566686
},{
"label": "La Engorda (Gustavo Elizondo)", "lat": 25.952554, "lng": -97.59783
},{
"label": "Los Taralles", "lat": 25.686947, "lng": -97.562657
},{
"label": "La Ribera", "lat": 25.703758, "lng": -97.396518
},{
"label": "Las Chapitas", "lat": 25.406641, "lng": -97.54387
},{
"label": "El Camaleón", "lat": 25.744227, "lng": -97.269957
},{
"label": "Sainogasim (Rancho del General)", "lat": 25.749947, "lng": -97.556449
},{
"label": "San Charbel", "lat": 25.787906, "lng": -97.534997
},{
"label": "Guadalupe", "lat": 25.927004, "lng": -97.583467
},{
"label": "Quinta Hermanos Cantú Galván", "lat": 25.577015, "lng": -97.496947
},{
"label": "El Lucero", "lat": 25.550417, "lng": -97.295714
},{
"label": "El Longoreño", "lat": 25.834152, "lng": -97.404031
},{
"label": "El Garañón", "lat": 25.572581, "lng": -97.657016
},{
"label": "Guadalupe Treviño", "lat": 25.514486, "lng": -97.650361
},{
"label": "El Huizachal (Guadalupe Manrique)", "lat": 25.820298, "lng": -97.265218
},{
"label": "San Eugenio", "lat": 25.621638, "lng": -97.532529
},{
"label": "Los Cuatro Ornelas", "lat": 25.503699, "lng": -97.750544
},{
"label": "Las Alamedas", "lat": 25.876874, "lng": -97.679206
},{
"label": "El Control", "lat": 25.960801, "lng": -97.812711
},{
"label": "Mis Tres Amores", "lat": 25.796021, "lng": -97.545989
},{
"label": "Seminario Mayor de Matamoros", "lat": 25.750575, "lng": -97.564322
},{
"label": "Progreso Agrario (Israel Martínez)", "lat": 25.950636, "lng": -97.765796
},{
"label": "Las Cruces (La Comunidad)", "lat": 25.442006, "lng": -97.796877
},{
"label": "Nacahuitas", "lat": 25.477054, "lng": -97.3682
},{
"label": "Dos Hermanos (Doctor Carlos Aguirre)", "lat": 25.845101, "lng": -97.315931
},{
"label": "Santa Adelaida (Juan Tristán)", "lat": 25.827683, "lng": -97.644806
},{
"label": "Feliciano (Miguel Villarreal Garza)", "lat": 25.793067, "lng": -97.634268
},{
"label": "Santa Susana", "lat": 25.727266, "lng": -97.569693
},{
"label": "El Mezquitito", "lat": 25.826419, "lng": -97.254413
},{
"label": "Ricardo Chapa", "lat": 25.930422, "lng": -97.856619
},{
"label": "Santa Elvira", "lat": 25.645525, "lng": -97.656259
},{
"label": "La Escuadra (Los Palomo)", "lat": 25.851698, "lng": -97.696509
},{
"label": "El Ramireño", "lat": 25.450193, "lng": -97.494555
},{
"label": "Rancho Nuevo (Los Cavazos)", "lat": 25.966421, "lng": -97.856294
},{
"label": "Carlos Isasi", "lat": 25.762974, "lng": -97.609824
},{
"label": "Las Yesquitas (Andrés Araiza)", "lat": 25.732773, "lng": -97.480203
},{
"label": "Isla el Ranchito", "lat": 25.284246, "lng": -97.613646
},{
"label": "René Cuéllar", "lat": 25.318602, "lng": -97.760917
},{
"label": "Isla del Chicote", "lat": 25.369767, "lng": -97.674168
},{
"label": "Progreso Agrario (Caseta del Canalero)", "lat": 25.961592, "lng": -97.764653
},{
"label": "La Adarga", "lat": 25.741833, "lng": -97.569559
},{
"label": "Guadalupe Lozano", "lat": 25.637609, "lng": -97.544671
},{
"label": "Los Olmos", "lat": 25.957853, "lng": -97.726644
},{
"label": "El Ramireño (Los Moyeda)", "lat": 25.936641, "lng": -97.777224
},{
"label": "Pacheco", "lat": 25.643003, "lng": -97.637043
},{
"label": "Laguna Redonda (Francisco Aguilar)", "lat": 25.873589, "lng": -97.560969
},{
"label": "Las Granjas", "lat": 25.57525, "lng": -97.654365
},{
"label": "La Venada (Amador Garza)", "lat": 25.823897, "lng": -97.571344
},{
"label": "Huizachal (Rogelio González Caballero)", "lat": 25.812217, "lng": -97.286673
},{
"label": "La Paloma (Ismael Ramírez Murillo)", "lat": 25.625301, "lng": -97.69562
},{
"label": "Sandoval (Gilberto Martínez)", "lat": 25.891734, "lng": -97.657951
},{
"label": "Brecha 136 Kilómetro 84", "lat": 25.653034, "lng": -97.657033
},{
"label": "Enrique Cárdenas", "lat": 25.593121, "lng": -97.5137
},{
"label": "El Sareño", "lat": 25.460981, "lng": -97.520844
},{
"label": "Rancho Nuevo (Mario Rendón)", "lat": 25.49374, "lng": -97.710279
},{
"label": "El Longoreño (Samuel Alcantar)", "lat": 25.817287, "lng": -97.433034
},{
"label": "Juventino Benítez", "lat": 25.430178, "lng": -97.773909
},{
"label": "Santa Eduviges", "lat": 25.797056, "lng": -97.697909
},{
"label": "La Esperanza (Juan José Leal)", "lat": 25.866619, "lng": -97.284471
},{
"label": "Cerralvo", "lat": 26.008807, "lng": -97.662705
},{
"label": "Gon Mar (Kilómetro 17.5)", "lat": 25.719674, "lng": -97.573424
},{
"label": "Los Pavorreales", "lat": 25.717505, "lng": -97.580251
},{
"label": "Isla de los Leones", "lat": 25.391841, "lng": -97.478358
},{
"label": "Maravatío", "lat": 25.426219, "lng": -97.832531
},{
"label": "Buenaventura", "lat": 25.756548, "lng": -97.715769
},{
"label": "La Media Luna (Rogelio González Caballero)", "lat": 25.74401, "lng": -97.306787
},{
"label": "R.T.G. (Rubén Treviño Galván)", "lat": 25.684098, "lng": -97.579244
},{
"label": "Isla Buenos Aires", "lat": 25.193403, "lng": -97.483551
},{
"label": "Isla los Pájaros", "lat": 25.33164, "lng": -97.523434
},{
"label": "María Isabel", "lat": 25.745751, "lng": -97.553068
},{
"label": "SCT [Campamento]", "lat": 25.483899, "lng": -97.785328
},{
"label": "Carnestolendas", "lat": 25.734775, "lng": -97.578362
},{
"label": "José Delgado", "lat": 25.896824, "lng": -97.805293
},{
"label": "La Venada (Guadalupe Garza)", "lat": 25.834794, "lng": -97.567134
},{
"label": "La Vanguardia (Manuel Arizpe)", "lat": 25.840873, "lng": -97.70101
},{
"label": "El Realito (Mario Zolezi)", "lat": 25.961468, "lng": -97.65366
},{
"label": "Cuatro Milpas", "lat": 26.054285, "lng": -97.885412
},{
"label": "La Sierrita", "lat": 25.990866, "lng": -97.889382
},{
"label": "Las Comas", "lat": 25.898701, "lng": -97.354176
},{
"label": "La Mezquitosa", "lat": 25.366691, "lng": -97.658966
},{
"label": "Abelardo de la Garza", "lat": 25.569083, "lng": -97.382561
},{
"label": "San Matías", "lat": 25.961454, "lng": -97.737314
},{
"label": "El Sabinito", "lat": 25.950472, "lng": -97.596477
},{
"label": "Alberto Medina Mendiola", "lat": 25.740804, "lng": -97.696508
},{
"label": "Los Ranchitos (Porfirio Méndez)", "lat": 25.841053, "lng": -97.688976
},{
"label": "Los Cárdenas", "lat": 26.017841, "lng": -97.800886
},{
"label": "Los Compadres", "lat": 25.93024, "lng": -97.578236
},{
"label": "La Leona", "lat": 25.637628, "lng": -97.408336
},{
"label": "El Olivo", "lat": 25.784735, "lng": -97.672334
},{
"label": "La Loma de Leña", "lat": 25.636664, "lng": -97.502991
},{
"label": "Roberto F. García", "lat": 25.844383, "lng": -97.314648
},{
"label": "Capote (Santiago Mendiola)", "lat": 26.018048, "lng": -97.726224
},{
"label": "Abel García", "lat": 26.009471, "lng": -97.823021
},{
"label": "Juan José Tobías", "lat": 25.983659, "lng": -97.783786
},{
"label": "Rincón de las Flores", "lat": 25.429772, "lng": -97.459878
},{
"label": "Isidoro García", "lat": 25.695228, "lng": -97.38551
},{
"label": "Timones (Los Ángeles)", "lat": 25.951726, "lng": -97.683954
},{
"label": "El Huizachal (Pedro Cisneros)", "lat": 25.817101, "lng": -97.248634
},{
"label": "Don José", "lat": 25.97348, "lng": -97.788404
},{
"label": "El Tahuachal (Juan Antonio Duque)", "lat": 25.94626, "lng": -97.639751
},{
"label": "Capote (Tinajitas)", "lat": 26.001547, "lng": -97.737383
},{
"label": "El Chaparral", "lat": 25.357989, "lng": -97.598983
},{
"label": "Las Violetas (Alfredo Serrato)", "lat": 25.728205, "lng": -97.715924
},{
"label": "San Roberto", "lat": 25.617657, "lng": -97.695781
},{
"label": "El Avionazo", "lat": 25.678367, "lng": -97.501358
},{
"label": "Roberto F. García (Paula Cisneros)", "lat": 25.822266, "lng": -97.283102
},{
"label": "Las Quintas", "lat": 25.834806, "lng": -97.364789
},{
"label": "Casa Blanca (Roberto Garduño)", "lat": 25.745224, "lng": -97.735654
},{
"label": "La Faja de Oro", "lat": 25.506145, "lng": -97.652949
},{
"label": "El Tepeyac", "lat": 25.583651, "lng": -97.649739
},{
"label": "Isla de Gerónimo Ramírez", "lat": 25.441128, "lng": -97.543927
},{
"label": "La Prieta", "lat": 25.368006, "lng": -97.792788
},{
"label": "Cortez (Jorge Cortez Salazar)", "lat": 25.83819, "lng": -97.338155
},{
"label": "Las Cuatitas", "lat": 25.818736, "lng": -97.457547
},{
"label": "Cabaña Santo Tomás", "lat": 25.936954, "lng": -97.584176
},{
"label": "Las Ánimas (Virgilio Cantú)", "lat": 25.533731, "lng": -97.605003
},{
"label": "El Perote", "lat": 25.914679, "lng": -97.698398
},{
"label": "Siete Lagunas", "lat": 25.589285, "lng": -97.73599
},{
"label": "Covadonga (Los Ibarra)", "lat": 25.501976, "lng": -97.755226
},{
"label": "Venustiano Carranza", "lat": 25.404368, "lng": -97.784591
},{
"label": "Caballo Blanco (Adolfo de la Garza)", "lat": 25.945647, "lng": -97.638333
},{
"label": "Los Ébanos", "lat": 25.383183, "lng": -97.793272
},{
"label": "El Banquete", "lat": 26.022093, "lng": -97.845529
},{
"label": "Los Muletos (Gustavo Guajardo)", "lat": 25.605162, "lng": -97.643794
},{
"label": "La Bartolina (Erasmo Gutiérrez)", "lat": 25.850564, "lng": -97.310251
},{
"label": "La Palangana (Ramiro Martínez)", "lat": 25.784299, "lng": -97.446037
},{
"label": "San Miguel del Chapeño", "lat": 25.438136, "lng": -97.612749
},{
"label": "El Dorado", "lat": 25.930218, "lng": -97.58451
},{
"label": "La Fe", "lat": 25.477063, "lng": -97.815526
},{
"label": "Santa Adelaida (Guadalupe Olivares)", "lat": 25.85486, "lng": -97.633206
},{
"label": "Soledad de la Mar", "lat": 25.575909, "lng": -97.384828
},{
"label": "Santa Adelaida", "lat": 25.85535, "lng": -97.650997
},{
"label": "El Moquetito", "lat": 25.492411, "lng": -97.772179
},{
"label": "Arroyo Seco", "lat": 25.921476, "lng": -97.291213
},{
"label": "Quijano", "lat": 25.506297, "lng": -97.655659
},{
"label": "Los Ébanos (Buenavista)", "lat": 25.340215, "lng": -97.723969
},{
"label": "La Loca", "lat": 25.743236, "lng": -97.317416
},{
"label": "San Lorenzo", "lat": 25.651026, "lng": -97.569092
},{
"label": "El Gomeño Viejo", "lat": 25.887922, "lng": -97.345371
},{
"label": "Instituto de Estudios Superiores de Monterrey", "lat": 25.916726, "lng": -97.569087
},{
"label": "El Tecolote (Martha Cortinas)", "lat": 25.788911, "lng": -97.411474
},{
"label": "La Brisa", "lat": 25.862028, "lng": -97.716789
},{
"label": "Arturo Cárdenas", "lat": 25.804166, "lng": -97.545926
},{
"label": "El Rubí (Los Limones)", "lat": 25.541311, "lng": -97.304953
},{
"label": "Casa del Canalero", "lat": 25.841893, "lng": -97.562512
},{
"label": "El Banco", "lat": 25.906869, "lng": -97.320961
},{
"label": "El Espejo", "lat": 25.845371, "lng": -97.571799
},{
"label": "El Álamo", "lat": 25.718483, "lng": -97.656283
},{
"label": "Revolución (Roberto Contreras)", "lat": 25.859053, "lng": -97.719164
},{
"label": "Isla de Alfonso Vázquez", "lat": 25.273763, "lng": -97.440971
},{
"label": "La Bonanza", "lat": 25.901226, "lng": -97.328669
},{
"label": "Juan Barrera de León", "lat": 25.797819, "lng": -97.731006
},{
"label": "El Refugio (Homero Munguía Castro)", "lat": 25.483278, "lng": -97.78617
},{
"label": "Joaquín García", "lat": 25.955989, "lng": -97.868307
},{
"label": "Las Tres Esquinas", "lat": 25.761126, "lng": -97.444101
},{
"label": "Brecha 128 entre Kilómetro 83 y 84", "lat": 25.655237, "lng": -97.735808
},{
"label": "Isla las Cuatas", "lat": 25.324722, "lng": -97.632501
},{
"label": "Las Chapitas (Gonzalo Pérez)", "lat": 25.398384, "lng": -97.517091
},{
"label": "Maravillas", "lat": 25.840408, "lng": -97.704061
},{
"label": "Las Higuerillas (Kilómetro 60.5)", "lat": 25.283472, "lng": -97.422423
},{
"label": "San Lorenzo (Valente Minés Cepeda)", "lat": 25.622919, "lng": -97.585566
},{
"label": "Los Rea", "lat": 25.487035, "lng": -97.816755
},{
"label": "El Ranchito", "lat": 25.861054, "lng": -97.349864
},{
"label": "El Paso de la Pita", "lat": 25.740904, "lng": -97.367216
},{
"label": "Santa Juana", "lat": 25.754795, "lng": -97.562229
},{
"label": "La Venada (José Marcelino Ramos)", "lat": 25.814251, "lng": -97.576594
},{
"label": "César Rendón", "lat": 25.746186, "lng": -97.554731
},{
"label": "La Luz (Las Margaritas)", "lat": 25.802787, "lng": -97.543894
},{
"label": "San Rafael", "lat": 25.638703, "lng": -97.546596
},{
"label": "Isla de Guadalupe Juárez", "lat": 25.417611, "lng": -97.460001
},{
"label": "El Huizachal", "lat": 25.824036, "lng": -97.292215
},{
"label": "La Libertad Número Dos", "lat": 25.369453, "lng": -97.809543
},{
"label": "El Refugio", "lat": 25.856845, "lng": -97.707028
},{
"label": "La Rosita (Federico García)", "lat": 25.858305, "lng": -97.621389
},{
"label": "Los Pericos", "lat": 25.915961, "lng": -97.535484
},{
"label": "Santa Rosa (Pedro Villalobos)", "lat": 25.917989, "lng": -97.858686
},{
"label": "Granja Acuícola de Matamoros", "lat": 25.370678, "lng": -97.421211
},{
"label": "La Sierrita (Simón Quintero)", "lat": 25.94427, "lng": -97.890106
},{
"label": "El Moro", "lat": 25.835986, "lng": -97.321699
},{
"label": "La Brigada", "lat": 26.000397, "lng": -97.650048
},{
"label": "La Tijerita (La Segunda Brecha)", "lat": 25.731357, "lng": -97.570344
},{
"label": "La Lomita", "lat": 25.918469, "lng": -97.305423
},{
"label": "Miramar del Caracol", "lat": 25.58673, "lng": -97.504411
},{
"label": "Loma Prieta", "lat": 25.502988, "lng": -97.401874
},{
"label": "La Amistad", "lat": 25.773019, "lng": -97.41274
},{
"label": "La Laguna", "lat": 25.882733, "lng": -97.730182
},{
"label": "El Alto", "lat": 25.857816, "lng": -97.710394
},{
"label": "Las Yesquitas", "lat": 25.709823, "lng": -97.494569
},{
"label": "El Solito (Ricardo Guerra)", "lat": 25.988679, "lng": -97.685041
},{
"label": "El Borbollón (El Llano)", "lat": 25.745266, "lng": -97.59966
},{
"label": "La Ventana (Sebastián Acosta)", "lat": 25.884869, "lng": -97.589301
},{
"label": "El Ramireño (Juan González)", "lat": 25.963078, "lng": -97.766813
},{
"label": "Los Becerros", "lat": 25.860956, "lng": -97.2935
},{
"label": "Las Margaritas", "lat": 25.558182, "lng": -97.654753
},{
"label": "Armando Salazar Ledezma", "lat": 25.748336, "lng": -97.725593
},{
"label": "La Granja", "lat": 26.013049, "lng": -97.780254
},{
"label": "Los Carrizos", "lat": 25.590048, "lng": -97.385972
},{
"label": "El Naranjo (Alfonso Bedoya)", "lat": 25.732886, "lng": -97.717095
},{
"label": "Aarón Rodríguez", "lat": 25.547365, "lng": -97.300937
},{
"label": "La Rosita", "lat": 26.010831, "lng": -97.692654
},{
"label": "El Ciprés", "lat": 25.791307, "lng": -97.712674
},{
"label": "El Silencio del Caracol", "lat": 25.574127, "lng": -97.497659
},{
"label": "La Paloma", "lat": 25.841072, "lng": -97.704118
},{
"label": "Ernesto Martínez", "lat": 25.453475, "lng": -97.641484
},{
"label": "La Providencia", "lat": 25.614089, "lng": -97.428621
},{
"label": "Santa Adelaida (Hermenegildo de la Cruz)", "lat": 25.852921, "lng": -97.659407
},{
"label": "El Ebanito (Oscar Javier Reyes)", "lat": 25.937891, "lng": -97.621616
},{
"label": "El Diamante [Quinta]", "lat": 25.970644, "lng": -97.694628
},{
"label": "Prisciliano Delgado (Rodolfo Reyna)", "lat": 25.929338, "lng": -97.885446
},{
"label": "La Morita", "lat": 25.653205, "lng": -97.651006
},{
"label": "Rancho de los Suárez", "lat": 26.002834, "lng": -97.770121
},{
"label": "Veinticinco de Enero (Los Cuervos)", "lat": 25.755783, "lng": -97.440672
},{
"label": "María Teresa", "lat": 25.696445, "lng": -97.575142
},{
"label": "El Soliseño (Don Anselmo)", "lat": 25.985218, "lng": -97.728881
},{
"label": "Ampliación la Tijerita Sección 3 y 4", "lat": 25.733015, "lng": -97.545012
},{
"label": "San Fructuoso [María Clara Barrón]", "lat": 25.969367, "lng": -97.691239
},{
"label": "Juanillo (Carlos González)", "lat": 25.87182, "lng": -97.582624
},{
"label": "Santa Margarita", "lat": 25.609266, "lng": -97.389807
},{
"label": "Guadalupe García", "lat": 25.477109, "lng": -97.796722
},{
"label": "Rancho 820", "lat": 25.66692, "lng": -97.65424
},{
"label": "Santa Adelaida (Juan Alonso)", "lat": 25.836468, "lng": -97.653667
},{
"label": "San Rafael de Buenos Aires", "lat": 25.96765, "lng": -97.686996
},{
"label": "El Trece", "lat": 25.407644, "lng": -97.899508
},{
"label": "La Loma del Alacrán", "lat": 25.796903, "lng": -97.192641
},{
"label": "Tres Esquinas (Severiano Venadito)", "lat": 25.855979, "lng": -97.575898
},{
"label": "La Luz (Mario Torres)", "lat": 25.797528, "lng": -97.547017
},{
"label": "Los Armadillos", "lat": 25.80948, "lng": -97.282007
},{
"label": "Santa Trinidad Kilómetro 18 (Celia Guízar)", "lat": 25.839144, "lng": -97.342313
},{
"label": "El Gallo (Quirino Treviño)", "lat": 25.615589, "lng": -97.610443
},{
"label": "Padilla", "lat": 25.494226, "lng": -97.816679
},{
"label": "Palmeras", "lat": 25.541495, "lng": -97.687225
},{
"label": "Las Moras (Humberto García)", "lat": 26.008135, "lng": -97.777036
},{
"label": "Estero Verde", "lat": 25.837406, "lng": -97.283955
},{
"label": "El Galaneño (Arnulfo Gracia)", "lat": 25.760097, "lng": -97.565391
},{
"label": "Santa Irene (Dorotea Alanís Olivares)", "lat": 25.87287, "lng": -97.626233
},{
"label": "Las Rusias (Pedro Báez)", "lat": 25.923884, "lng": -97.559479
},{
"label": "Daniel Suárez", "lat": 26.008479, "lng": -97.777738
},{
"label": "El Longoreño (Ciro González)", "lat": 25.796108, "lng": -97.39325
},{
"label": "La Yerbajosa", "lat": 25.780568, "lng": -97.380678
},{
"label": "La Tijerita (Rubén Garza)", "lat": 25.730778, "lng": -97.562007
},{
"label": "Soliseño", "lat": 26.023606, "lng": -97.80886
},{
"label": "El Valle", "lat": 25.712935, "lng": -97.418538
},{
"label": "El Chubasco", "lat": 25.832556, "lng": -97.305856
},{
"label": "Tres Hermanos (Efraín Martínez) [Granja]", "lat": 25.933316, "lng": -97.58692
},{
"label": "Paraíso (José Fallet)", "lat": 25.831338, "lng": -97.304359
},{
"label": "Marieta", "lat": 25.556068, "lng": -97.716928
},{
"label": "La Altamira", "lat": 26.012544, "lng": -97.695741
},{
"label": "Arroyo de Enmedio (Lozano Salinas)", "lat": 25.74477, "lng": -97.507113
}]