[{
"label": "La Alberca", "lat": 26.38464, "lng": -99.132323
},{
"label": "Dos Potrillos", "lat": 26.418227, "lng": -99.217331
},{
"label": "Los Maldonado", "lat": 26.431183, "lng": -99.402726
},{
"label": "Joel H. P. (Lampacitos Viejo)", "lat": 26.327041, "lng": -99.15904
},{
"label": "San Dieguito (Los García)", "lat": 26.458715, "lng": -99.178553
},{
"label": "Ninguno [Campo de Tiro]", "lat": 26.384508, "lng": -99.10936
},{
"label": "La Presa (Martín Javier)", "lat": 26.310164, "lng": -99.122954
},{
"label": "Horacio Ramos", "lat": 26.447179, "lng": -99.26767
},{
"label": "Palo Blanco (R. B.)", "lat": 26.543873, "lng": -99.305797
},{
"label": "Santo Domingo Sur", "lat": 26.314015, "lng": -99.314932
},{
"label": "La Guadiana", "lat": 26.259686, "lng": -99.236802
},{
"label": "Falcón", "lat": 26.539437, "lng": -99.324054
},{
"label": "La Gloria", "lat": 26.509761, "lng": -99.177857
},{
"label": "Chicharrones", "lat": 26.357813, "lng": -99.347441
},{
"label": "Las Blancas Dos", "lat": 26.431866, "lng": -99.204086
},{
"label": "Quinta las Acacias (Ramón Ríos González)", "lat": 26.394666, "lng": -99.172117
},{
"label": "El Sótano", "lat": 26.447222, "lng": -99.108056
},{
"label": "Ramón Ríos", "lat": 26.313298, "lng": -99.185644
},{
"label": "Kilómetro 22 [Aduana]", "lat": 26.529389, "lng": -99.369676
},{
"label": "El Pescadito", "lat": 26.513675, "lng": -99.2815
},{
"label": "El Coronel", "lat": 26.554939, "lng": -99.185265
},{
"label": "La Ceja", "lat": 26.289947, "lng": -99.272356
},{
"label": "El Amolillo", "lat": 26.397731, "lng": -99.408196
},{
"label": "San Luis", "lat": 26.399275, "lng": -99.205617
},{
"label": "Huatempo III", "lat": 26.387495, "lng": -99.336274
},{
"label": "Kilómetro 22 (Aduana)", "lat": 26.381683, "lng": -99.229854
},{
"label": "Fidel Ramos", "lat": 26.47567, "lng": -99.220252
},{
"label": "Los Barrera (Pasito Nuevo)", "lat": 26.392664, "lng": -99.259386
},{
"label": "El Cerrito", "lat": 26.420114, "lng": -99.200251
},{
"label": "La Isla", "lat": 26.421845, "lng": -99.109436
},{
"label": "El Cuarenta y Siete (Héctor Chapa Rodríguez)", "lat": 26.503046, "lng": -99.112615
},{
"label": "Ninguno", "lat": 26.392413, "lng": -99.214164
},{
"label": "La Pita", "lat": 26.3486, "lng": -99.122301
},{
"label": "Las Adjuntas", "lat": 26.423856, "lng": -99.113121
},{
"label": "Agua Negra", "lat": 26.531284, "lng": -99.286404
},{
"label": "El Troncón", "lat": 26.303954, "lng": -99.22709
},{
"label": "Los Duraznos", "lat": 26.381639, "lng": -99.184002
},{
"label": "Jesús Gómez", "lat": 26.4234, "lng": -99.336261
},{
"label": "Raúl Flores", "lat": 26.451299, "lng": -99.153505
},{
"label": "El Cañón II", "lat": 26.490027, "lng": -99.254369
},{
"label": "Nueve Hermanos", "lat": 26.343818, "lng": -99.198598
},{
"label": "Los Cazadores", "lat": 26.353429, "lng": -99.224944
},{
"label": "Malahueco Norte", "lat": 26.431049, "lng": -99.387003
},{
"label": "Los Mascorro (Los Tocayos)", "lat": 26.431386, "lng": -99.234939
},{
"label": "Mier", "lat": 26.43047, "lng": -99.148694
},{
"label": "José Régulo", "lat": 26.456704, "lng": -99.233702
},{
"label": "El Cañón IV", "lat": 26.492408, "lng": -99.244856
},{
"label": "Los Ochoa", "lat": 26.487884, "lng": -99.100255
},{
"label": "Las Morenas", "lat": 26.486904, "lng": -99.168336
},{
"label": "Los Guerra Sur", "lat": 26.337167, "lng": -99.283875
},{
"label": "La Barranca", "lat": 26.418487, "lng": -99.368312
},{
"label": "El Puerto", "lat": 26.337462, "lng": -99.269847
},{
"label": "Las Auras", "lat": 26.407405, "lng": -99.326913
},{
"label": "El Tanquecito", "lat": 26.304292, "lng": -99.261846
},{
"label": "Palo Blanco", "lat": 26.451224, "lng": -99.162171
},{
"label": "Bayo Perdido", "lat": 26.540698, "lng": -99.353292
},{
"label": "Advento Guerra (Kilómetro 24)", "lat": 26.367391, "lng": -99.251554
},{
"label": "El Canaleño (Ovidio Garza)", "lat": 26.450764, "lng": -99.289269
},{
"label": "Magueyes", "lat": 26.348166, "lng": -99.151761
},{
"label": "El Papalote", "lat": 26.459183, "lng": -99.125228
},{
"label": "Huatempo", "lat": 26.401538, "lng": -99.341955
},{
"label": "El Paso del Cántaro (Alberto Garza Gutiérrez)", "lat": 26.454539, "lng": -99.15296
},{
"label": "El Panalate", "lat": 26.568277, "lng": -99.265571
},{
"label": "La Reforma Dos", "lat": 26.337929, "lng": -99.196113
},{
"label": "La Malaca", "lat": 26.326081, "lng": -99.179608
},{
"label": "El Huizachal", "lat": 26.473168, "lng": -99.378918
},{
"label": "El Canaleño I", "lat": 26.410846, "lng": -99.281396
},{
"label": "Las Blancas", "lat": 26.42546, "lng": -99.203559
},{
"label": "Las Lajitas", "lat": 26.445753, "lng": -99.400983
},{
"label": "El Cañón III", "lat": 26.495556, "lng": -99.261389
},{
"label": "Los Pitayos", "lat": 26.485102, "lng": -99.178659
},{
"label": "Las Anacuas", "lat": 26.419569, "lng": -99.374476
},{
"label": "Los Cuatro Hermanos", "lat": 26.354203, "lng": -99.182214
},{
"label": "El Embudo", "lat": 26.401266, "lng": -99.200514
},{
"label": "La Crucillosa", "lat": 26.313426, "lng": -99.196759
},{
"label": "Paso de las Blancas", "lat": 26.41876, "lng": -99.209128
},{
"label": "El Capitán", "lat": 26.493565, "lng": -99.142053
},{
"label": "El Canteado", "lat": 26.518743, "lng": -99.135107
},{
"label": "Roberto Ibáñez", "lat": 26.503618, "lng": -99.251299
},{
"label": "El Palmerito", "lat": 26.452771, "lng": -99.378807
},{
"label": "San Felipe", "lat": 26.415822, "lng": -99.220483
},{
"label": "La Viuda de Salinas", "lat": 26.361807, "lng": -99.167512
},{
"label": "Oscar Garza", "lat": 26.462896, "lng": -99.32298
},{
"label": "Las Jaras", "lat": 26.455633, "lng": -99.102476
},{
"label": "La Loma (Huatempo)", "lat": 26.405797, "lng": -99.352152
},{
"label": "La Herradura", "lat": 26.453821, "lng": -99.340673
},{
"label": "Huatempo (Ramírez)", "lat": 26.407083, "lng": -99.366433
},{
"label": "La Bodega", "lat": 26.555226, "lng": -99.228133
},{
"label": "San Blas", "lat": 26.519499, "lng": -99.375671
},{
"label": "Cipad", "lat": 26.389152, "lng": -99.217927
},{
"label": "El Guajolotito", "lat": 26.565419, "lng": -99.267257
},{
"label": "La Morita", "lat": 26.282978, "lng": -99.192041
},{
"label": "Huatempo Anacuas", "lat": 26.402529, "lng": -99.332744
},{
"label": "El Milagro (Alfonso Velasco Alanís)", "lat": 26.449856, "lng": -99.143349
},{
"label": "Chapys", "lat": 26.473666, "lng": -99.121291
},{
"label": "Malahuecos Sur", "lat": 26.411558, "lng": -99.379758
},{
"label": "Francisco Rodríguez", "lat": 26.407917, "lng": -99.402663
},{
"label": "Los Guajes", "lat": 26.538373, "lng": -99.178133
},{
"label": "Los Vecinos", "lat": 26.418994, "lng": -99.179438
},{
"label": "La Mezquitosa", "lat": 26.449559, "lng": -99.17306
},{
"label": "Agua Prieta", "lat": 26.50941, "lng": -99.32922
},{
"label": "Onésimo Tamez", "lat": 26.494841, "lng": -99.340008
},{
"label": "El Ebanito", "lat": 26.497603, "lng": -99.198729
},{
"label": "Salinillas", "lat": 26.55646, "lng": -99.251601
},{
"label": "El Canaleño II", "lat": 26.461945, "lng": -99.306093
},{
"label": "El Panalar", "lat": 26.564456, "lng": -99.263465
},{
"label": "Matamoritos", "lat": 26.510538, "lng": -99.118333
},{
"label": "Las Víboras (Rufino Martínez)", "lat": 26.554418, "lng": -99.232037
},{
"label": "Nueva Creación", "lat": 26.489798, "lng": -99.220729
},{
"label": "Garza", "lat": 26.408879, "lng": -99.360586
},{
"label": "El Abra (El Ebanito)", "lat": 26.494806, "lng": -99.205073
},{
"label": "La Aeropista", "lat": 26.521291, "lng": -99.150696
},{
"label": "San Martín", "lat": 26.328683, "lng": -99.22728
},{
"label": "El Rameño", "lat": 26.434323, "lng": -99.240057
},{
"label": "La Reforma Cuatro", "lat": 26.332008, "lng": -99.178872
},{
"label": "El Jabalí", "lat": 26.406487, "lng": -99.313872
},{
"label": "Ramos", "lat": 26.497453, "lng": -99.183053
},{
"label": "El Saucito", "lat": 26.531169, "lng": -99.173181
},{
"label": "El Canaleño", "lat": 26.41772, "lng": -99.312669
},{
"label": "El Canaleño Viejo", "lat": 26.399848, "lng": -99.283731
},{
"label": "El Pasadizo", "lat": 26.320418, "lng": -99.196095
},{
"label": "El Rodeo", "lat": 26.433736, "lng": -99.134891
},{
"label": "C. J.", "lat": 26.451369, "lng": -99.154397
},{
"label": "Hipólito Ríos", "lat": 26.342448, "lng": -99.188277
},{
"label": "Los Ramos", "lat": 26.454251, "lng": -99.112474
},{
"label": "Las Dos Comas (José Daniel Cavazos Cortés)", "lat": 26.395792, "lng": -99.172255
},{
"label": "La Aduana", "lat": 26.561686, "lng": -99.200585
},{
"label": "El Saladito", "lat": 26.339793, "lng": -99.166711
},{
"label": "Santo Domingo", "lat": 26.328093, "lng": -99.317452
},{
"label": "La Ermita", "lat": 26.42462, "lng": -99.219377
},{
"label": "Rosie", "lat": 26.414776, "lng": -99.210763
},{
"label": "El Milagro", "lat": 26.447211, "lng": -99.331211
},{
"label": "Mezquitosa", "lat": 26.43892, "lng": -99.17899
},{
"label": "Lampacitos", "lat": 26.288666, "lng": -99.170016
},{
"label": "Chilpitín", "lat": 26.397553, "lng": -99.203291
},{
"label": "Guerra Díaz", "lat": 26.492959, "lng": -99.320106
},{
"label": "El Coyote", "lat": 26.329471, "lng": -99.362783
},{
"label": "Los García", "lat": 26.373417, "lng": -99.293119
},{
"label": "Orly", "lat": 26.391427, "lng": -99.213212
},{
"label": "La Barreta", "lat": 26.497116, "lng": -99.164367
},{
"label": "Paula Ramírez", "lat": 26.54134, "lng": -99.393821
},{
"label": "El Cañón", "lat": 26.521425, "lng": -99.22845
},{
"label": "San Mateo", "lat": 26.401025, "lng": -99.142121
},{
"label": "Los Girasoles", "lat": 26.443953, "lng": -99.22654
}]