[{
"label": "El Aserradero", "lat": 23.694875, "lng": -99.749552
},{
"label": "Valle Hermoso", "lat": 23.66147, "lng": -99.755289
},{
"label": "Altamira", "lat": 23.455717, "lng": -99.628597
},{
"label": "Carretera Palmillas Miquihuana Kilómetro 38.6", "lat": 23.567574, "lng": -99.734135
},{
"label": "San Pablo", "lat": 23.776864, "lng": -99.702286
},{
"label": "Servando Canales (La Arena)", "lat": 23.610175, "lng": -99.878506
},{
"label": "Los Compadres", "lat": 23.430918, "lng": -99.613084
},{
"label": "Xojolzilt", "lat": 23.582483, "lng": -99.765302
},{
"label": "La Perdida", "lat": 23.545963, "lng": -99.858277
},{
"label": "La Peña", "lat": 23.559219, "lng": -99.686767
},{
"label": "El Cedrito", "lat": 23.590239, "lng": -99.760758
},{
"label": "El Huipanguillo (Mauro Hernández)", "lat": 23.680366, "lng": -99.812545
},{
"label": "El Chamizal (Rufino Cruz Carrizal)", "lat": 23.556455, "lng": -99.855655
},{
"label": "Buenavista (Guadalupe Puente Verdinez)", "lat": 23.658049, "lng": -99.789068
},{
"label": "Miquihuana", "lat": 23.57395, "lng": -99.754197
},{
"label": "Estanque de los Walle", "lat": 23.572034, "lng": -99.857493
},{
"label": "La Lagunita (El Cenizo)", "lat": 23.776651, "lng": -99.712764
},{
"label": "Ezequiel Puente", "lat": 23.645729, "lng": -99.771252
},{
"label": "San José del Llano", "lat": 23.535241, "lng": -99.934677
},{
"label": "La Tristeza", "lat": 23.565648, "lng": -99.774915
},{
"label": "Estanque de los Eguía", "lat": 23.562621, "lng": -99.929808
},{
"label": "Marcela", "lat": 23.750582, "lng": -99.81885
},{
"label": "El Volcán", "lat": 23.587742, "lng": -99.770628
},{
"label": "El Divisadero", "lat": 23.512435, "lng": -99.850031
},{
"label": "Marcos Mejía", "lat": 23.49653, "lng": -99.638327
}]