[{
"label": "La Alberca", "lat": 22.418651, "lng": -99.223026
},{
"label": "Dos Potrillos", "lat": 22.540711, "lng": -99.210218
},{
"label": "El Recuerdo", "lat": 22.525898, "lng": -99.202991
},{
"label": "Los Romero", "lat": 22.530793, "lng": -99.248612
},{
"label": "San Lorenzo (La Pita)", "lat": 22.526774, "lng": -99.208467
},{
"label": "San Felipe", "lat": 22.447414, "lng": -99.136838
},{
"label": "El Paraíso", "lat": 22.543561, "lng": -99.234647
},{
"label": "Nuevo Morelos", "lat": 22.534471, "lng": -99.221333
},{
"label": "Miguel Hidalgo (Crucero del Toro)", "lat": 22.531825, "lng": -99.237328
},{
"label": "El Mirador", "lat": 22.535278, "lng": -99.263611
},{
"label": "Emiliano Zapata", "lat": 22.450769, "lng": -99.203166
},{
"label": "El Imán", "lat": 22.527033, "lng": -99.266602
},{
"label": "San Fernando (Melia Nájera)", "lat": 22.501201, "lng": -99.18513
},{
"label": "Chijoles", "lat": 22.544444, "lng": -99.226186
},{
"label": "Fracción Rancho Nuevo (La Presa)", "lat": 22.512956, "lng": -99.180967
},{
"label": "La Herradura", "lat": 22.525694, "lng": -99.213643
},{
"label": "San Manuel (La Reata)", "lat": 22.481755, "lng": -99.151661
},{
"label": "Albergue para Cortadores de Caña", "lat": 22.533229, "lng": -99.223988
},{
"label": "Miguel Hidalgo (San Juanito)", "lat": 22.532981, "lng": -99.233302
},{
"label": "Cruz Grande", "lat": 22.441667, "lng": -99.2325
},{
"label": "El Consuelo", "lat": 22.416279, "lng": -99.127779
},{
"label": "La Fortuna", "lat": 22.427976, "lng": -99.131811
},{
"label": "Santa Fe", "lat": 22.49705, "lng": -99.20698
},{
"label": "La Morita", "lat": 22.454613, "lng": -99.140991
},{
"label": "Las Trancas", "lat": 22.53089, "lng": -99.213804
},{
"label": "El Divisadero", "lat": 22.457782, "lng": -99.142746
},{
"label": "El Capricho", "lat": 22.417743, "lng": -99.163268
},{
"label": "La Rivera", "lat": 22.445651, "lng": -99.137121
},{
"label": "El Huasteco", "lat": 22.493135, "lng": -99.158209
},{
"label": "San Jorge", "lat": 22.493009, "lng": -99.200551
},{
"label": "Santa Irene", "lat": 22.486031, "lng": -99.234883
},{
"label": "Santa Rosa", "lat": 22.516419, "lng": -99.244403
},{
"label": "El Terrero 1", "lat": 22.596032, "lng": -99.266014
},{
"label": "La Palma", "lat": 22.491425, "lng": -99.190359
},{
"label": "El Terrero 3", "lat": 22.603532, "lng": -99.258121
},{
"label": "El Terrero 2", "lat": 22.601665, "lng": -99.257598
},{
"label": "La Reforma", "lat": 22.507056, "lng": -99.17072
},{
"label": "La Coma (La Comita)", "lat": 22.539082, "lng": -99.228163
},{
"label": "Santa Carolina", "lat": 22.488719, "lng": -99.203842
},{
"label": "San Ángel", "lat": 22.488937, "lng": -99.226268
},{
"label": "San Juan", "lat": 22.557054, "lng": -99.246004
},{
"label": "Ampliación de la Reforma", "lat": 22.472606, "lng": -99.228656
},{
"label": "Los Corrales", "lat": 22.548511, "lng": -99.233615
},{
"label": "El Jordán", "lat": 22.430902, "lng": -99.132772
},{
"label": "San Vicente (Blas Berlanga Portes)", "lat": 22.57339, "lng": -99.253918
},{
"label": "Francisco Villa", "lat": 22.469744, "lng": -99.150929
},{
"label": "Guadalupe Pulido Córdova", "lat": 22.512801, "lng": -99.170935
},{
"label": "La Soledad", "lat": 22.417988, "lng": -99.130393
},{
"label": "Santa Cruz del Toro", "lat": 22.494482, "lng": -99.246823
},{
"label": "El Porvenir", "lat": 22.593676, "lng": -99.288044
},{
"label": "La Valenciana", "lat": 22.530437, "lng": -99.255854
},{
"label": "Rancho Nuevo", "lat": 22.51766, "lng": -99.181018
},{
"label": "Tres Hermanos", "lat": 22.437787, "lng": -99.135567
},{
"label": "San Diego (San Dieguito)", "lat": 22.45243, "lng": -99.13942
},{
"label": "San Mateo", "lat": 22.436093, "lng": -99.132556
},{
"label": "San Gerardo", "lat": 22.424414, "lng": -99.12989
}]