[{
"label": "Tampico", "lat": 22.21606, "lng": -97.858387
},{
"label": "Isleta Guillermo Sandoval Ruiz", "lat": 22.316144, "lng": -97.951239
},{
"label": "Cruz Grande (Cruz de los Ríos)", "lat": 22.325374, "lng": -97.958879
},{
"label": "Isleta Vicente Manuel Díaz", "lat": 22.293373, "lng": -97.945163
},{
"label": "La Isleta (Río Tamesí)", "lat": 22.291054, "lng": -97.944289
},{
"label": "La Isleta Río Tamesí (Cruz Chica)", "lat": 22.263885, "lng": -97.9147
},{
"label": "Cruz Grande (Estero del Camalote)", "lat": 22.323604, "lng": -97.973312
}]