[{
"label": "Palapa el Rancho", "lat": 24.482137, "lng": -99.50784
},{
"label": "General Lucio Blanco", "lat": 24.733046, "lng": -99.402084
},{
"label": "San Lázaro", "lat": 24.57395, "lng": -99.208329
},{
"label": "Candelario Reyes (La Noria)", "lat": 24.415673, "lng": -99.527728
},{
"label": "Las Lajitas (Las Lajitas de los González)", "lat": 24.511672, "lng": -99.381069
},{
"label": "Veintiuno de Enero", "lat": 24.695399, "lng": -99.392497
},{
"label": "La Noria", "lat": 24.462036, "lng": -99.506773
},{
"label": "Loreto", "lat": 24.484831, "lng": -99.535568
},{
"label": "San Antonio de Arriba", "lat": 24.504044, "lng": -99.572193
},{
"label": "Arroyo del Berna", "lat": 24.464181, "lng": -99.567764
},{
"label": "El Pedregal", "lat": 24.657476, "lng": -99.211834
},{
"label": "El Tejedeño (María Dolores)", "lat": 24.518483, "lng": -99.342747
},{
"label": "Charcos el Faro", "lat": 24.456516, "lng": -99.295125
},{
"label": "Los Alcocer (Diecinueve de Marzo)", "lat": 24.562622, "lng": -99.297468
},{
"label": "Dueñas", "lat": 24.448812, "lng": -99.545207
},{
"label": "Ranchería Juárez (Juárez)", "lat": 24.515873, "lng": -99.442089
},{
"label": "La Alberquita", "lat": 24.672393, "lng": -99.19562
},{
"label": "Nogalar", "lat": 24.442926, "lng": -99.575739
},{
"label": "Candelario Reyes (San José)", "lat": 24.402754, "lng": -99.541555
},{
"label": "General Manuel Ávila Camacho", "lat": 24.548943, "lng": -99.364898
},{
"label": "Santa Fe", "lat": 24.648568, "lng": -99.302475
},{
"label": "La Majada (Enedino Pineda Barrera)", "lat": 24.634254, "lng": -99.247226
},{
"label": "El Arcabuz", "lat": 24.540824, "lng": -99.491681
},{
"label": "Silverio Guerrero (La Navidad)", "lat": 24.45535, "lng": -99.567203
},{
"label": "Punta del Cerro", "lat": 24.535673, "lng": -99.544647
},{
"label": "El Oro", "lat": 24.743042, "lng": -99.37176
},{
"label": "Ninguno", "lat": 24.448645, "lng": -99.497525
},{
"label": "San Agustín", "lat": 24.486185, "lng": -99.528036
},{
"label": "El Milenio", "lat": 24.721966, "lng": -99.366379
},{
"label": "La Rosita [Estación Microondas]", "lat": 24.485183, "lng": -99.492456
},{
"label": "El Pavo (El Trece)", "lat": 24.565758, "lng": -99.429835
},{
"label": "Rancho 27", "lat": 24.714133, "lng": -99.292809
},{
"label": "Jesús González Ortega", "lat": 24.405136, "lng": -99.409961
},{
"label": "Guadalupe", "lat": 24.44832, "lng": -99.534067
},{
"label": "Puerto Rico", "lat": 24.533465, "lng": -99.452481
},{
"label": "Treviño", "lat": 24.413783, "lng": -99.327165
},{
"label": "La Nutria", "lat": 24.420297, "lng": -99.501664
},{
"label": "José María Morelos (San Juan)", "lat": 24.667317, "lng": -99.350934
},{
"label": "El Palmarito", "lat": 24.498922, "lng": -99.216389
},{
"label": "La Palestina", "lat": 24.467535, "lng": -99.350914
},{
"label": "El Espinazo", "lat": 24.425168, "lng": -99.565555
},{
"label": "Cerritos", "lat": 24.445645, "lng": -99.554548
},{
"label": "Campoamor", "lat": 24.489465, "lng": -99.307124
},{
"label": "General Jesús Carranza (Sabinitos)", "lat": 24.445487, "lng": -99.487483
},{
"label": "Rosina", "lat": 24.441427, "lng": -99.5014
},{
"label": "Hilario Casanova Vega", "lat": 24.681847, "lng": -99.227744
},{
"label": "Los Reyes (Olegario Iracheta Reyes)", "lat": 24.388561, "lng": -99.519135
},{
"label": "Bella Vista (Rancho Nuevo)", "lat": 24.539714, "lng": -99.53473
},{
"label": "Trece de Febrero", "lat": 24.419399, "lng": -99.309259
},{
"label": "Las Lajitas (Lajitas de los Hernández)", "lat": 24.529482, "lng": -99.213386
},{
"label": "La Paz", "lat": 24.509247, "lng": -99.529193
},{
"label": "La Purísima Floreña", "lat": 24.409235, "lng": -99.460749
},{
"label": "El Papalote (Los Fresnos)", "lat": 24.510052, "lng": -99.277154
},{
"label": "Gilberto Cantú Tamez", "lat": 24.507386, "lng": -99.529725
},{
"label": "Las Lajitas", "lat": 24.488317, "lng": -99.511448
},{
"label": "San Ignacio", "lat": 24.487599, "lng": -99.517165
},{
"label": "La Mesa", "lat": 24.471043, "lng": -99.475476
},{
"label": "La Piedra", "lat": 24.688358, "lng": -99.224746
},{
"label": "Guadalupe de San Lázaro (Guadalupe)", "lat": 24.600459, "lng": -99.224776
},{
"label": "Los Ángeles (Ángel Macías)", "lat": 24.608285, "lng": -99.412759
},{
"label": "Alonso González Olazarán", "lat": 24.523299, "lng": -99.441409
},{
"label": "El Limón", "lat": 24.548217, "lng": -99.520254
},{
"label": "Marzo Tres (Santa Anita)", "lat": 24.573981, "lng": -99.286809
},{
"label": "El Paraíso (Las Paguas)", "lat": 24.471234, "lng": -99.500812
},{
"label": "La Crucita (San Francisco)", "lat": 24.475622, "lng": -99.52366
},{
"label": "Los Charcos", "lat": 24.435256, "lng": -99.285446
},{
"label": "La Presa", "lat": 24.460019, "lng": -99.5175
},{
"label": "Los Buentello", "lat": 24.444153, "lng": -99.573053
},{
"label": "El Sendero (San Roberto)", "lat": 24.470135, "lng": -99.380111
},{
"label": "Candelario Reyes (La Boquilla)", "lat": 24.427173, "lng": -99.519447
},{
"label": "Candelario Reyes (Amado García Silva)", "lat": 24.387466, "lng": -99.532659
},{
"label": "El Mesteño (San Juanito)", "lat": 24.666036, "lng": -99.344386
},{
"label": "Los Encinos", "lat": 24.417881, "lng": -99.48244
},{
"label": "El Texano", "lat": 24.560553, "lng": -99.402044
},{
"label": "Candelario Reyes (La Palma)", "lat": 24.423854, "lng": -99.527521
},{
"label": "La Puente (La Marina)", "lat": 24.460047, "lng": -99.446448
},{
"label": "El Tambor", "lat": 24.455466, "lng": -99.437591
},{
"label": "Unión Rodríguez", "lat": 24.532724, "lng": -99.455903
},{
"label": "El Lobo", "lat": 24.771228, "lng": -99.261589
},{
"label": "Nicolás Flores (Barretas)", "lat": 24.527218, "lng": -99.473233
},{
"label": "El Porvenir (La Esperanza)", "lat": 24.543583, "lng": -99.280128
},{
"label": "San Fausto (Vacas Bravas)", "lat": 24.483738, "lng": -99.221277
},{
"label": "Cerritos (La Navidad)", "lat": 24.455594, "lng": -99.563486
},{
"label": "Santa María", "lat": 24.504696, "lng": -99.587017
},{
"label": "La Peregrina", "lat": 24.440115, "lng": -99.535126
},{
"label": "San Francisco de Quiroga", "lat": 24.615686, "lng": -99.406455
},{
"label": "El Triángulo", "lat": 24.503894, "lng": -99.203643
},{
"label": "Roque Garza", "lat": 24.543489, "lng": -99.448804
},{
"label": "San Juanito (San Juan)", "lat": 24.74164, "lng": -99.232335
},{
"label": "El Salado", "lat": 24.407069, "lng": -99.386045
},{
"label": "Matamoritos", "lat": 24.465501, "lng": -99.477065
},{
"label": "Loma Blanca", "lat": 24.472693, "lng": -99.419119
},{
"label": "San Martín", "lat": 24.513058, "lng": -99.290649
},{
"label": "Las Cruces", "lat": 24.509297, "lng": -99.388328
},{
"label": "El Picacho (Toros Salvajes)", "lat": 24.491126, "lng": -99.567872
},{
"label": "El Saucito", "lat": 24.512829, "lng": -99.583083
},{
"label": "Casas Blancas", "lat": 24.551541, "lng": -99.503332
},{
"label": "La Natividad (Silos)", "lat": 24.515633, "lng": -99.536231
},{
"label": "La Cruz", "lat": 24.751306, "lng": -99.360214
},{
"label": "El Progreso", "lat": 24.405803, "lng": -99.401643
},{
"label": "Juan Rincón (El Sabinal)", "lat": 24.512012, "lng": -99.335282
},{
"label": "La Puerta", "lat": 24.502553, "lng": -99.589274
},{
"label": "Viveros", "lat": 24.429851, "lng": -99.50172
},{
"label": "Miguel Hidalgo", "lat": 24.419486, "lng": -99.499606
},{
"label": "El Coyote", "lat": 24.454788, "lng": -99.476437
},{
"label": "San Francisco", "lat": 24.47817, "lng": -99.531061
},{
"label": "Conrado Castillo", "lat": 24.683913, "lng": -99.253327
},{
"label": "La Soledad", "lat": 24.52327, "lng": -99.355448
},{
"label": "Redención del Campesino", "lat": 24.532195, "lng": -99.565283
},{
"label": "Los Ramírez", "lat": 24.469961, "lng": -99.494038
},{
"label": "Irma González Flores", "lat": 24.444621, "lng": -99.476473
},{
"label": "La Palmita", "lat": 24.519635, "lng": -99.214756
},{
"label": "La Coma", "lat": 24.428606, "lng": -99.500485
},{
"label": "Magüiras", "lat": 24.525163, "lng": -99.445706
},{
"label": "Marte R. Gómez (Patol)", "lat": 24.472829, "lng": -99.268923
},{
"label": "El Paraíso", "lat": 24.58917, "lng": -99.432625
},{
"label": "San Pedro de Manuel Valdez", "lat": 24.546496, "lng": -99.353806
},{
"label": "Las Parritas", "lat": 24.388106, "lng": -99.527239
},{
"label": "Santa Lucía", "lat": 24.765556, "lng": -99.269336
},{
"label": "Cinco Señores", "lat": 24.489857, "lng": -99.473999
},{
"label": "Santa Teresa", "lat": 24.727383, "lng": -99.341335
},{
"label": "Santa Rosa (Francisco Herrera Zárate)", "lat": 24.488222, "lng": -99.51671
},{
"label": "San Juanito", "lat": 24.488922, "lng": -99.467778
},{
"label": "El Indio", "lat": 24.700231, "lng": -99.350055
},{
"label": "El Consuelo", "lat": 24.456653, "lng": -99.493276
},{
"label": "La Brisa", "lat": 24.500298, "lng": -99.555649
},{
"label": "Chupaderos", "lat": 24.456186, "lng": -99.540281
},{
"label": "G.S.B.", "lat": 24.50147, "lng": -99.524433
},{
"label": "Hacienda el Porvenir (Ciento Diez)", "lat": 24.442421, "lng": -99.390362
},{
"label": "Santa Rosa", "lat": 24.491075, "lng": -99.519929
},{
"label": "Candelario Reyes (San Miguel)", "lat": 24.416112, "lng": -99.515166
},{
"label": "La Boquilla", "lat": 24.510854, "lng": -99.602042
},{
"label": "Villagrán", "lat": 24.473191, "lng": -99.488111
},{
"label": "Benito Juárez (Encinos)", "lat": 24.445145, "lng": -99.422069
},{
"label": "Las Palmas", "lat": 24.727539, "lng": -99.314807
},{
"label": "Guadalupe Victoria", "lat": 24.529839, "lng": -99.43721
},{
"label": "Santa Rita", "lat": 24.460429, "lng": -99.376126
},{
"label": "La Chorrera", "lat": 24.564674, "lng": -99.278928
},{
"label": "Buenos Aires", "lat": 24.640429, "lng": -99.247639
},{
"label": "Gallo Gusano (San Jorge)", "lat": 24.477222, "lng": -99.519722
},{
"label": "San Francisco [Huerta]", "lat": 24.409274, "lng": -99.443213
},{
"label": "La Retama", "lat": 24.443228, "lng": -99.342253
},{
"label": "Los Olivos", "lat": 24.510237, "lng": -99.536652
},{
"label": "San Antonio", "lat": 24.761506, "lng": -99.316051
},{
"label": "Isidro Pérez Paz (Los Álamos)", "lat": 24.554645, "lng": -99.182304
},{
"label": "Los Reyes", "lat": 24.384097, "lng": -99.499901
},{
"label": "El Refugio", "lat": 24.429147, "lng": -99.443474
},{
"label": "Lomita Blanca", "lat": 24.695068, "lng": -99.186674
},{
"label": "San Ramón Kilómetro 812 (San Ramón de los Ibarra)", "lat": 24.513643, "lng": -99.532345
},{
"label": "Morterios (Conrado Castillo)", "lat": 24.640163, "lng": -99.22595
},{
"label": "Garza Valdez", "lat": 24.518606, "lng": -99.38701
},{
"label": "El Porvenir", "lat": 24.400013, "lng": -99.503641
},{
"label": "Pascual Orozco", "lat": 24.512465, "lng": -99.400498
},{
"label": "Los Cheques", "lat": 24.409122, "lng": -99.503254
},{
"label": "San Gerardo", "lat": 24.466603, "lng": -99.492411
},{
"label": "San José", "lat": 24.542364, "lng": -99.550802
},{
"label": "El Arriero", "lat": 24.456874, "lng": -99.411237
},{
"label": "Domingo Ramos", "lat": 24.741399, "lng": -99.373083
},{
"label": "Hacienda el Porvenir (El Chepito)", "lat": 24.441718, "lng": -99.39407
},{
"label": "El Breve", "lat": 24.405297, "lng": -99.353819
},{
"label": "Las Margaritas", "lat": 24.695602, "lng": -99.32033
},{
"label": "El Nacimiento", "lat": 24.432816, "lng": -99.577625
},{
"label": "El Mirador", "lat": 24.457326, "lng": -99.515429
},{
"label": "Los Álamos", "lat": 24.564653, "lng": -99.183438
},{
"label": "Charco Azul", "lat": 24.469308, "lng": -99.501043
},{
"label": "Los Vergeles", "lat": 24.456422, "lng": -99.232222
},{
"label": "La Purísima", "lat": 24.640136, "lng": -99.352543
},{
"label": "Magdaleno Aguilar", "lat": 24.496377, "lng": -99.545655
},{
"label": "Brígido Maldonado", "lat": 24.447789, "lng": -99.528639
},{
"label": "Los Novillos", "lat": 24.454183, "lng": -99.574755
},{
"label": "La Rosita", "lat": 24.515276, "lng": -99.40918
},{
"label": "El Ciprés", "lat": 24.470249, "lng": -99.227413
},{
"label": "San Pedro", "lat": 24.521467, "lng": -99.300766
},{
"label": "Parianes", "lat": 24.489216, "lng": -99.201324
},{
"label": "El Llano (Conrado Castillo)", "lat": 24.682861, "lng": -99.235887
},{
"label": "Ojo de Agua", "lat": 24.484937, "lng": -99.506626
},{
"label": "Santa Elena", "lat": 24.511592, "lng": -99.409592
},{
"label": "El Tres", "lat": 24.568353, "lng": -99.42163
},{
"label": "El Ebanito", "lat": 24.508372, "lng": -99.550511
},{
"label": "Liberación Campesina", "lat": 24.408656, "lng": -99.267199
},{
"label": "San Agustín (San Agustín de la Salada)", "lat": 24.722575, "lng": -99.197011
},{
"label": "Tres Potrillos", "lat": 24.390108, "lng": -99.496466
},{
"label": "Jesús García", "lat": 24.586642, "lng": -99.433036
},{
"label": "Rancho Viejo (San Salvador)", "lat": 24.65586, "lng": -99.340196
},{
"label": "San Pablo", "lat": 24.616389, "lng": -99.356389
},{
"label": "Los Laureles", "lat": 24.65381, "lng": -99.319619
},{
"label": "La Reforma", "lat": 24.492594, "lng": -99.446586
},{
"label": "Candelario Reyes (La Esperanza)", "lat": 24.421848, "lng": -99.548368
},{
"label": "La Peña", "lat": 24.543538, "lng": -99.254073
},{
"label": "El Rodeo", "lat": 24.709744, "lng": -99.316568
},{
"label": "Coyotito", "lat": 24.510843, "lng": -99.384432
},{
"label": "San Marcos", "lat": 24.433665, "lng": -99.548808
},{
"label": "Álvaro Obregón", "lat": 24.483485, "lng": -99.586226
},{
"label": "Lampacitos", "lat": 24.493245, "lng": -99.597108
},{
"label": "Mártires del Agrarismo", "lat": 24.764729, "lng": -99.264868
},{
"label": "Santa Lucía de Arriba", "lat": 24.478011, "lng": -99.555735
},{
"label": "La Esperanza", "lat": 24.516136, "lng": -99.448129
},{
"label": "San Javier (La Esperanza)", "lat": 24.479907, "lng": -99.510172
},{
"label": "Francisco Villa", "lat": 24.493359, "lng": -99.296596
},{
"label": "San Ramón (San Ramón de los Cabrera)", "lat": 24.509888, "lng": -99.397403
},{
"label": "El Peñeño", "lat": 24.449073, "lng": -99.524353
},{
"label": "Santa Lucía de Abajo", "lat": 24.477442, "lng": -99.549574
},{
"label": "La Providencia (Rancho Nuevo)", "lat": 24.526011, "lng": -99.543166
}]