[{
"label": "Camino a la Bandera", "lat": 19.321636, "lng": -99.273111
},{
"label": "El Campanario", "lat": 19.257411, "lng": -99.312969
},{
"label": "Álvaro Obregón", "lat": 19.390806, "lng": -99.195413
},{
"label": "El Ermitaño (Paraje el Chipil)", "lat": 19.301087, "lng": -99.269984
},{
"label": "Cuauhtlamila", "lat": 19.325176, "lng": -99.272476
},{
"label": "Tiximaloya", "lat": 19.312642, "lng": -99.276543
},{
"label": "Apapaxtla", "lat": 19.282816, "lng": -99.287958
},{
"label": "Texcalatlaco", "lat": 19.317737, "lng": -99.274488
},{
"label": "Ampliación San Bernabé (Tenango)", "lat": 19.301921, "lng": -99.274638
}]