[{
"label": "Ampliación Bugambilias (Nauhtecpan)", "lat": 19.232205, "lng": -99.137469
},{
"label": "Tepexomulco las Rocas", "lat": 19.228536, "lng": -99.136066
},{
"label": "Cocopalcuautla", "lat": 19.221225, "lng": -99.046207
},{
"label": "Ahuatitla", "lat": 19.218611, "lng": -99.111667
},{
"label": "Tecuyo", "lat": 19.219349, "lng": -99.140579
},{
"label": "Tepeclite", "lat": 19.204684, "lng": -99.105993
},{
"label": "Ahuatitla (Texcopaxuli)", "lat": 19.231381, "lng": -99.054249
},{
"label": "Tlapizatil (Puente de Urrutia)", "lat": 19.261987, "lng": -99.072857
},{
"label": "Temamatla", "lat": 19.235927, "lng": -99.137768
},{
"label": "Tepepula", "lat": 19.228048, "lng": -99.125747
},{
"label": "Los Cedros", "lat": 19.208286, "lng": -99.104842
},{
"label": "Paraje Lila (El Ladrillo)", "lat": 19.262318, "lng": -99.078127
},{
"label": "Cacalco (Tepextenco)", "lat": 19.19448, "lng": -99.124729
},{
"label": "Tlachiultepec de Ahuayucan (Las Malvinas)", "lat": 19.204349, "lng": -99.102169
},{
"label": "Paraje de la Ciénega", "lat": 19.279592, "lng": -99.081388
},{
"label": "Quinta Patricia", "lat": 19.212538, "lng": -99.087519
},{
"label": "Texalco (Joyas de Texalco)", "lat": 19.206694, "lng": -99.100363
},{
"label": "Zacazontlipac", "lat": 19.197017, "lng": -99.107767
},{
"label": "Tlatzala (Cuayuca)", "lat": 19.23616, "lng": -99.07738
},{
"label": "Tlacomulco (Kilómetro 25.5)", "lat": 19.225068, "lng": -99.145879
},{
"label": "Los Pinos (Tecacahuaco)", "lat": 19.235311, "lng": -99.14009
},{
"label": "Chililico", "lat": 19.266574, "lng": -99.089566
},{
"label": "Colexco (Tenochtitlan)", "lat": 19.227316, "lng": -99.113863
},{
"label": "Paraje Tepanyecac", "lat": 19.222114, "lng": -99.051556
},{
"label": "Tixculco", "lat": 19.222514, "lng": -99.054556
},{
"label": "Tepuente", "lat": 19.228373, "lng": -99.152124
},{
"label": "Parada del Conejo", "lat": 19.216779, "lng": -99.114201
},{
"label": "Xochimilco", "lat": 19.263462, "lng": -99.104913
},{
"label": "Ixotitla", "lat": 19.237217, "lng": -99.056995
},{
"label": "Tlacualleli (El Calvario)", "lat": 19.24227, "lng": -99.077933
},{
"label": "Tepeyecac (El Arenal)", "lat": 19.230414, "lng": -99.126106
},{
"label": "Tlalatlaco", "lat": 19.225381, "lng": -99.143763
},{
"label": "Tiziclipa", "lat": 19.22778, "lng": -99.091255
},{
"label": "Sihuatlixpa", "lat": 19.198985, "lng": -99.111584
},{
"label": "Kilómetro 26", "lat": 19.223562, "lng": -99.14082
},{
"label": "Bosques de la Paz", "lat": 19.23205, "lng": -99.075233
},{
"label": "Atlaxco", "lat": 19.233269, "lng": -99.068579
},{
"label": "Paraje Nochicala", "lat": 19.242021, "lng": -99.037635
},{
"label": "Tepexomulco (Kilómetro 27.8)", "lat": 19.226744, "lng": -99.129826
},{
"label": "Apatlaco", "lat": 19.264672, "lng": -99.086559
},{
"label": "Tecuanatla (Arenal Papanco)", "lat": 19.216993, "lng": -99.107882
},{
"label": "Ilimunxutitla", "lat": 19.192251, "lng": -99.108558
},{
"label": "Tochuca (San Salvador)", "lat": 19.202343, "lng": -99.102567
},{
"label": "Corralón Policía Federal de Caminos", "lat": 19.236863, "lng": -99.054542
},{
"label": "Pantiagua", "lat": 19.226341, "lng": -99.138147
},{
"label": "Tlaltepetla (Tehuistitla)", "lat": 19.224516, "lng": -99.115342
},{
"label": "Tecacalango", "lat": 19.217871, "lng": -99.107097
},{
"label": "Atotle", "lat": 19.218484, "lng": -99.109494
},{
"label": "Texopantitla (Chocolines)", "lat": 19.243233, "lng": -99.135228
},{
"label": "Barrio San Antonio (Cruz Monte)", "lat": 19.245343, "lng": -99.034051
},{
"label": "Moyocalco", "lat": 19.249781, "lng": -99.135259
},{
"label": "Tepepecalachico (Inopilco)", "lat": 19.211003, "lng": -99.107557
},{
"label": "La Cienega", "lat": 19.268597, "lng": -99.072141
},{
"label": "El Cedral", "lat": 19.21604, "lng": -99.117929
},{
"label": "Tlalmelaca", "lat": 19.263854, "lng": -99.037224
},{
"label": "Tzompole", "lat": 19.204051, "lng": -99.117708
},{
"label": "Coapantitla", "lat": 19.256874, "lng": -99.056676
},{
"label": "Ampliación Chalmita", "lat": 19.234091, "lng": -99.049541
},{
"label": "La Angostura", "lat": 19.262069, "lng": -99.075507
},{
"label": "Cuahuticultitla", "lat": 19.229466, "lng": -99.141905
},{
"label": "Zacapa", "lat": 19.257223, "lng": -99.05839
},{
"label": "Atenco (Tlaquilpa)", "lat": 19.256918, "lng": -99.055928
},{
"label": "San Juan Diego (Matlacuaitla)", "lat": 19.243164, "lng": -99.044389
},{
"label": "Pepelaxtla", "lat": 19.21727, "lng": -99.112537
},{
"label": "Rancho la Flor", "lat": 19.209792, "lng": -99.10139
},{
"label": "Huepaltepec", "lat": 19.215238, "lng": -99.074392
},{
"label": "Camino al Panteón (Las Cruces)", "lat": 19.221618, "lng": -99.127384
},{
"label": "Tepepan", "lat": 19.224847, "lng": -99.134175
},{
"label": "Tepemimilco", "lat": 19.226096, "lng": -99.123934
},{
"label": "Tepetitla (Tlacoxpan)", "lat": 19.235306, "lng": -99.142213
},{
"label": "Santa Catarina (Piedra Blanca)", "lat": 19.214276, "lng": -99.079906
},{
"label": "Naxayopa", "lat": 19.258906, "lng": -99.059022
},{
"label": "Ocotitla Tepachuxiac", "lat": 19.228088, "lng": -99.141708
},{
"label": "Francisco Villa (Tepejoyuca)", "lat": 19.223556, "lng": -99.077352
},{
"label": "Paraje los Escondidos", "lat": 19.277562, "lng": -99.081843
},{
"label": "Contlalco", "lat": 19.244597, "lng": -99.131993
},{
"label": "Cuatixi", "lat": 19.226861, "lng": -99.075682
},{
"label": "Xometitla (Tlalitenco)", "lat": 19.230226, "lng": -99.111935
},{
"label": "Milahuaytitla", "lat": 19.240509, "lng": -99.049253
},{
"label": "Paraje Tlahuiteco", "lat": 19.192061, "lng": -99.122252
},{
"label": "Isla de las Muñecas", "lat": 19.272876, "lng": -99.088093
},{
"label": "Tepexomulco", "lat": 19.231411, "lng": -99.131318
},{
"label": "Tepepatlaxtle", "lat": 19.202372, "lng": -99.11119
},{
"label": "Chalma (Avenida de las Torres)", "lat": 19.239148, "lng": -99.053035
},{
"label": "Ixcuicuilco", "lat": 19.221024, "lng": -99.117344
},{
"label": "Tecanco", "lat": 19.230519, "lng": -99.115031
},{
"label": "San Martín", "lat": 19.232157, "lng": -99.07792
},{
"label": "Tecoexcontitla", "lat": 19.213889, "lng": -99.085124
},{
"label": "El Mirador (Tetexaloca)", "lat": 19.220211, "lng": -99.148674
},{
"label": "Barrio Nochicala", "lat": 19.244829, "lng": -99.039706
},{
"label": "Paraje Zacapa", "lat": 19.217472, "lng": -99.08942
},{
"label": "El Potrero (Bosques de la Paz)", "lat": 19.211146, "lng": -99.090603
},{
"label": "Acalipa", "lat": 19.191776, "lng": -99.123234
},{
"label": "Hualpalcaltepec", "lat": 19.216199, "lng": -99.139665
},{
"label": "Tizilingo", "lat": 19.238056, "lng": -99.083421
},{
"label": "Tipipili", "lat": 19.233863, "lng": -99.084527
},{
"label": "Paraje Texhuilo", "lat": 19.265396, "lng": -99.091014
},{
"label": "Los Tejocotes", "lat": 19.202823, "lng": -99.118476
}]