[{
"label": "Los Amoles", "lat": 20.010962, "lng": -103.387505
},{
"label": "Rancho de Moreno", "lat": 19.983611, "lng": -103.506944
},{
"label": "La Ciénega (Los Gutiérrez)", "lat": 19.938604, "lng": -103.380996
},{
"label": "La Noria", "lat": 19.925866, "lng": -103.512259
},{
"label": "La Estancia", "lat": 19.952364, "lng": -103.379191
},{
"label": "Aguacatitlán", "lat": 19.944263, "lng": -103.446927
},{
"label": "Los Puentes", "lat": 19.951461, "lng": -103.523397
},{
"label": "Poncitlán", "lat": 20.053954, "lng": -103.484393
},{
"label": "Las Canoas", "lat": 20.040201, "lng": -103.499474
},{
"label": "La Coronilla", "lat": 20.04991, "lng": -103.389814
},{
"label": "San Sebastián", "lat": 20.048132, "lng": -103.424103
},{
"label": "La Joya", "lat": 20.022247, "lng": -103.476329
},{
"label": "San Cayetano", "lat": 20.021232, "lng": -103.452699
},{
"label": "El Platanarillo", "lat": 20.003352, "lng": -103.413124
},{
"label": "Cañada de Bembericua", "lat": 20.000443, "lng": -103.336242
},{
"label": "El Piojo", "lat": 19.963889, "lng": -103.462778
},{
"label": "Isla Chica", "lat": 20.010704, "lng": -103.543489
},{
"label": "La Higuera", "lat": 19.976848, "lng": -103.525892
},{
"label": "Concepción Sánchez", "lat": 19.961093, "lng": -103.520737
},{
"label": "Los Cipreses", "lat": 20.018544, "lng": -103.511217
},{
"label": "El Ídolo (La Puentecita)", "lat": 20.025914, "lng": -103.508906
},{
"label": "Isla Grande", "lat": 19.999006, "lng": -103.553629
},{
"label": "Rancho de Aréchiga", "lat": 20.006218, "lng": -103.510903
},{
"label": "El Destacamento", "lat": 19.90036, "lng": -103.47594
},{
"label": "Labra (La Tejería)", "lat": 19.900565, "lng": -103.449096
},{
"label": "Los Nogales", "lat": 19.906936, "lng": -103.497419
},{
"label": "Las Tarjeas (El Salitrillo)", "lat": 20.036162, "lng": -103.502932
},{
"label": "Sayula [Granja Acuícola]", "lat": 19.912841, "lng": -103.596735
},{
"label": "Agua Zarca", "lat": 19.885605, "lng": -103.431356
},{
"label": "El Monte de Jiménez", "lat": 19.980791, "lng": -103.365595
},{
"label": "Bonanza 2001 [Empacadora]", "lat": 19.923051, "lng": -103.602006
},{
"label": "Los Laureles", "lat": 19.989836, "lng": -103.371056
},{
"label": "El Caporal", "lat": 19.992327, "lng": -103.52036
},{
"label": "El Reparo", "lat": 20.055837, "lng": -103.414113
},{
"label": "La Cueva (El Rodeo)", "lat": 19.997766, "lng": -103.507232
},{
"label": "Unión de Guadalupe", "lat": 19.909842, "lng": -103.451164
},{
"label": "El Molino", "lat": 20.042359, "lng": -103.496262
},{
"label": "Raúl Jiménez", "lat": 19.956667, "lng": -103.500556
},{
"label": "El Carrizal (Los Laureles del Noveno)", "lat": 20.000544, "lng": -103.388889
},{
"label": "Roble Viejo", "lat": 19.884841, "lng": -103.441863
},{
"label": "Atoyac", "lat": 20.010556, "lng": -103.516389
},{
"label": "El Saltillo", "lat": 20.05827, "lng": -103.471328
},{
"label": "El Jaral", "lat": 19.992903, "lng": -103.522711
},{
"label": "Atotonilco", "lat": 20.073578, "lng": -103.458772
},{
"label": "San Juan", "lat": 20.007451, "lng": -103.43202
},{
"label": "El Barreno", "lat": 20.00423, "lng": -103.402856
},{
"label": "Techague", "lat": 19.961362, "lng": -103.448261
},{
"label": "Las Paredes", "lat": 19.906569, "lng": -103.434919
},{
"label": "Tescalame (Los Aguilar)", "lat": 19.999655, "lng": -103.502495
},{
"label": "El Llano", "lat": 20.036075, "lng": -103.425563
},{
"label": "Los Fresnos", "lat": 19.911874, "lng": -103.475377
},{
"label": "San Rafael", "lat": 19.98278, "lng": -103.456211
},{
"label": "El Tepopote", "lat": 19.929196, "lng": -103.439234
},{
"label": "Casita del Agua", "lat": 20.008118, "lng": -103.497954
},{
"label": "Cuyacapan", "lat": 19.968113, "lng": -103.52367
},{
"label": "El Aguacate", "lat": 19.987623, "lng": -103.411129
},{
"label": "Hacienda de la Lima", "lat": 19.998638, "lng": -103.51856
},{
"label": "La Cieneguilla", "lat": 20.078963, "lng": -103.45619
},{
"label": "Tultitán", "lat": 19.983611, "lng": -103.5225
}]