[{
"label": "Mexiquito", "lat": 21.996022, "lng": -103.229076
},{
"label": "Las Golondrinas", "lat": 22.097103, "lng": -103.253138
},{
"label": "Acaspoles", "lat": 21.974499, "lng": -103.337577
},{
"label": "El Salto", "lat": 22.037434, "lng": -103.268033
},{
"label": "Ciénega de los Alejos", "lat": 22.067778, "lng": -103.312222
},{
"label": "La Cuesta (Bajío del Sauz)", "lat": 22.043523, "lng": -103.24894
},{
"label": "Canoas de Abajo", "lat": 22.118352, "lng": -103.248874
},{
"label": "Jalisco del Refugio (Jalisco)", "lat": 21.99007, "lng": -103.244587
},{
"label": "Agua Gorda", "lat": 21.960556, "lng": -103.331667
},{
"label": "Tierra Blanca", "lat": 22.097171, "lng": -103.265734
},{
"label": "Casa Llanta", "lat": 22.058903, "lng": -103.362798
},{
"label": "Palo Mocho", "lat": 22.03823, "lng": -103.226219
},{
"label": "El Salitre", "lat": 22.08281, "lng": -103.29652
},{
"label": "Herminio Huizar Gaeta", "lat": 21.962753, "lng": -103.342803
},{
"label": "Rancho Dos Espuelas", "lat": 22.236265, "lng": -103.301291
},{
"label": "Rancho de Ubaldo Haro", "lat": 22.17316, "lng": -103.298906
},{
"label": "Soledad [Granja]", "lat": 22.143683, "lng": -103.23743
},{
"label": "Las Trojes", "lat": 22.143781, "lng": -103.241789
},{
"label": "Ninguno", "lat": 22.155921, "lng": -103.232385
},{
"label": "El Mirador (San Ignacio)", "lat": 22.118036, "lng": -103.308434
},{
"label": "La Tiricia", "lat": 22.121058, "lng": -103.38086
},{
"label": "El Cono", "lat": 22.178839, "lng": -103.336969
},{
"label": "El Plan", "lat": 22.134009, "lng": -103.236653
},{
"label": "La Palma", "lat": 21.959573, "lng": -103.345258
},{
"label": "Las Lajas", "lat": 22.22872, "lng": -103.335503
},{
"label": "La Boquilla de los Pérez", "lat": 22.010251, "lng": -103.246849
},{
"label": "Salvador Mayorga", "lat": 22.062608, "lng": -103.290336
},{
"label": "La Palmira", "lat": 22.12632, "lng": -103.225092
},{
"label": "Soyatepec", "lat": 22.056738, "lng": -103.279235
},{
"label": "El Zapote de Arriba", "lat": 22.054285, "lng": -103.328928
},{
"label": "La Boquilla", "lat": 21.999944, "lng": -103.332431
},{
"label": "Agua Zarca", "lat": 22.190863, "lng": -103.365093
},{
"label": "Mezquites Mochos", "lat": 21.965708, "lng": -103.319723
},{
"label": "Loma de Pinedos", "lat": 22.094871, "lng": -103.380721
},{
"label": "La Manga", "lat": 22.222961, "lng": -103.296471
},{
"label": "San Silvestre", "lat": 22.069589, "lng": -103.252142
},{
"label": "La Fuente [Granja]", "lat": 22.087696, "lng": -103.295575
},{
"label": "San Nicolás", "lat": 22.053739, "lng": -103.191751
},{
"label": "Los Véliz", "lat": 22.028909, "lng": -103.273407
},{
"label": "Barrio del Refugio", "lat": 22.146364, "lng": -103.251125
},{
"label": "Menores", "lat": 22.203328, "lng": -103.289473
},{
"label": "Rancho las Trancas", "lat": 21.998371, "lng": -103.268119
},{
"label": "Cerro de los Gálvez", "lat": 22.092843, "lng": -103.152611
},{
"label": "Los Aguajes", "lat": 22.011111, "lng": -103.269444
},{
"label": "Mesa de Flores", "lat": 22.1075, "lng": -103.375833
},{
"label": "Miguel Luna Miramontes", "lat": 21.955858, "lng": -103.340682
},{
"label": "Las Minitas", "lat": 22.027904, "lng": -103.269026
},{
"label": "El Llano", "lat": 22.003886, "lng": -103.234111
},{
"label": "La Campana (San Calistrán)", "lat": 22.106014, "lng": -103.397437
},{
"label": "Ejido Tortugas", "lat": 22.055079, "lng": -103.246713
},{
"label": "San Rafael", "lat": 22.068016, "lng": -103.152666
},{
"label": "San Antonio de las Lajas", "lat": 22.234337, "lng": -103.346339
},{
"label": "Sauz Tostado", "lat": 22.164004, "lng": -103.308201
},{
"label": "La Trinidad", "lat": 22.105601, "lng": -103.30598
},{
"label": "La Cofradía", "lat": 22.157273, "lng": -103.311238
},{
"label": "Tulimic de Ramos", "lat": 22.021915, "lng": -103.296095
},{
"label": "Santiago Tlatelolco (Santiago)", "lat": 22.139289, "lng": -103.250863
},{
"label": "La Mesa", "lat": 22.138992, "lng": -103.265966
},{
"label": "Las Trojas (Las Trojas de Yerbanís)", "lat": 22.141786, "lng": -103.356251
},{
"label": "Rancho los Pinedo [La Granja]", "lat": 22.106999, "lng": -103.285885
},{
"label": "Zapote de Abajo", "lat": 22.032108, "lng": -103.317853
},{
"label": "Las Golondrinas [Fraccionamiento]", "lat": 22.104186, "lng": -103.252593
},{
"label": "San Diego (Los Robles)", "lat": 22.155063, "lng": -103.240904
},{
"label": "Rancho de los Salazares", "lat": 22.111255, "lng": -103.282243
},{
"label": "La Laguna", "lat": 21.990629, "lng": -103.277778
},{
"label": "El Aguaje", "lat": 22.182108, "lng": -103.374328
},{
"label": "Rancho los Arroyos", "lat": 21.98222, "lng": -103.290314
},{
"label": "Pacheco", "lat": 22.146508, "lng": -103.322319
},{
"label": "Ninguno [Bodega]", "lat": 22.012739, "lng": -103.262439
},{
"label": "El Bajío", "lat": 22.079967, "lng": -103.292014
},{
"label": "San Felipe", "lat": 21.97237, "lng": -103.222877
},{
"label": "Las Tortugas", "lat": 22.078561, "lng": -103.249765
},{
"label": "El Epazote", "lat": 22.190082, "lng": -103.391575
},{
"label": "El Varal", "lat": 22.092178, "lng": -103.23006
},{
"label": "Juego de Hule", "lat": 22.109682, "lng": -103.289161
},{
"label": "Efraín Huerta", "lat": 22.080157, "lng": -103.259886
},{
"label": "Tulimic del Rosario", "lat": 21.99697, "lng": -103.323401
},{
"label": "La Tinaja", "lat": 22.115194, "lng": -103.165151
},{
"label": "Los Portales", "lat": 22.1382, "lng": -103.27202
},{
"label": "Rancho Media Luna", "lat": 21.96463, "lng": -103.340942
},{
"label": "El Cerro", "lat": 22.188583, "lng": -103.39835
},{
"label": "El Saucillo de los Pérez", "lat": 22.028729, "lng": -103.233643
},{
"label": "Bajío de Tochopa", "lat": 22.051131, "lng": -103.289587
},{
"label": "Mesa de Silva", "lat": 22.125777, "lng": -103.272471
},{
"label": "La Laguna (La Laguna de los Mayorga)", "lat": 22.163379, "lng": -103.297833
},{
"label": "Rancho de Arturo Álvarez", "lat": 22.115409, "lng": -103.320961
},{
"label": "San Francisco del Refugio", "lat": 21.99113, "lng": -103.234134
},{
"label": "San Cayetano", "lat": 22.094869, "lng": -103.264323
},{
"label": "La Trinidad de Prisciliano Flores", "lat": 22.108835, "lng": -103.313401
},{
"label": "Cinco Hermanos", "lat": 22.095342, "lng": -103.290584
},{
"label": "Tepuliche", "lat": 22.026377, "lng": -103.264966
},{
"label": "Tierra Prieta", "lat": 21.991433, "lng": -103.339088
},{
"label": "La Montosa", "lat": 22.110793, "lng": -103.227762
},{
"label": "Cerrito Verde", "lat": 22.022243, "lng": -103.323779
},{
"label": "El Capulín", "lat": 22.030944, "lng": -103.199038
},{
"label": "Insurgente Marcos Escobedo [Aeropuerto Estatal]", "lat": 21.996589, "lng": -103.273843
},{
"label": "La Notaría", "lat": 22.054607, "lng": -103.314983
},{
"label": "San Pedro", "lat": 22.197292, "lng": -103.354514
},{
"label": "Canoas de Arriba", "lat": 22.123323, "lng": -103.245759
},{
"label": "Mesa de Guadalupe", "lat": 22.121667, "lng": -103.372222
},{
"label": "El Refugio de los Ortega", "lat": 22.23005, "lng": -103.311791
},{
"label": "La Trinidad de Antonio Ávalos", "lat": 22.110346, "lng": -103.310707
},{
"label": "Rancho de Luis Humberto Huerta", "lat": 22.110271, "lng": -103.296425
},{
"label": "El Crucero", "lat": 21.971009, "lng": -103.303905
},{
"label": "El Bajío Grande", "lat": 22.089707, "lng": -103.282126
},{
"label": "Hacienda del Zapote", "lat": 22.042193, "lng": -103.329691
},{
"label": "San Pascual", "lat": 22.095001, "lng": -103.270167
},{
"label": "Cuatro Milpas", "lat": 22.159213, "lng": -103.348263
},{
"label": "Dolores", "lat": 22.013648, "lng": -103.321462
},{
"label": "El Carrizal", "lat": 22.04828, "lng": -103.123804
},{
"label": "Tulimic de Guadalupe", "lat": 22.006279, "lng": -103.308346
},{
"label": "Barrio de San Juan", "lat": 22.143021, "lng": -103.253723
},{
"label": "Rancho los Pinos", "lat": 21.99261, "lng": -103.267275
},{
"label": "Paso de Carretas", "lat": 21.947888, "lng": -103.342468
},{
"label": "Las Juntas", "lat": 22.066558, "lng": -103.398835
},{
"label": "El Ochotal", "lat": 22.131434, "lng": -103.286602
},{
"label": "Colotlán", "lat": 22.117222, "lng": -103.264722
},{
"label": "Agua Zarquita", "lat": 22.174268, "lng": -103.35998
},{
"label": "La Amapola", "lat": 22.2225, "lng": -103.296111
},{
"label": "El Carrizalillo", "lat": 22.091096, "lng": -103.196013
},{
"label": "San Antonio de Potreros", "lat": 22.110484, "lng": -103.183463
},{
"label": "La Báscula", "lat": 22.135237, "lng": -103.268429
},{
"label": "La Loma", "lat": 22.232712, "lng": -103.308705
},{
"label": "El Terrero", "lat": 22.14817, "lng": -103.244103
},{
"label": "Los Planes de los Raygoza", "lat": 22.100958, "lng": -103.283815
},{
"label": "Los Pinedo", "lat": 22.112294, "lng": -103.278
},{
"label": "La Cañada", "lat": 22.030314, "lng": -103.264183
},{
"label": "Los Huízar (Los Huízares)", "lat": 21.982705, "lng": -103.3311
},{
"label": "La Soledad", "lat": 22.119987, "lng": -103.206246
},{
"label": "San Rafael del Refugio", "lat": 21.994522, "lng": -103.225848
},{
"label": "El Crucero de Santiago", "lat": 22.137705, "lng": -103.243374
},{
"label": "La Capilla", "lat": 21.974511, "lng": -103.262143
},{
"label": "Rancho la Azucena", "lat": 21.989717, "lng": -103.274041
}]