[{
"label": "Los Arrayanes", "lat": 20.453889, "lng": -102.092222
},{
"label": "Quirino (La Sierrita)", "lat": 20.468109, "lng": -102.222991
},{
"label": "El Pajarito", "lat": 20.413794, "lng": -102.278966
},{
"label": "Cerrito de Villaseñor", "lat": 20.43591, "lng": -102.104771
},{
"label": "La Tinajera", "lat": 20.47267, "lng": -102.188789
},{
"label": "Altamira", "lat": 20.4883, "lng": -102.070014
},{
"label": "La Tijera", "lat": 20.442773, "lng": -102.067045
},{
"label": "El Arca", "lat": 20.371689, "lng": -102.177341
},{
"label": "San José de Vargas", "lat": 20.457506, "lng": -102.301738
},{
"label": "Buenavista de Garnica", "lat": 20.433762, "lng": -102.129456
},{
"label": "Los Coyotes (La Tejera)", "lat": 20.4525, "lng": -102.15
},{
"label": "Mezquite Grande", "lat": 20.361884, "lng": -102.2053
},{
"label": "Barbechitos (Barbechos)", "lat": 20.525271, "lng": -102.115909
},{
"label": "Paso de Tarimoro (La Campana)", "lat": 20.517003, "lng": -102.167891
},{
"label": "El Pantano", "lat": 20.506389, "lng": -102.034167
},{
"label": "El Terrerito de Sevilla", "lat": 20.455753, "lng": -102.079985
},{
"label": "La Tabla", "lat": 20.425081, "lng": -102.186125
},{
"label": "El Patojo (Potrero del Patojo)", "lat": 20.466721, "lng": -102.243962
},{
"label": "La Rana", "lat": 20.429167, "lng": -102.080833
},{
"label": "El Tablado", "lat": 20.502907, "lng": -102.086205
},{
"label": "El Aniego", "lat": 20.416434, "lng": -102.092464
},{
"label": "San José Buena Agua", "lat": 20.468698, "lng": -102.139231
},{
"label": "Las Uvas", "lat": 20.50023, "lng": -102.039848
},{
"label": "La Bajada", "lat": 20.35699, "lng": -102.176909
},{
"label": "Las Caleras", "lat": 20.450443, "lng": -102.109442
},{
"label": "San Miguel (El Judío)", "lat": 20.511419, "lng": -102.062966
},{
"label": "La Guacamaya", "lat": 20.472602, "lng": -102.077683
},{
"label": "Monte Redondo (La Carbonera)", "lat": 20.446417, "lng": -102.248131
},{
"label": "El Pino de León (El Pino de Leones)", "lat": 20.532268, "lng": -102.075045
},{
"label": "Las Joyas", "lat": 20.535676, "lng": -102.046642
},{
"label": "Las Adjuntas", "lat": 20.3875, "lng": -102.098056
},{
"label": "El Pitahayo", "lat": 20.422339, "lng": -102.126971
},{
"label": "La Era", "lat": 20.465126, "lng": -102.267982
},{
"label": "Santa Rosa", "lat": 20.428333, "lng": -102.300556
},{
"label": "El Jicote", "lat": 20.441944, "lng": -102.106667
},{
"label": "Tarimoro", "lat": 20.44203, "lng": -102.191922
},{
"label": "Puerto de Catarina", "lat": 20.526093, "lng": -102.045197
},{
"label": "El Padre", "lat": 20.42801, "lng": -102.265693
},{
"label": "La Alegría", "lat": 20.440556, "lng": -102.174722
},{
"label": "La Tiricia (El Pastor)", "lat": 20.463025, "lng": -102.074792
},{
"label": "El Ojo de Agua", "lat": 20.456386, "lng": -102.200448
},{
"label": "Unión de Guadalupe (La Chancla)", "lat": 20.470278, "lng": -102.172222
},{
"label": "El Bañadero", "lat": 20.453049, "lng": -102.057894
},{
"label": "Buenos Aires", "lat": 20.383873, "lng": -102.175059
},{
"label": "Santo Niño", "lat": 20.431111, "lng": -102.1175
},{
"label": "El Puerto de la Sabinilla (El Puerto)", "lat": 20.496687, "lng": -102.175726
},{
"label": "San Rafael (La Resolana)", "lat": 20.455091, "lng": -102.290449
},{
"label": "El Edén", "lat": 20.429487, "lng": -102.106523
},{
"label": "La Pólvora", "lat": 20.48976, "lng": -102.229909
},{
"label": "La Camecha", "lat": 20.448524, "lng": -102.105481
},{
"label": "San Hipólito (Altamira)", "lat": 20.480736, "lng": -102.085134
},{
"label": "El Parián", "lat": 20.454689, "lng": -102.307351
},{
"label": "Charapuato", "lat": 20.383857, "lng": -102.103099
},{
"label": "Los Reyes", "lat": 20.423889, "lng": -102.181389
},{
"label": "La Tepuza", "lat": 20.527288, "lng": -102.103207
},{
"label": "El Guayabito", "lat": 20.430147, "lng": -102.242582
},{
"label": "El Derrumbadero", "lat": 20.458625, "lng": -102.258932
},{
"label": "San Ignacio del Roble", "lat": 20.447778, "lng": -102.119167
},{
"label": "El Chilillo", "lat": 20.441638, "lng": -102.238398
},{
"label": "La Yerbabuena", "lat": 20.543056, "lng": -102.098333
},{
"label": "El Fresno", "lat": 20.452661, "lng": -102.160564
},{
"label": "Los Pozos Hondos", "lat": 20.527473, "lng": -102.058984
},{
"label": "La Escrepa", "lat": 20.383056, "lng": -102.125556
},{
"label": "Huáscato", "lat": 20.480217, "lng": -102.24763
},{
"label": "Pozo Seco", "lat": 20.419121, "lng": -102.106066
},{
"label": "San Antonio (El Pujido)", "lat": 20.384601, "lng": -102.155097
},{
"label": "Casiripal", "lat": 20.422778, "lng": -102.142222
},{
"label": "Rancho Nuevo", "lat": 20.471921, "lng": -102.195426
},{
"label": "Altavista", "lat": 20.523251, "lng": -102.076769
},{
"label": "Santa Cecilia", "lat": 20.453902, "lng": -102.127732
},{
"label": "Marijo", "lat": 20.478661, "lng": -102.111801
},{
"label": "Los Sauces", "lat": 20.429388, "lng": -102.184371
},{
"label": "El Lindero", "lat": 20.520943, "lng": -102.142554
},{
"label": "Los Cuervos", "lat": 20.458333, "lng": -102.107222
},{
"label": "El Serrateño", "lat": 20.4225, "lng": -102.239167
},{
"label": "Las Limas", "lat": 20.417657, "lng": -102.125987
},{
"label": "El Casahuate (La Casahuatera)", "lat": 20.514808, "lng": -102.040166
},{
"label": "Encarnación Ramírez [Reproductora]", "lat": 20.430982, "lng": -102.163029
},{
"label": "La Ordeña", "lat": 20.518382, "lng": -102.060774
},{
"label": "El Nacimiento", "lat": 20.38657, "lng": -102.162677
},{
"label": "El Terrero de Villareño (Terrero de Carmen)", "lat": 20.388648, "lng": -102.193202
},{
"label": "El Corral de Piedra", "lat": 20.466521, "lng": -102.151276
},{
"label": "El Mezquitillo", "lat": 20.380274, "lng": -102.156137
},{
"label": "Las Jaras", "lat": 20.463203, "lng": -102.084203
},{
"label": "El Puente", "lat": 20.475861, "lng": -102.263374
},{
"label": "La Pila (Altamira)", "lat": 20.48256, "lng": -102.067355
},{
"label": "El Refugio de Velasco", "lat": 20.461859, "lng": -102.098873
},{
"label": "La Alacena", "lat": 20.474805, "lng": -102.062273
},{
"label": "El Lobo", "lat": 20.528333, "lng": -102.088333
},{
"label": "La Providencia", "lat": 20.465954, "lng": -102.157665
},{
"label": "El Salitre Villareño", "lat": 20.396762, "lng": -102.172493
},{
"label": "El Divisadero", "lat": 20.539906, "lng": -102.044701
},{
"label": "La Víbora (Villa del Refugio)", "lat": 20.412311, "lng": -102.264425
},{
"label": "Degollado", "lat": 20.4475, "lng": -102.135
},{
"label": "La Sierrita", "lat": 20.476329, "lng": -102.213887
},{
"label": "Agua Prieta", "lat": 20.526319, "lng": -102.132976
},{
"label": "El Refugio de Vázquez", "lat": 20.398205, "lng": -102.193273
},{
"label": "San Vicente", "lat": 20.366194, "lng": -102.195869
},{
"label": "La Espada de Rizo", "lat": 20.380711, "lng": -102.122889
},{
"label": "La Quema (La Quemada)", "lat": 20.436288, "lng": -102.076261
},{
"label": "Las Parritas (Rancho Nuevo)", "lat": 20.475278, "lng": -102.2025
},{
"label": "La Grulla", "lat": 20.416871, "lng": -102.228826
},{
"label": "El Cerrito Colorado", "lat": 20.404558, "lng": -102.10482
},{
"label": "El Jabalí", "lat": 20.542581, "lng": -102.021339
},{
"label": "El Castillo", "lat": 20.368334, "lng": -102.215792
},{
"label": "El Saucito", "lat": 20.50763, "lng": -102.147457
},{
"label": "La Sanguijuela", "lat": 20.490874, "lng": -102.04506
},{
"label": "La Peña", "lat": 20.474071, "lng": -102.24036
},{
"label": "Pozo Blanco", "lat": 20.461667, "lng": -102.091389
},{
"label": "Los Ranchitos", "lat": 20.428394, "lng": -102.180961
},{
"label": "La Loma", "lat": 20.443333, "lng": -102.089444
},{
"label": "El Laurel", "lat": 20.427919, "lng": -102.291576
},{
"label": "Respingo (Potrero de Respingo)", "lat": 20.476528, "lng": -102.242173
},{
"label": "La Sabinilla (Sabinillas)", "lat": 20.504143, "lng": -102.201042
},{
"label": "El Colorín", "lat": 20.436488, "lng": -102.275908
},{
"label": "Los Fresnos", "lat": 20.414123, "lng": -102.077188
},{
"label": "Loma de Marijo", "lat": 20.472379, "lng": -102.131523
},{
"label": "Los Sabinos", "lat": 20.4225, "lng": -102.178889
},{
"label": "La Cañada", "lat": 20.471166, "lng": -102.045246
},{
"label": "La Soledad", "lat": 20.475541, "lng": -102.067635
},{
"label": "La Porquera", "lat": 20.423213, "lng": -102.249454
},{
"label": "El Paraje", "lat": 20.457279, "lng": -102.17516
}]