[{
"label": "La Tarjea", "lat": 20.512544, "lng": -103.204631
},{
"label": "Molino de los de Alba", "lat": 20.503241, "lng": -103.214818
},{
"label": "El Lindero", "lat": 20.559714, "lng": -103.248584
},{
"label": "El Salto [Repetidora de Microondas]", "lat": 20.523725, "lng": -103.190578
},{
"label": "Rancho Pedregal", "lat": 20.528317, "lng": -103.206844
},{
"label": "Planta de Tratamiento de Aguas Residuales", "lat": 20.512778, "lng": -103.176389
},{
"label": "El Salto", "lat": 20.519444, "lng": -103.181667
},{
"label": "El Castillo [Subestación]", "lat": 20.529091, "lng": -103.252194
},{
"label": "Cerro Colorado (Rancho El Gran Chaparral)", "lat": 20.533056, "lng": -103.207778
},{
"label": "San Miguel", "lat": 20.53027, "lng": -103.193043
},{
"label": "El Mirador", "lat": 20.504444, "lng": -103.211944
},{
"label": "Hacienda Vieja del Castillo (Castillo Viejo)", "lat": 20.538286, "lng": -103.24471
},{
"label": "Las Pintitas", "lat": 20.564444, "lng": -103.302222
},{
"label": "El Gigante", "lat": 20.505626, "lng": -103.177666
},{
"label": "Galaxia Bonito Jalisco", "lat": 20.505, "lng": -103.204722
},{
"label": "Pozo del Monte", "lat": 20.549519, "lng": -103.205619
},{
"label": "El Cajón", "lat": 20.553366, "lng": -103.23188
},{
"label": "Los Zermeño", "lat": 20.540773, "lng": -103.260372
},{
"label": "Cerro Colorado", "lat": 20.54036, "lng": -103.211257
},{
"label": "Lomas de Agua Blanca [Fraccionamiento]", "lat": 20.548333, "lng": -103.214167
},{
"label": "Pemex Almacenamiento", "lat": 20.535305, "lng": -103.211072
},{
"label": "Ninguno", "lat": 20.540326, "lng": -103.205472
},{
"label": "San Bartolo", "lat": 20.546336, "lng": -103.242234
},{
"label": "Alce Emulsiones Asfálticas", "lat": 20.527944, "lng": -103.249514
},{
"label": "San Gabriel (Rancho de los Magaña)", "lat": 20.5775, "lng": -103.296111
},{
"label": "La Gasolinera", "lat": 20.542148, "lng": -103.262305
},{
"label": "Granja Lorena", "lat": 20.520389, "lng": -103.213458
},{
"label": "La Alameda [Fraccionamiento]", "lat": 20.499167, "lng": -103.241667
},{
"label": "El Quince (San José el Quince)", "lat": 20.541389, "lng": -103.278889
},{
"label": "Las Tuzas", "lat": 20.54638, "lng": -103.201589
},{
"label": "Los Laureles", "lat": 20.537978, "lng": -103.184047
},{
"label": "Lomas del Ahogado", "lat": 20.505714, "lng": -103.245542
},{
"label": "El Castillo", "lat": 20.527491, "lng": -103.236448
},{
"label": "Pemex Refinación", "lat": 20.505278, "lng": -103.226944
},{
"label": "La Lorena", "lat": 20.508353, "lng": -103.208455
},{
"label": "Villas de Agua Blanca", "lat": 20.556586, "lng": -103.18547
},{
"label": "Las Pintas", "lat": 20.576389, "lng": -103.321111
},{
"label": "El Ranchito", "lat": 20.563753, "lng": -103.211061
},{
"label": "San Antonio Matute", "lat": 20.551869, "lng": -103.202195
},{
"label": "Rancho Buenavista", "lat": 20.545813, "lng": -103.197003
},{
"label": "La Azucena", "lat": 20.506958, "lng": -103.204708
},{
"label": "Rancho el Portal", "lat": 20.543333, "lng": -103.188889
},{
"label": "Centro de Readaptación Social", "lat": 20.554444, "lng": -103.193611
},{
"label": "La Alcantarilla", "lat": 20.526992, "lng": -103.200689
},{
"label": "Lomas de San Miguel II", "lat": 20.564625, "lng": -103.202889
},{
"label": "San José el Verde (El Verde)", "lat": 20.558611, "lng": -103.276111
},{
"label": "El Sabino", "lat": 20.519578, "lng": -103.198454
},{
"label": "El Muey", "lat": 20.505661, "lng": -103.218015
},{
"label": "Palo Dulce", "lat": 20.531342, "lng": -103.186802
},{
"label": "San José del Castillo", "lat": 20.505556, "lng": -103.235
},{
"label": "Río Grande [Cinegético]", "lat": 20.523549, "lng": -103.198917
},{
"label": "El Porrón (Uvalano)", "lat": 20.523176, "lng": -103.247233
},{
"label": "Agua Blanca", "lat": 20.551286, "lng": -103.186069
},{
"label": "Lomas del Salto", "lat": 20.562936, "lng": -103.187733
}]