[{
"label": "El Rincón", "lat": 19.810489, "lng": -103.462283
},{
"label": "Estanque D", "lat": 19.857791, "lng": -103.539794
},{
"label": "Cerrillos", "lat": 19.779813, "lng": -103.475267
},{
"label": "Papantoncillo", "lat": 19.798227, "lng": -103.525579
},{
"label": "Cal Huescalapa (Calera)", "lat": 19.830245, "lng": -103.427783
},{
"label": "La Negrita", "lat": 19.907934, "lng": -103.333727
},{
"label": "Severo Joaquín Javier", "lat": 19.775495, "lng": -103.484236
},{
"label": "Los Ocuares", "lat": 19.929424, "lng": -103.366797
},{
"label": "San Andrés Ixtlán", "lat": 19.819167, "lng": -103.47
},{
"label": "El Corralito", "lat": 19.873416, "lng": -103.33848
},{
"label": "Rancho Vargas (Manzanillos)", "lat": 19.851547, "lng": -103.457498
},{
"label": "Paso Hondo", "lat": 19.886084, "lng": -103.274785
},{
"label": "Gómez Farías [Centro Hidropónico]", "lat": 19.780364, "lng": -103.49129
},{
"label": "La Guadalupe", "lat": 19.780167, "lng": -103.498579
},{
"label": "La Toma (El Porvenir)", "lat": 19.797819, "lng": -103.433721
},{
"label": "El Cerrito", "lat": 19.794476, "lng": -103.507012
},{
"label": "Ninguno", "lat": 19.770626, "lng": -103.497045
},{
"label": "El Saltito", "lat": 19.91295, "lng": -103.381053
},{
"label": "San Jerónimo", "lat": 19.944529, "lng": -103.350328
},{
"label": "Jesús Aranda", "lat": 19.791006, "lng": -103.49682
},{
"label": "Cofradía del Rosario", "lat": 19.781731, "lng": -103.502364
},{
"label": "Rancho Antonio Álvarez", "lat": 19.774576, "lng": -103.468007
},{
"label": "Rancho Lorenzo Cárdenas", "lat": 19.775503, "lng": -103.480134
},{
"label": "Rancho del Puente de Mendoza", "lat": 19.807086, "lng": -103.485247
},{
"label": "Felipe Torres", "lat": 19.782985, "lng": -103.506886
},{
"label": "Ejido Uno de Febrero (San Nicolás)", "lat": 19.815606, "lng": -103.491576
},{
"label": "Rancho Viejo", "lat": 19.77896, "lng": -103.473733
},{
"label": "Pitorreal", "lat": 19.932012, "lng": -103.425726
},{
"label": "Piedras Negras", "lat": 19.817823, "lng": -103.344976
},{
"label": "Los Cangrejos", "lat": 19.910091, "lng": -103.393097
},{
"label": "Ramón Núñez", "lat": 19.783005, "lng": -103.513163
},{
"label": "San Sebastián del Sur", "lat": 19.794444, "lng": -103.473056
},{
"label": "Rancho Margarito Seda", "lat": 19.774714, "lng": -103.459503
},{
"label": "El Durazno", "lat": 19.86463, "lng": -103.325012
},{
"label": "Las Cabañas (Piedra la Resbalosa)", "lat": 19.859225, "lng": -103.454409
},{
"label": "Antonio Reyes", "lat": 19.772396, "lng": -103.490873
},{
"label": "El Rodeo", "lat": 19.840756, "lng": -103.436188
},{
"label": "Fidel Fermín", "lat": 19.774268, "lng": -103.49139
},{
"label": "Roble Viejo", "lat": 19.882875, "lng": -103.441657
},{
"label": "Rancho Humberto Pérez", "lat": 19.780359, "lng": -103.499198
},{
"label": "La Loma", "lat": 19.779646, "lng": -103.480674
},{
"label": "Rancho Anatolio Contreras", "lat": 19.818889, "lng": -103.456944
},{
"label": "Las Güilotas", "lat": 19.847183, "lng": -103.381202
},{
"label": "Agua Caliente", "lat": 19.903368, "lng": -103.374688
},{
"label": "Rafael Cisneros", "lat": 19.776172, "lng": -103.489966
},{
"label": "La Cofradía", "lat": 19.835131, "lng": -103.403952
},{
"label": "Palo Dulce", "lat": 19.799829, "lng": -103.539411
},{
"label": "La Yerbabuena", "lat": 19.927439, "lng": -103.409184
},{
"label": "La Calavera", "lat": 19.92249, "lng": -103.342975
},{
"label": "Los Pozos", "lat": 19.887171, "lng": -103.415289
},{
"label": "La Máquina", "lat": 19.940819, "lng": -103.338147
}]