[{
"label": "Paisanos", "lat": 22.544474, "lng": -103.9142
},{
"label": "Sauces", "lat": 22.586359, "lng": -103.86496
},{
"label": "San Julián", "lat": 22.515228, "lng": -103.930789
},{
"label": "Ciénega de Guadalupe", "lat": 22.449553, "lng": -103.943153
},{
"label": "El Cedro", "lat": 22.636777, "lng": -103.824884
},{
"label": "La Taberna", "lat": 22.497034, "lng": -103.935223
},{
"label": "El Pino", "lat": 22.677382, "lng": -103.8428
},{
"label": "La Joya", "lat": 22.702222, "lng": -103.8725
},{
"label": "El Cerro de los Caldera (El Cerrito)", "lat": 22.653333, "lng": -103.901111
},{
"label": "Los Cochinos", "lat": 22.452843, "lng": -103.919103
},{
"label": "Bajío de Maderas", "lat": 22.703622, "lng": -103.873499
},{
"label": "Mesa de Cristo", "lat": 22.694355, "lng": -103.851766
},{
"label": "México", "lat": 22.711787, "lng": -103.807804
},{
"label": "Sanguijuelas", "lat": 22.421369, "lng": -103.892154
},{
"label": "Ranchito de Bellavista", "lat": 22.563393, "lng": -103.859605
},{
"label": "Arrepentidos", "lat": 22.402103, "lng": -103.928959
},{
"label": "El Saltito", "lat": 22.635918, "lng": -104.031552
},{
"label": "El Zopilote de Arriba", "lat": 22.42476, "lng": -103.932268
},{
"label": "El Zopilote", "lat": 22.405318, "lng": -103.922357
},{
"label": "Rancho Colorado", "lat": 22.666961, "lng": -103.883592
},{
"label": "Guadalupe", "lat": 22.624946, "lng": -103.828021
},{
"label": "La Estancia de Abajo", "lat": 22.618474, "lng": -103.916487
},{
"label": "El Pastor", "lat": 22.599674, "lng": -103.924748
},{
"label": "Loma y Plan de la Cueva (Rancho los Medina)", "lat": 22.622846, "lng": -103.877557
},{
"label": "La Boquilla", "lat": 22.556181, "lng": -103.872831
},{
"label": "Buenavista (El Tuerto)", "lat": 22.737451, "lng": -104.014242
},{
"label": "Los Rincones", "lat": 22.646389, "lng": -103.801944
},{
"label": "La Estancia de Arriba", "lat": 22.619651, "lng": -103.909718
},{
"label": "Santa Rosalía", "lat": 22.609839, "lng": -103.942719
},{
"label": "El Ojo de Agua", "lat": 22.617877, "lng": -103.806108
},{
"label": "Bajío de las Flores", "lat": 22.64764, "lng": -103.900185
},{
"label": "Los Llanos", "lat": 22.40874, "lng": -103.904403
},{
"label": "La Jerónima", "lat": 22.698701, "lng": -104.010571
},{
"label": "El Ranchito", "lat": 22.49247, "lng": -103.932327
},{
"label": "El Encino", "lat": 22.585737, "lng": -103.91196
},{
"label": "El Romerillo", "lat": 22.589881, "lng": -103.973173
},{
"label": "Buenos Aires", "lat": 22.448175, "lng": -103.933439
},{
"label": "Las Marías", "lat": 22.697263, "lng": -104.071916
},{
"label": "San José de Orozco", "lat": 22.627818, "lng": -103.91296
},{
"label": "Ninguno [Relleno Sanitario Municipal]", "lat": 22.708056, "lng": -103.900556
},{
"label": "La Bolsa", "lat": 22.523879, "lng": -103.90235
},{
"label": "María Auxiliadora", "lat": 22.588616, "lng": -103.878014
},{
"label": "Colonia Hatmasie", "lat": 22.392903, "lng": -103.991234
},{
"label": "El Sabino", "lat": 22.615278, "lng": -103.903889
},{
"label": "La Cofradía", "lat": 22.613816, "lng": -103.924185
},{
"label": "La Estancia de Pacheco", "lat": 22.522321, "lng": -103.87946
},{
"label": "Los Adobes", "lat": 22.616186, "lng": -103.854214
},{
"label": "Rancho Nuevo", "lat": 22.717292, "lng": -104.05151
},{
"label": "Guerrero (Los Callejones)", "lat": 22.586509, "lng": -103.846763
},{
"label": "Bajío de Navejas", "lat": 22.625149, "lng": -103.932853
},{
"label": "Las Pilas", "lat": 22.405556, "lng": -103.891389
},{
"label": "Cerro de Temachaco", "lat": 22.37996, "lng": -103.929369
},{
"label": "Potrero de Escalante", "lat": 22.581169, "lng": -103.927859
},{
"label": "La Ordeña", "lat": 22.726111, "lng": -104.0025
},{
"label": "La Lagunita", "lat": 22.702761, "lng": -103.848908
},{
"label": "Mesa de Piedras", "lat": 22.693134, "lng": -103.907519
},{
"label": "San Nicolás de Acuña", "lat": 22.533938, "lng": -103.892548
},{
"label": "La Tinaja", "lat": 22.698611, "lng": -103.819722
},{
"label": "Los Zapotes", "lat": 22.639405, "lng": -103.91438
},{
"label": "Margaritas", "lat": 22.596915, "lng": -103.820075
},{
"label": "El Recodo", "lat": 22.450297, "lng": -103.901422
},{
"label": "Panales", "lat": 22.590833, "lng": -103.881389
},{
"label": "La Pedregoza", "lat": 22.705369, "lng": -103.762717
},{
"label": "Salitre de Abajo", "lat": 22.574172, "lng": -103.918457
},{
"label": "Pedernales", "lat": 22.579236, "lng": -103.888595
},{
"label": "Colomos de Tenzompa", "lat": 22.361111, "lng": -103.913611
},{
"label": "San Cayetano de los Landa", "lat": 22.649187, "lng": -103.837076
},{
"label": "Tenzompa", "lat": 22.371446, "lng": -103.926988
},{
"label": "El Pinito Dos", "lat": 22.610707, "lng": -103.945157
},{
"label": "Montellanos", "lat": 22.662406, "lng": -103.815438
},{
"label": "Ojo de Agua", "lat": 22.571171, "lng": -103.872393
},{
"label": "Cuevas", "lat": 22.328398, "lng": -103.944316
},{
"label": "Jimulco", "lat": 22.665949, "lng": -103.866939
},{
"label": "La Muralla", "lat": 22.737173, "lng": -103.941789
},{
"label": "Ortega", "lat": 22.712236, "lng": -103.93473
},{
"label": "Salitre de Arriba", "lat": 22.590704, "lng": -103.906239
},{
"label": "La Encajonada", "lat": 22.38127, "lng": -103.925492
},{
"label": "Rancho Viejo", "lat": 22.675827, "lng": -103.800651
},{
"label": "El Carrizal", "lat": 22.648405, "lng": -103.85002
},{
"label": "El Zollate", "lat": 22.672778, "lng": -103.819722
},{
"label": "El Plan de la Cueva", "lat": 22.606519, "lng": -103.867584
},{
"label": "San Pablo", "lat": 22.442579, "lng": -103.882113
},{
"label": "Colomos de San Nicolás", "lat": 22.5125, "lng": -103.895081
},{
"label": "Cuesta de Yugos", "lat": 22.480327, "lng": -103.881292
},{
"label": "Arroyos del Agua", "lat": 22.655811, "lng": -103.961739
},{
"label": "El Huixtle", "lat": 22.630674, "lng": -103.943207
},{
"label": "El Turbantillo", "lat": 22.638902, "lng": -104.028042
},{
"label": "Tenzompa [Vivero]", "lat": 22.366617, "lng": -103.920623
},{
"label": "El Molino", "lat": 22.573292, "lng": -103.856474
},{
"label": "San José de Maderas", "lat": 22.686539, "lng": -103.834817
},{
"label": "Cerro Blanco", "lat": 22.622778, "lng": -103.920833
},{
"label": "Ninguno [Granja]", "lat": 22.652002, "lng": -103.857443
},{
"label": "Ciénega de Pacheco", "lat": 22.57373, "lng": -103.867104
},{
"label": "La Mina", "lat": 22.683889, "lng": -103.879722
},{
"label": "Atotonilco", "lat": 22.640613, "lng": -104.007543
},{
"label": "Huejuquilla el Alto", "lat": 22.628611, "lng": -103.894167
},{
"label": "Vallecito", "lat": 22.671191, "lng": -103.989061
},{
"label": "Colonia las Granjas", "lat": 22.616066, "lng": -103.896815
},{
"label": "La Puerta", "lat": 22.338879, "lng": -103.975545
},{
"label": "El Terrero", "lat": 22.645735, "lng": -103.908038
},{
"label": "Rancho de Diego", "lat": 22.506209, "lng": -103.91896
},{
"label": "El Mezquite", "lat": 22.409326, "lng": -103.933741
},{
"label": "El Atravesaño", "lat": 22.4793, "lng": -103.907917
},{
"label": "Rincón del Güero", "lat": 22.662868, "lng": -103.80516
},{
"label": "Los García", "lat": 22.654821, "lng": -103.850355
},{
"label": "El Travesaños", "lat": 22.58931, "lng": -103.967235
},{
"label": "El Cuarterón", "lat": 22.582639, "lng": -103.916434
},{
"label": "La Soledad", "lat": 22.432656, "lng": -103.898056
},{
"label": "Puertecito de Porfías", "lat": 22.604981, "lng": -103.998999
},{
"label": "Bajío de Charcos", "lat": 22.494434, "lng": -103.885564
},{
"label": "Los Mezquites", "lat": 22.658195, "lng": -103.846111
}]