[{
"label": "La Manga (Rancho de los Cerritos)", "lat": 20.462603, "lng": -103.211098
},{
"label": "La Diez", "lat": 20.407647, "lng": -103.154869
},{
"label": "Altamira", "lat": 20.406153, "lng": -103.169372
},{
"label": "Rancho Villanueva", "lat": 20.402301, "lng": -103.166822
},{
"label": "Gallinas", "lat": 20.415395, "lng": -103.152118
},{
"label": "Rancho Velázquez", "lat": 20.404061, "lng": -103.236656
},{
"label": "La Estancia", "lat": 20.449937, "lng": -103.206575
},{
"label": "La Querencia", "lat": 20.421583, "lng": -103.234073
},{
"label": "Quinta Sofía", "lat": 20.402939, "lng": -103.170319
},{
"label": "La Bomba", "lat": 20.412246, "lng": -103.215076
},{
"label": "Valle de los Girasoles [Fraccionamiento]", "lat": 20.429233, "lng": -103.198172
},{
"label": "La Curva", "lat": 20.412662, "lng": -103.180232
},{
"label": "Cerro de la Culebra", "lat": 20.336903, "lng": -103.180525
},{
"label": "Buenavista", "lat": 20.384836, "lng": -103.214413
},{
"label": "Los Cedros", "lat": 20.388429, "lng": -103.233579
},{
"label": "Los Troncones", "lat": 20.366231, "lng": -103.232611
},{
"label": "Rancho la Consentida", "lat": 20.39312, "lng": -103.268152
},{
"label": "El Zihuetl (Mina del Cerro el Zihuetl)", "lat": 20.337384, "lng": -103.179162
},{
"label": "Potrero del Carmen", "lat": 20.402736, "lng": -103.224329
},{
"label": "El Cerrito", "lat": 20.387938, "lng": -103.206257
},{
"label": "Rancho Cázares", "lat": 20.366258, "lng": -103.225768
},{
"label": "La Escondida", "lat": 20.37, "lng": -103.201389
},{
"label": "Rancho Gálvez (La Gigantera)", "lat": 20.37071, "lng": -103.228956
},{
"label": "El Cactus [Planta de Tratamiento de Aguas Residuales]", "lat": 20.408683, "lng": -103.134811
},{
"label": "Atequiza", "lat": 20.395278, "lng": -103.139167
},{
"label": "La Florida", "lat": 20.408333, "lng": -103.141666
},{
"label": "El Tepehuaje", "lat": 20.412483, "lng": -103.252934
},{
"label": "Santa Rosa (La Hacienda de Santa Rosa)", "lat": 20.413144, "lng": -103.236306
},{
"label": "Casa Blanca", "lat": 20.410214, "lng": -103.182823
},{
"label": "Las Calabazas", "lat": 20.381905, "lng": -103.178982
},{
"label": "Loma Linda", "lat": 20.414423, "lng": -103.178139
},{
"label": "Los Freseros (Los Sabinos)", "lat": 20.421372, "lng": -103.185806
},{
"label": "La Capilla del Refugio", "lat": 20.445833, "lng": -103.200278
},{
"label": "La Calerita (El Reniego)", "lat": 20.419028, "lng": -103.225781
},{
"label": "Conos de Cedros", "lat": 20.410904, "lng": -103.216946
},{
"label": "Puerta del Sol [Fraccionamiento]", "lat": 20.43142, "lng": -103.237054
},{
"label": "La Cinco", "lat": 20.400915, "lng": -103.151522
},{
"label": "Lomas de la Capilla", "lat": 20.44467, "lng": -103.21414
},{
"label": "Granja Alexis", "lat": 20.412279, "lng": -103.248132
},{
"label": "Rancho Guzmán", "lat": 20.367884, "lng": -103.230314
},{
"label": "El Costeñito", "lat": 20.406556, "lng": -103.229189
},{
"label": "Los Arcos", "lat": 20.413663, "lng": -103.223616
},{
"label": "Los Olivos", "lat": 20.439167, "lng": -103.237778
},{
"label": "La Piedrera", "lat": 20.388044, "lng": -103.265678
},{
"label": "Potrero de las Coloradas", "lat": 20.404294, "lng": -103.126634
},{
"label": "Los Tigres", "lat": 20.327547, "lng": -103.195894
},{
"label": "Huerta Vieja", "lat": 20.424093, "lng": -103.241993
},{
"label": "El Rodeo [Granja]", "lat": 20.415679, "lng": -103.169651
},{
"label": "Puerta del Monte", "lat": 20.441405, "lng": -103.183512
},{
"label": "La Trece (La Treinta)", "lat": 20.419725, "lng": -103.167404
},{
"label": "Cuesta I y II [Microondas]", "lat": 20.331963, "lng": -103.188348
},{
"label": "La Cuatro", "lat": 20.404555, "lng": -103.143404
},{
"label": "La Nueve", "lat": 20.404722, "lng": -103.153889
},{
"label": "La Cofradía", "lat": 20.349317, "lng": -103.174381
},{
"label": "Los Tubos [Fraccionamiento]", "lat": 20.401902, "lng": -103.184923
},{
"label": "Rancho los Alfredos", "lat": 20.406469, "lng": -103.237128
},{
"label": "Pegaso [Gas]", "lat": 20.438542, "lng": -103.229028
},{
"label": "Rancho la Cacahuata (Rancho del Cerdo)", "lat": 20.408459, "lng": -103.269397
},{
"label": "La Treinta", "lat": 20.424323, "lng": -103.165698
},{
"label": "La Siete y la Ocho", "lat": 20.401997, "lng": -103.155825
},{
"label": "El Cortijo", "lat": 20.406276, "lng": -103.177487
},{
"label": "Crucero de Cedros", "lat": 20.399989, "lng": -103.225742
},{
"label": "Las Pilas", "lat": 20.360754, "lng": -103.220372
},{
"label": "Los Olivos [Granja]", "lat": 20.437455, "lng": -103.22287
},{
"label": "San José", "lat": 20.376248, "lng": -103.248759
},{
"label": "La Campanilla", "lat": 20.372831, "lng": -103.209865
},{
"label": "Rinconada la Loma [Fraccionamiento]", "lat": 20.454607, "lng": -103.220581
},{
"label": "Santa Ana de Cedros", "lat": 20.407419, "lng": -103.193439
},{
"label": "San Francisco [Granja]", "lat": 20.453908, "lng": -103.231053
},{
"label": "Haciendas del Lago", "lat": 20.404027, "lng": -103.261351
},{
"label": "Las Limas", "lat": 20.411089, "lng": -103.221928
},{
"label": "Rancho los Villanueva", "lat": 20.400331, "lng": -103.228075
},{
"label": "El Guajolote Chico", "lat": 20.391095, "lng": -103.221058
},{
"label": "Misión San Pablo", "lat": 20.398915, "lng": -103.227879
},{
"label": "El Varal", "lat": 20.355819, "lng": -103.245875
},{
"label": "El Mirador", "lat": 20.403723, "lng": -103.159916
},{
"label": "Los Caporales (El Refugio)", "lat": 20.371786, "lng": -103.215575
},{
"label": "La Tinaja", "lat": 20.393237, "lng": -103.149345
},{
"label": "El Rodadillo", "lat": 20.426125, "lng": -103.177805
},{
"label": "Carboneras", "lat": 20.40752, "lng": -103.173304
},{
"label": "La Presita", "lat": 20.409453, "lng": -103.248607
},{
"label": "Rancho González (Catem)", "lat": 20.371678, "lng": -103.230329
},{
"label": "Rancho Santa María", "lat": 20.363495, "lng": -103.216895
},{
"label": "La Herradura", "lat": 20.401012, "lng": -103.165814
},{
"label": "La Membrillera", "lat": 20.410824, "lng": -103.247352
},{
"label": "San Isidro (El Aguacate)", "lat": 20.36945, "lng": -103.283869
},{
"label": "Chapala Haciendas", "lat": 20.327417, "lng": -103.189659
},{
"label": "San Pedro", "lat": 20.408951, "lng": -103.230523
},{
"label": "Lomas de Atequiza", "lat": 20.382475, "lng": -103.135721
},{
"label": "Gosa [Industrias]", "lat": 20.472778, "lng": -103.216667
},{
"label": "Rancho Baruqui", "lat": 20.423168, "lng": -103.200601
},{
"label": "El Zalate", "lat": 20.351865, "lng": -103.161859
},{
"label": "Santa María", "lat": 20.416918, "lng": -103.188444
},{
"label": "Las Humedades", "lat": 20.396871, "lng": -103.214138
},{
"label": "Paraíso Escondido", "lat": 20.370011, "lng": -103.175356
},{
"label": "San Miguel [Granja]", "lat": 20.39703, "lng": -103.2343
},{
"label": "El Llano [Granja]", "lat": 20.445343, "lng": -103.245999
},{
"label": "Ojo de Agua", "lat": 20.412196, "lng": -103.161623
},{
"label": "Rancho los Garañones", "lat": 20.399116, "lng": -103.229279
},{
"label": "Vista Hermosa", "lat": 20.401841, "lng": -103.153504
},{
"label": "La Ilusión", "lat": 20.415605, "lng": -103.247299
},{
"label": "Las Guayabas", "lat": 20.368103, "lng": -103.217272
},{
"label": "Huerta Vieja [Fraccionamiento]", "lat": 20.430215, "lng": -103.228844
},{
"label": "Charco [Granja]", "lat": 20.374703, "lng": -103.232786
},{
"label": "Rancho San Carlos", "lat": 20.370601, "lng": -103.231719
},{
"label": "Rancho la Presa", "lat": 20.394732, "lng": -103.165378
},{
"label": "El Tepache", "lat": 20.410398, "lng": -103.206347
},{
"label": "El Porvenir [Granja]", "lat": 20.450544, "lng": -103.234137
},{
"label": "Los Molineros (Rancho el Chubasco)", "lat": 20.378211, "lng": -103.229166
},{
"label": "San Carlos (El Carmen)", "lat": 20.430554, "lng": -103.206599
},{
"label": "Orientes [Restaurante]", "lat": 20.412878, "lng": -103.225244
},{
"label": "Opus Dei (Los Hornitos) [Centro de Formación Misionera]", "lat": 20.366365, "lng": -103.218146
},{
"label": "Las Maravillas", "lat": 20.393651, "lng": -103.198583
},{
"label": "El Molino", "lat": 20.344284, "lng": -103.158535
},{
"label": "Las Carretas", "lat": 20.4503, "lng": -103.24302
},{
"label": "El Rodeo", "lat": 20.408841, "lng": -103.180103
},{
"label": "Planta Gatorade", "lat": 20.432436, "lng": -103.215672
},{
"label": "El Sacrificio", "lat": 20.410019, "lng": -103.200642
},{
"label": "Mezquite Redondo", "lat": 20.470225, "lng": -103.219256
},{
"label": "El Verde (Rincón de Mariana)", "lat": 20.450824, "lng": -103.190344
},{
"label": "La Loma", "lat": 20.449908, "lng": -103.21012
},{
"label": "Miravalle", "lat": 20.439461, "lng": -103.226697
},{
"label": "La Arena", "lat": 20.401261, "lng": -103.191439
},{
"label": "La Playa (El Sobaco)", "lat": 20.419419, "lng": -103.177998
},{
"label": "Ninguno [Embotelladora de Occidente]", "lat": 20.43402, "lng": -103.240509
},{
"label": "Los Fresnos", "lat": 20.417117, "lng": -103.147893
},{
"label": "La Cañita", "lat": 20.353806, "lng": -103.175722
},{
"label": "Ixtlahuacán de los Membrillos", "lat": 20.346667, "lng": -103.191389
},{
"label": "Las Alazanas", "lat": 20.437376, "lng": -103.216543
},{
"label": "La Loma de Santa Rosa", "lat": 20.399083, "lng": -103.248461
},{
"label": "Potrero la Huizachera", "lat": 20.409612, "lng": -103.219783
},{
"label": "San Francisco", "lat": 20.398135, "lng": -103.267238
},{
"label": "La Cañada", "lat": 20.376174, "lng": -103.259505
},{
"label": "El Verde", "lat": 20.451815, "lng": -103.21994
},{
"label": "El Agua Escondida", "lat": 20.415972, "lng": -103.179873
},{
"label": "Báscula San Mateo", "lat": 20.443103, "lng": -103.245055
},{
"label": "La Calera [Oxxo]", "lat": 20.425883, "lng": -103.237888
}]