[{
"label": "Los Guayabos", "lat": 19.863889, "lng": -103.09
},{
"label": "Palos Gordos", "lat": 19.92625, "lng": -103.063928
},{
"label": "Mazamitla", "lat": 19.917222, "lng": -103.020278
},{
"label": "Coanico", "lat": 19.882924, "lng": -103.039984
},{
"label": "La Central", "lat": 19.873558, "lng": -103.091268
},{
"label": "El Quijote", "lat": 19.850238, "lng": -103.093195
},{
"label": "Corral de la Mula", "lat": 19.858448, "lng": -102.99555
},{
"label": "El Jahuique", "lat": 19.944598, "lng": -103.051665
},{
"label": "Loma Encantada", "lat": 19.942406, "lng": -103.037178
},{
"label": "La Lagunita", "lat": 19.862489, "lng": -103.033532
},{
"label": "Epenche Chico (Penche Chico)", "lat": 19.938998, "lng": -103.019446
},{
"label": "El Carrizo", "lat": 19.957245, "lng": -103.029839
},{
"label": "El Cerro Pelón", "lat": 19.884295, "lng": -103.018829
},{
"label": "Las Santas Marías", "lat": 19.840271, "lng": -102.987237
},{
"label": "Rancho el Mezcal", "lat": 19.856046, "lng": -103.100299
},{
"label": "El Paiztle", "lat": 19.796671, "lng": -103.016441
},{
"label": "La Estacada", "lat": 19.933496, "lng": -103.035246
},{
"label": "El Mezcal", "lat": 19.861202, "lng": -103.108618
},{
"label": "El Zapatero", "lat": 19.867482, "lng": -103.074987
},{
"label": "Pinos de Mazamitla", "lat": 19.888672, "lng": -103.023721
},{
"label": "La Herradura", "lat": 19.921823, "lng": -103.031754
},{
"label": "Flor del Campo", "lat": 19.833871, "lng": -103.063796
},{
"label": "Puerta del Zapatero", "lat": 19.853014, "lng": -103.085588
},{
"label": "La Ruana", "lat": 19.810134, "lng": -103.045565
},{
"label": "La Palma (Ojo del Buey)", "lat": 19.819115, "lng": -103.042449
},{
"label": "El Tabardillo (Las Chapatas)", "lat": 19.914197, "lng": -103.045081
},{
"label": "La Cuchilla", "lat": 19.828471, "lng": -103.006487
},{
"label": "Puertas Cuatas", "lat": 19.833751, "lng": -103.004466
},{
"label": "La Maravilla", "lat": 19.807662, "lng": -103.013085
},{
"label": "Lomas del Soyate", "lat": 19.961806, "lng": -103.022853
},{
"label": "El Huizache", "lat": 19.798117, "lng": -103.012563
},{
"label": "Ojo de Agua", "lat": 19.961058, "lng": -103.099979
},{
"label": "El Llano de los Toros", "lat": 19.934624, "lng": -103.010559
},{
"label": "El Matadero", "lat": 19.872236, "lng": -103.041901
},{
"label": "Paso de los Arrieros", "lat": 19.921916, "lng": -103.05754
},{
"label": "La Pedregosa", "lat": 19.823009, "lng": -103.001801
},{
"label": "El Colorado", "lat": 19.851715, "lng": -103.144557
},{
"label": "Corral Falso", "lat": 19.86778, "lng": -103.125263
},{
"label": "San Martín", "lat": 19.898889, "lng": -103.130703
},{
"label": "El Corral de Mejía", "lat": 19.880789, "lng": -103.163853
},{
"label": "La Media Luna", "lat": 19.966278, "lng": -103.061745
},{
"label": "Yerbabuena", "lat": 19.911273, "lng": -103.035254
},{
"label": "Lagunita de González", "lat": 19.958183, "lng": -103.03567
},{
"label": "Los Rincones", "lat": 19.836813, "lng": -103.079369
},{
"label": "Las Juntas del Pedregal", "lat": 19.837717, "lng": -103.088053
},{
"label": "El Saucito", "lat": 19.839833, "lng": -103.022729
},{
"label": "Epenche Grande (Penche Grande)", "lat": 19.923264, "lng": -103.107286
},{
"label": "Aguacate", "lat": 19.942167, "lng": -103.101284
},{
"label": "El Carrizalillo", "lat": 19.864974, "lng": -103.067721
},{
"label": "El Humo (El Marillo)", "lat": 19.788311, "lng": -103.016569
},{
"label": "Puerto de las Cuevas", "lat": 19.945425, "lng": -103.065277
},{
"label": "La Chachalaca (Agua Nueva)", "lat": 19.869571, "lng": -103.152712
},{
"label": "El Pandito", "lat": 19.913679, "lng": -103.006397
},{
"label": "Loma Alta", "lat": 19.89917, "lng": -103.034723
},{
"label": "La Llorona [Country Club]", "lat": 19.910474, "lng": -103.064094
},{
"label": "La Rosa Colorada", "lat": 19.925742, "lng": -103.004055
},{
"label": "El Derramadero", "lat": 19.906166, "lng": -103.123531
},{
"label": "La Huevera", "lat": 19.889835, "lng": -103.120612
},{
"label": "La Puente", "lat": 19.916036, "lng": -103.083131
},{
"label": "El Salitrillo", "lat": 19.856362, "lng": -103.049785
},{
"label": "El Llano", "lat": 19.884434, "lng": -103.004493
},{
"label": "Río de Gómez", "lat": 19.80611, "lng": -102.999861
},{
"label": "La Toscana", "lat": 19.922895, "lng": -103.009797
},{
"label": "El Terrero", "lat": 19.895319, "lng": -103.083951
},{
"label": "Las Pajitas", "lat": 19.821697, "lng": -103.011065
},{
"label": "Los Cazos", "lat": 19.903129, "lng": -103.034989
},{
"label": "El Chorro (Bosque la Luna)", "lat": 19.903117, "lng": -103.020377
},{
"label": "Río de los Chilares", "lat": 19.877863, "lng": -103.062989
},{
"label": "La Cofradía", "lat": 19.92356, "lng": -103.049598
},{
"label": "La Bragadita", "lat": 19.957229, "lng": -103.083068
},{
"label": "La Cañada", "lat": 19.927469, "lng": -103.026398
},{
"label": "El Cucharo", "lat": 19.864964, "lng": -103.045436
},{
"label": "Dos Aguas", "lat": 19.878333, "lng": -103.000833
},{
"label": "El Fresno", "lat": 19.836473, "lng": -102.999936
},{
"label": "Menguaro (Bellevista)", "lat": 19.923056, "lng": -103.152006
},{
"label": "El Fresnal", "lat": 19.838388, "lng": -103.035663
},{
"label": "Las Trompetas", "lat": 19.941434, "lng": -103.007592
},{
"label": "Cimas del Bosque", "lat": 19.895993, "lng": -103.028667
},{
"label": "La Venta", "lat": 19.985535, "lng": -103.053393
},{
"label": "Los Tazajos", "lat": 19.867645, "lng": -103.00685
}]