[{
"label": "Loma de los Pinos", "lat": 22.326369, "lng": -104.040259
},{
"label": "Ciénega", "lat": 22.251714, "lng": -104.063347
},{
"label": "Ramuakari Macave", "lat": 22.05385, "lng": -104.343237
},{
"label": "Cuemantra (La Escondida)", "lat": 21.967961, "lng": -104.040682
},{
"label": "Los Cántaros", "lat": 22.258124, "lng": -104.296492
},{
"label": "La Noria", "lat": 22.399613, "lng": -103.731478
},{
"label": "Tepalcatita", "lat": 22.303301, "lng": -103.978329
},{
"label": "El Aire", "lat": 22.008768, "lng": -104.119129
},{
"label": "San Miguel (San Miguel Huaixtita)", "lat": 22.070619, "lng": -104.321683
},{
"label": "El Pedregal", "lat": 21.971573, "lng": -103.986311
},{
"label": "Los Negros", "lat": 22.108361, "lng": -104.302981
},{
"label": "Las Aguilillas (Los Guayabos)", "lat": 22.303419, "lng": -104.111753
},{
"label": "Agua de Venado", "lat": 22.310933, "lng": -104.130907
},{
"label": "Nueva Colonia", "lat": 22.311766, "lng": -104.026088
},{
"label": "Los Cerros", "lat": 22.450169, "lng": -104.089348
},{
"label": "Tierra Blanca", "lat": 22.163164, "lng": -104.199737
},{
"label": "Pueblo Nuevo", "lat": 22.217422, "lng": -104.063525
},{
"label": "El Salitre", "lat": 22.463775, "lng": -103.634769
},{
"label": "Techalotita", "lat": 22.004614, "lng": -104.170608
},{
"label": "La Calabacilla", "lat": 22.129029, "lng": -104.098791
},{
"label": "Pedernal", "lat": 22.319662, "lng": -104.095069
},{
"label": "Ciénega del Picacho", "lat": 21.967729, "lng": -104.087123
},{
"label": "Gato Montes", "lat": 22.142147, "lng": -104.045187
},{
"label": "La Chaparra", "lat": 22.099128, "lng": -103.930659
},{
"label": "Agua Tapada", "lat": 22.065275, "lng": -104.100285
},{
"label": "Los Arrieros", "lat": 22.179444, "lng": -104.123056
},{
"label": "Rancho Galicia", "lat": 22.412411, "lng": -103.73683
},{
"label": "Ocota", "lat": 22.174088, "lng": -104.202595
},{
"label": "La Guacamaya", "lat": 22.098243, "lng": -103.933133
},{
"label": "Santa Fe", "lat": 22.475774, "lng": -103.774874
},{
"label": "Pitahayas", "lat": 22.146042, "lng": -104.213633
},{
"label": "El Tempisque", "lat": 22.131111, "lng": -104.055556
},{
"label": "Ninguno", "lat": 22.241399, "lng": -104.135199
},{
"label": "Cerrito", "lat": 22.111976, "lng": -104.032508
},{
"label": "Taimarita", "lat": 22.285734, "lng": -104.085396
},{
"label": "El Barbecho", "lat": 22.106637, "lng": -104.351056
},{
"label": "Las Azucenas", "lat": 22.092591, "lng": -103.954531
},{
"label": "El Huizache", "lat": 22.167788, "lng": -104.101373
},{
"label": "Rancho Junta", "lat": 22.085649, "lng": -104.066311
},{
"label": "Magueycito", "lat": 22.052785, "lng": -104.233737
},{
"label": "Ciénega de las Higueras", "lat": 22.248752, "lng": -104.048353
},{
"label": "La Florida", "lat": 22.259494, "lng": -104.225564
},{
"label": "La Palma", "lat": 21.944012, "lng": -104.087764
},{
"label": "Monarcas Piedras Negras", "lat": 22.295961, "lng": -103.939472
},{
"label": "Aguacatera", "lat": 22.113056, "lng": -104.0425
},{
"label": "Gavilanes", "lat": 21.990858, "lng": -104.015926
},{
"label": "Las Lajas", "lat": 22.459672, "lng": -103.576715
},{
"label": "Palo Verde", "lat": 22.022087, "lng": -104.200952
},{
"label": "Los Huizaches", "lat": 22.21783, "lng": -104.1241
},{
"label": "Soconita", "lat": 22.166377, "lng": -104.109394
},{
"label": "Palmillas (Rancho el Olvido)", "lat": 22.112451, "lng": -104.005853
},{
"label": "Rancho de Enmedio", "lat": 22.012841, "lng": -104.076658
},{
"label": "Los Curpos", "lat": 22.186596, "lng": -104.017362
},{
"label": "El Indio (Rancho el Indio)", "lat": 22.101658, "lng": -103.942159
},{
"label": "Mayehekwa Pueblo Nuevo 2", "lat": 22.208204, "lng": -104.060551
},{
"label": "Agua Zarca", "lat": 22.467947, "lng": -103.615719
},{
"label": "El Zalate (Satupa)", "lat": 22.064386, "lng": -104.19297
},{
"label": "Los Manzanillos", "lat": 22.32434, "lng": -104.170656
},{
"label": "Carrizalillo", "lat": 22.188808, "lng": -104.065604
},{
"label": "La Manga", "lat": 22.359817, "lng": -104.07068
},{
"label": "Petate Chino", "lat": 22.008185, "lng": -104.147695
},{
"label": "Cieneguita", "lat": 22.219422, "lng": -104.294119
},{
"label": "El Guamúchil Huastito", "lat": 22.084942, "lng": -104.303812
},{
"label": "El Puerto", "lat": 22.467567, "lng": -103.776286
},{
"label": "El Encino", "lat": 21.939618, "lng": -104.122144
},{
"label": "Los Pitahayos", "lat": 22.363514, "lng": -104.062465
},{
"label": "El Romerillo", "lat": 22.325025, "lng": -103.69703
},{
"label": "Mocorita", "lat": 22.365278, "lng": -104.209167
},{
"label": "Las Tripas", "lat": 22.071944, "lng": -104.313611
},{
"label": "Siete de Mayo", "lat": 22.305352, "lng": -104.165219
},{
"label": "Mesa de San Francisco", "lat": 22.068056, "lng": -104.055833
},{
"label": "Tepeguaje", "lat": 22.364078, "lng": -103.791225
},{
"label": "Rancho Tecomatillo", "lat": 22.084769, "lng": -104.066499
},{
"label": "El Maguey", "lat": 22.310729, "lng": -103.681283
},{
"label": "El Sabino", "lat": 22.402877, "lng": -103.789961
},{
"label": "La Loma Dos", "lat": 22.229727, "lng": -104.073408
},{
"label": "Minillas", "lat": 22.495278, "lng": -103.636389
},{
"label": "Parajitos", "lat": 22.451588, "lng": -103.737204
},{
"label": "Acatita", "lat": 22.233234, "lng": -104.298873
},{
"label": "José Guadalupe", "lat": 22.275763, "lng": -104.026073
},{
"label": "El Encino (Los Encinos)", "lat": 22.259023, "lng": -104.178754
},{
"label": "Ratontita", "lat": 21.969071, "lng": -103.99028
},{
"label": "Carricillo", "lat": 22.231706, "lng": -104.087517
},{
"label": "Cerro del Niño (Crucero del Niño)", "lat": 22.290581, "lng": -104.277683
},{
"label": "El Limón", "lat": 22.288802, "lng": -104.07546
},{
"label": "Las Pilas", "lat": 22.265312, "lng": -103.958304
},{
"label": "Tempeste", "lat": 21.965511, "lng": -104.156239
},{
"label": "La Golondrina", "lat": 22.286924, "lng": -104.159373
},{
"label": "Rancho de Venado", "lat": 22.015705, "lng": -104.022706
},{
"label": "Campamento", "lat": 22.233666, "lng": -104.267623
},{
"label": "Tecolote", "lat": 22.072833, "lng": -104.304896
},{
"label": "El Bosque (Rapamambe)", "lat": 22.081667, "lng": -104.31053
},{
"label": "La Presa", "lat": 22.388333, "lng": -103.661667
},{
"label": "La Guasimita", "lat": 22.461597, "lng": -104.120221
},{
"label": "Tempisque", "lat": 21.996335, "lng": -104.199764
},{
"label": "La Colmena", "lat": 22.088988, "lng": -104.065699
},{
"label": "San Miguel", "lat": 22.326865, "lng": -103.672238
},{
"label": "Víctor Mijares", "lat": 22.235985, "lng": -104.101216
},{
"label": "Las Guitarras (La Guitarra)", "lat": 21.973691, "lng": -104.085514
},{
"label": "Arroyo del Guayabo", "lat": 22.07381, "lng": -104.194155
},{
"label": "Tierra Blanca (Los Zalates)", "lat": 22.158669, "lng": -104.118262
},{
"label": "Tlaltenango", "lat": 22.136732, "lng": -104.028829
},{
"label": "Pochotita", "lat": 22.273115, "lng": -104.116357
},{
"label": "Huanco de Cohamiata", "lat": 22.210432, "lng": -104.219961
},{
"label": "Los Olotes", "lat": 22.082404, "lng": -104.136589
},{
"label": "Los Amoles (Bajío de los Amoles)", "lat": 22.058056, "lng": -103.931667
},{
"label": "Tierra Prieta", "lat": 22.339973, "lng": -103.788137
},{
"label": "Zacualpan", "lat": 22.146999, "lng": -104.120801
},{
"label": "El Menudo", "lat": 21.949351, "lng": -104.100059
},{
"label": "Rancho Santa María", "lat": 22.110611, "lng": -104.074884
},{
"label": "El Puente", "lat": 22.089705, "lng": -104.282553
},{
"label": "La Amolera", "lat": 22.238111, "lng": -103.945712
},{
"label": "Rancho de la Relación", "lat": 22.068106, "lng": -104.019133
},{
"label": "El Zapote", "lat": 22.414167, "lng": -104.143333
},{
"label": "Los Coyules", "lat": 22.095524, "lng": -104.055015
},{
"label": "Nopales", "lat": 22.336255, "lng": -104.090303
},{
"label": "La Arenita", "lat": 22.529722, "lng": -103.708611
},{
"label": "Santa María", "lat": 22.031456, "lng": -104.20626
},{
"label": "Tecomate", "lat": 22.175054, "lng": -104.160231
},{
"label": "Los Pinos", "lat": 22.265, "lng": -104.106667
},{
"label": "Mesa Robleda", "lat": 22.315278, "lng": -104.082778
},{
"label": "Pajaritos", "lat": 22.024427, "lng": -104.198969
},{
"label": "La Ciénega", "lat": 22.055116, "lng": -104.038881
},{
"label": "Crucero de Nostic", "lat": 22.39373, "lng": -103.733391
},{
"label": "Bajío del Tule", "lat": 22.006489, "lng": -103.881283
},{
"label": "Ninguno [Aserradero de los Coconos]", "lat": 22.087525, "lng": -103.885538
},{
"label": "Ciénega de San Francisco", "lat": 22.097828, "lng": -103.928469
},{
"label": "El Cangrejo", "lat": 22.228611, "lng": -104.093889
},{
"label": "San Sebastián Teponahuaxtlán", "lat": 22.081452, "lng": -104.062526
},{
"label": "Los Nopales", "lat": 22.02847, "lng": -104.35936
},{
"label": "Ciruelillo", "lat": 22.013614, "lng": -104.229256
},{
"label": "El Real del Zorrillo", "lat": 22.382341, "lng": -103.737652
},{
"label": "La Lengua", "lat": 22.086457, "lng": -104.057438
},{
"label": "El Saucito", "lat": 22.526071, "lng": -103.668984
},{
"label": "El Tepaixte", "lat": 21.934253, "lng": -104.162907
},{
"label": "Ciénega de Bautista", "lat": 22.088611, "lng": -104.028056
},{
"label": "Rancho el Aguacate", "lat": 22.042778, "lng": -104.286389
},{
"label": "Las Flores", "lat": 22.175342, "lng": -104.076029
},{
"label": "El Nehual", "lat": 22.284365, "lng": -103.673383
},{
"label": "Rancho los Escalante", "lat": 22.450744, "lng": -103.738135
},{
"label": "Agua Puerca", "lat": 22.079195, "lng": -104.15112
},{
"label": "El Carrizalillo", "lat": 22.284399, "lng": -104.053662
},{
"label": "Barranca de las Viejas", "lat": 22.197331, "lng": -103.93095
},{
"label": "Los Corrales", "lat": 22.349186, "lng": -103.786129
},{
"label": "El Platanar", "lat": 22.054313, "lng": -104.010461
},{
"label": "Santa Rosa [Bodega]", "lat": 22.322346, "lng": -103.680034
},{
"label": "Las Pilas (Las Pilas)", "lat": 22.015973, "lng": -104.155144
},{
"label": "El Jazmín", "lat": 22.065814, "lng": -104.327617
},{
"label": "El Platanito", "lat": 22.276163, "lng": -103.702375
},{
"label": "Rincón de San Vicente", "lat": 22.471429, "lng": -104.072011
},{
"label": "Nopalera", "lat": 22.159919, "lng": -104.122176
},{
"label": "Santa Gertrudis", "lat": 22.276873, "lng": -104.099389
},{
"label": "Las Flechas", "lat": 22.40503, "lng": -104.15364
},{
"label": "San Francisco", "lat": 22.244627, "lng": -104.271666
},{
"label": "Los Cantaritos", "lat": 22.132717, "lng": -103.997522
},{
"label": "Las Papas", "lat": 22.166766, "lng": -103.94775
},{
"label": "El Mortero", "lat": 22.355718, "lng": -103.666816
},{
"label": "Rancho Alicia (El Roble)", "lat": 22.287201, "lng": -104.130795
},{
"label": "Segundo Nivel", "lat": 22.341156, "lng": -104.158695
},{
"label": "Palma Chica Huastita", "lat": 22.053799, "lng": -104.322142
},{
"label": "Santa Catarina Cuexcomatitlán", "lat": 22.155216, "lng": -104.109925
},{
"label": "Hai Mota", "lat": 22.288423, "lng": -104.124193
},{
"label": "La Capilla", "lat": 22.293056, "lng": -104.077222
},{
"label": "Los Altos", "lat": 22.234152, "lng": -104.281543
},{
"label": "El Venado", "lat": 21.933789, "lng": -104.105667
},{
"label": "El Molinito (Molinitos)", "lat": 22.284465, "lng": -103.809928
},{
"label": "Los Guayabos", "lat": 22.263078, "lng": -104.13659
},{
"label": "Laguna", "lat": 22.034334, "lng": -104.074555
},{
"label": "Los Arrayanes", "lat": 21.964903, "lng": -104.014124
},{
"label": "Rancho los Encinos", "lat": 22.216758, "lng": -104.116383
},{
"label": "El Puerto (El Puertecito)", "lat": 22.038939, "lng": -103.905587
},{
"label": "La Guásima", "lat": 22.021935, "lng": -104.105802
},{
"label": "La Nariz", "lat": 22.058264, "lng": -104.289741
},{
"label": "Zempual", "lat": 22.300289, "lng": -104.019783
},{
"label": "Los Lobos", "lat": 22.035256, "lng": -104.363662
},{
"label": "El Paraíso", "lat": 22.180198, "lng": -104.10817
},{
"label": "El Sauz", "lat": 22.496408, "lng": -103.616449
},{
"label": "El Vivero", "lat": 22.300709, "lng": -104.003141
},{
"label": "Arroyo Lindo", "lat": 22.12698, "lng": -104.057621
},{
"label": "El Pino", "lat": 22.323304, "lng": -103.688338
},{
"label": "Casa Nueva", "lat": 22.286379, "lng": -104.015746
},{
"label": "Ocota de los Llanos", "lat": 22.023547, "lng": -104.045071
},{
"label": "Ciénega Chica", "lat": 22.387698, "lng": -103.71182
},{
"label": "San Isidro", "lat": 22.257191, "lng": -103.718013
},{
"label": "Santa Lucía", "lat": 22.299544, "lng": -104.007782
},{
"label": "San José de los Madera (Rancho de los Madera)", "lat": 22.318765, "lng": -103.728462
},{
"label": "Gumercindo Reyes", "lat": 22.520409, "lng": -103.769655
},{
"label": "Ixtalpa", "lat": 22.271394, "lng": -104.010258
},{
"label": "La Joya", "lat": 22.339301, "lng": -104.014564
},{
"label": "Rancho del Rincón", "lat": 22.021319, "lng": -104.015868
},{
"label": "El Duraznillo", "lat": 22.243999, "lng": -103.904428
},{
"label": "Rancho de Nacho López", "lat": 22.370556, "lng": -103.733333
},{
"label": "La Cueva", "lat": 22.249448, "lng": -104.214852
},{
"label": "El Gachupín", "lat": 22.279065, "lng": -104.205597
},{
"label": "Las Peñitas", "lat": 22.104794, "lng": -103.877226
},{
"label": "El Consuelo", "lat": 22.371076, "lng": -103.650941
},{
"label": "El Cuerno (El Cuernito)", "lat": 22.144221, "lng": -104.028976
},{
"label": "San Andrés Cohamiata", "lat": 22.189174, "lng": -104.242551
},{
"label": "Mogotes", "lat": 22.368668, "lng": -103.790491
},{
"label": "Las Chinelas", "lat": 22.350853, "lng": -103.729844
},{
"label": "Totuate", "lat": 22.284598, "lng": -103.736075
},{
"label": "La Hedionda", "lat": 21.966872, "lng": -104.016279
},{
"label": "El Parral", "lat": 22.220334, "lng": -104.261723
},{
"label": "Expendio de Cemento", "lat": 22.394613, "lng": -103.709014
},{
"label": "Taller de Tuapuri (Santa Cruz)", "lat": 22.215333, "lng": -103.911157
},{
"label": "Piedra del Sombrero", "lat": 22.081684, "lng": -104.159098
},{
"label": "Los Alacranes", "lat": 22.263745, "lng": -104.024181
},{
"label": "El Encinal", "lat": 22.086345, "lng": -104.058774
},{
"label": "Rancho Verde", "lat": 22.207642, "lng": -104.072503
},{
"label": "El Banco (El Bajío)", "lat": 22.304079, "lng": -104.212469
},{
"label": "La Boquilla", "lat": 22.529377, "lng": -103.721196
},{
"label": "El Popote (Tierra Amarilla)", "lat": 21.909167, "lng": -104.173889
},{
"label": "Puerta de Mango", "lat": 22.172972, "lng": -104.17965
},{
"label": "Bola Negra", "lat": 21.998735, "lng": -104.212574
},{
"label": "Potrero de Navarrete", "lat": 22.522449, "lng": -103.621848
},{
"label": "Los Otates", "lat": 22.122461, "lng": -104.099141
},{
"label": "Hacienda Ocota", "lat": 22.181815, "lng": -103.78176
},{
"label": "Mesa del Zapote", "lat": 22.213425, "lng": -104.282311
},{
"label": "Ocotita", "lat": 22.184731, "lng": -104.097007
},{
"label": "El Martillo", "lat": 22.336225, "lng": -103.690466
},{
"label": "La Cabaña del Tío Meño", "lat": 22.345848, "lng": -103.603785
},{
"label": "Los Ciruelos (El Ciruelo)", "lat": 22.231377, "lng": -104.148948
},{
"label": "Tierra Colorada", "lat": 22.178421, "lng": -104.323561
},{
"label": "San Nicolás", "lat": 22.201064, "lng": -104.319745
},{
"label": "Las Jícaras", "lat": 22.165997, "lng": -104.101503
},{
"label": "Sergio de la Cruz", "lat": 22.263286, "lng": -104.013578
},{
"label": "Piedras Chinas", "lat": 22.055113, "lng": -103.938919
},{
"label": "Santiago Bautista", "lat": 22.165811, "lng": -104.097082
},{
"label": "San Lucas", "lat": 22.035711, "lng": -104.290749
},{
"label": "Corral Blanco", "lat": 22.288889, "lng": -103.738611
},{
"label": "La Mojonera", "lat": 22.189888, "lng": -104.075369
},{
"label": "Duraznito", "lat": 22.042901, "lng": -104.003069
},{
"label": "Rancho de Huerta", "lat": 22.381582, "lng": -103.729834
},{
"label": "El Roble", "lat": 21.958602, "lng": -103.957949
},{
"label": "El Tesorero", "lat": 22.302073, "lng": -104.203346
},{
"label": "San Antonio", "lat": 22.346939, "lng": -103.664306
},{
"label": "El Tabaco", "lat": 22.130941, "lng": -104.003718
},{
"label": "Rancho Nativo", "lat": 22.093449, "lng": -104.055751
},{
"label": "Los Canchos", "lat": 22.134978, "lng": -104.361394
},{
"label": "El Alacrán", "lat": 22.0598, "lng": -104.361928
},{
"label": "Carrizal", "lat": 22.213786, "lng": -104.302948
},{
"label": "Violeta", "lat": 22.151111, "lng": -104.090556
},{
"label": "Lázaro", "lat": 22.216998, "lng": -104.218786
},{
"label": "Aguacatillo", "lat": 22.015926, "lng": -104.009892
},{
"label": "Guichapan", "lat": 22.051349, "lng": -104.19211
},{
"label": "Huejuquillita", "lat": 22.159363, "lng": -104.021053
},{
"label": "El Carricito", "lat": 22.379883, "lng": -104.134004
},{
"label": "Los Capulines", "lat": 22.151116, "lng": -104.124018
},{
"label": "Piedra China", "lat": 22.157558, "lng": -104.121416
},{
"label": "La Torcaza", "lat": 22.180576, "lng": -104.079355
},{
"label": "El Puertecito", "lat": 21.914123, "lng": -104.123113
},{
"label": "San José", "lat": 22.258631, "lng": -103.787458
},{
"label": "Solitario", "lat": 22.153485, "lng": -104.041173
},{
"label": "La Bolita Jalisco", "lat": 22.274834, "lng": -104.217733
},{
"label": "Flor de Mayo", "lat": 22.113126, "lng": -104.03673
},{
"label": "La Codorniz (La Cebolleta)", "lat": 22.285826, "lng": -104.282087
},{
"label": "Bajío de la Cruz", "lat": 22.178125, "lng": -103.937506
},{
"label": "El Ochote", "lat": 22.074397, "lng": -104.208067
},{
"label": "Rancho Vargas", "lat": 22.389206, "lng": -103.739628
},{
"label": "Lecumbre", "lat": 21.920593, "lng": -104.103865
},{
"label": "Salatita", "lat": 22.027818, "lng": -104.016163
},{
"label": "El Mirador", "lat": 22.167861, "lng": -104.231203
},{
"label": "Pila Honda", "lat": 21.926325, "lng": -104.073908
},{
"label": "El Toro", "lat": 22.388443, "lng": -103.797334
},{
"label": "Potrero Nuevo", "lat": 22.52503, "lng": -103.712045
},{
"label": "Llanito", "lat": 22.134455, "lng": -104.027071
},{
"label": "Tescalame", "lat": 21.99919, "lng": -104.169188
},{
"label": "Ciudad Juárez", "lat": 22.311408, "lng": -104.179325
},{
"label": "Los Pinabetes", "lat": 22.305278, "lng": -104.025
},{
"label": "La Guadalupe", "lat": 22.15128, "lng": -103.994114
},{
"label": "Rancho Alegre", "lat": 22.211515, "lng": -104.067182
},{
"label": "Telar", "lat": 22.303457, "lng": -104.020873
},{
"label": "Chinata (El Cajón)", "lat": 22.293765, "lng": -104.127846
},{
"label": "Los Toros", "lat": 22.315258, "lng": -104.207502
},{
"label": "Cerro el Venado Blanco", "lat": 22.0335, "lng": -103.807315
},{
"label": "Jalisquillo", "lat": 21.998668, "lng": -103.987558
},{
"label": "Toriles", "lat": 22.337818, "lng": -103.725907
},{
"label": "Las Bocas", "lat": 22.434049, "lng": -103.710849
},{
"label": "Rancho José Torres", "lat": 21.990648, "lng": -103.989379
},{
"label": "Piedra Alta", "lat": 22.244043, "lng": -104.08986
},{
"label": "Jukuta", "lat": 22.241637, "lng": -103.930743
},{
"label": "El Jomate", "lat": 22.097056, "lng": -103.977202
},{
"label": "Nueva Cruz", "lat": 21.96989, "lng": -104.132973
},{
"label": "El Duraznito", "lat": 22.214727, "lng": -104.099084
},{
"label": "Los Robles (Las Pulgas)", "lat": 22.465193, "lng": -104.104984
},{
"label": "Campatibala", "lat": 22.34817, "lng": -104.236733
},{
"label": "Ciénega de los Toros", "lat": 22.206773, "lng": -104.069411
},{
"label": "Puertecito del Zapote", "lat": 22.02837, "lng": -104.283978
},{
"label": "Las Pitahayas", "lat": 22.139291, "lng": -104.23482
},{
"label": "Las Sillas (Palo Blanco)", "lat": 22.366644, "lng": -104.052046
},{
"label": "Las Guacamayas", "lat": 22.482184, "lng": -104.16619
},{
"label": "Santa Cruz", "lat": 22.061201, "lng": -104.18498
},{
"label": "Motoalismo", "lat": 22.162464, "lng": -104.104081
},{
"label": "Ojo de Agua", "lat": 22.466945, "lng": -103.662746
},{
"label": "Santa Elena", "lat": 22.487346, "lng": -103.704609
},{
"label": "Colotlán (Los Alacranes)", "lat": 22.047279, "lng": -104.325156
},{
"label": "Peña Colorada", "lat": 22.370759, "lng": -104.055789
},{
"label": "El Popote", "lat": 21.916864, "lng": -104.170316
},{
"label": "Ocotic", "lat": 22.345067, "lng": -104.187266
},{
"label": "Cohamiata", "lat": 22.214755, "lng": -104.230643
},{
"label": "Laguna Chica", "lat": 22.343542, "lng": -103.680469
},{
"label": "El Carrizal", "lat": 22.498124, "lng": -103.626328
},{
"label": "La Curva del Borracho", "lat": 22.296839, "lng": -104.008719
},{
"label": "Rosa de San Juan", "lat": 22.269442, "lng": -104.242123
},{
"label": "La Escoba", "lat": 22.197741, "lng": -103.966115
},{
"label": "Picacho", "lat": 22.15788, "lng": -104.258388
},{
"label": "El Choacan", "lat": 22.279129, "lng": -104.012171
},{
"label": "Colotlán", "lat": 22.183894, "lng": -104.104191
},{
"label": "Chaquira", "lat": 22.268276, "lng": -104.112601
},{
"label": "Tzinata", "lat": 22.049148, "lng": -104.337429
},{
"label": "Milpilla", "lat": 22.300997, "lng": -104.015903
},{
"label": "El Guache", "lat": 22.084392, "lng": -104.002193
},{
"label": "La Peña", "lat": 21.967712, "lng": -104.111342
},{
"label": "Rancho el Fresno", "lat": 22.07397, "lng": -104.052085
},{
"label": "Martín de la Cruz", "lat": 22.31556, "lng": -104.03401
},{
"label": "Los Canteros", "lat": 22.247039, "lng": -104.089469
},{
"label": "La Ermita", "lat": 22.350566, "lng": -103.692298
},{
"label": "La Huerta de Don Enrique", "lat": 22.379058, "lng": -103.734071
},{
"label": "Los Robles", "lat": 22.306944, "lng": -103.732778
},{
"label": "El Ventarrón", "lat": 22.151458, "lng": -104.102568
},{
"label": "Mesa de Zapopan (Zapopan)", "lat": 21.965, "lng": -104.019444
},{
"label": "Rancho José González", "lat": 21.992809, "lng": -103.989249
},{
"label": "Las Guásimas", "lat": 22.036737, "lng": -104.02133
},{
"label": "Tierra Morada", "lat": 21.940427, "lng": -104.133746
},{
"label": "Chulavista", "lat": 22.009711, "lng": -104.202009
},{
"label": "Zacapuestles", "lat": 22.216768, "lng": -104.080369
},{
"label": "Patontita", "lat": 22.017382, "lng": -103.829178
},{
"label": "Rancho Bajío de las Flores", "lat": 22.084911, "lng": -104.047861
},{
"label": "El Aguacate", "lat": 22.324348, "lng": -104.163669
},{
"label": "Pajarito", "lat": 22.211726, "lng": -104.043283
},{
"label": "La Joya Grande", "lat": 22.465759, "lng": -103.672774
},{
"label": "Nacorada", "lat": 22.160989, "lng": -104.203164
},{
"label": "La Lagunita Cercada", "lat": 22.369444, "lng": -103.604444
},{
"label": "La Palmilla (La Palma)", "lat": 22.01834, "lng": -104.204276
},{
"label": "Crucero de San José", "lat": 22.264395, "lng": -104.254841
},{
"label": "Diagonal", "lat": 22.131843, "lng": -104.026665
},{
"label": "Escalón", "lat": 22.236093, "lng": -104.09614
},{
"label": "Bella Vista", "lat": 21.944117, "lng": -104.124161
},{
"label": "Mascacota", "lat": 22.111412, "lng": -104.362623
},{
"label": "El Otatillo", "lat": 22.203279, "lng": -104.098319
},{
"label": "Las Palomitas", "lat": 22.163711, "lng": -104.207015
},{
"label": "San Juan de los Lirios", "lat": 22.495446, "lng": -103.609616
},{
"label": "El Cedro", "lat": 22.469737, "lng": -103.609508
},{
"label": "Culecuapo (Cueuncalpa)", "lat": 22.178336, "lng": -104.301867
},{
"label": "El Salto", "lat": 22.435655, "lng": -104.125673
},{
"label": "Rancho Guásimas", "lat": 22.004599, "lng": -104.158879
},{
"label": "El Manzanillo", "lat": 22.301498, "lng": -104.014839
},{
"label": "La Tortuga", "lat": 22.008938, "lng": -104.262851
},{
"label": "Los Lobos de Huastita (Los Lobos)", "lat": 21.980194, "lng": -104.367309
},{
"label": "El Cuervo", "lat": 22.247903, "lng": -104.120695
},{
"label": "Los Hornos", "lat": 22.209242, "lng": -104.252363
},{
"label": "Huizache", "lat": 22.182532, "lng": -104.246135
},{
"label": "Tayeva", "lat": 22.164873, "lng": -104.216147
},{
"label": "Chimolta", "lat": 22.233046, "lng": -103.789484
},{
"label": "Cinco de Mayo", "lat": 22.329047, "lng": -104.122729
},{
"label": "San Luis", "lat": 22.067411, "lng": -104.321335
},{
"label": "Banco de León", "lat": 22.279564, "lng": -103.98246
},{
"label": "Mesa del Águila", "lat": 22.228304, "lng": -103.77329
},{
"label": "El Jagüey", "lat": 22.446153, "lng": -104.149065
},{
"label": "Las Pilitas", "lat": 22.447058, "lng": -103.635047
},{
"label": "Los Conejos", "lat": 22.144356, "lng": -104.120054
},{
"label": "El Bajito", "lat": 22.343475, "lng": -104.161526
},{
"label": "El Guamúchil", "lat": 22.03146, "lng": -104.311295
},{
"label": "La Floreña", "lat": 22.004389, "lng": -104.02917
},{
"label": "Pinos Tristes", "lat": 22.253985, "lng": -104.255845
},{
"label": "Los Osos (El Caracol)", "lat": 22.259848, "lng": -103.977863
},{
"label": "El Banquito", "lat": 22.326425, "lng": -104.206514
},{
"label": "Rancho del Aire", "lat": 22.126035, "lng": -104.240485
},{
"label": "Tres Ciénegas", "lat": 22.090166, "lng": -104.036701
},{
"label": "El Bajillo", "lat": 22.138858, "lng": -104.020806
},{
"label": "Manzanilla", "lat": 22.210381, "lng": -104.035833
},{
"label": "El Roble (El Roblito)", "lat": 22.171415, "lng": -104.331741
},{
"label": "Rancho Piedra Alta", "lat": 22.290939, "lng": -104.124774
},{
"label": "T'kitsikata", "lat": 22.227433, "lng": -104.053819
},{
"label": "Crucero de la Puerta", "lat": 22.169603, "lng": -103.905587
},{
"label": "Yerbanis", "lat": 22.057121, "lng": -104.352672
},{
"label": "La Mesa (Mesa Alta)", "lat": 22.070646, "lng": -104.220204
},{
"label": "Rancho los Cerritos", "lat": 22.149026, "lng": -104.043309
},{
"label": "Casa Blanca", "lat": 22.279624, "lng": -104.023116
},{
"label": "Mukatumuni", "lat": 22.266607, "lng": -104.103327
},{
"label": "Agua Blanca (El Zalate)", "lat": 22.101235, "lng": -104.046311
},{
"label": "Santa Clara", "lat": 22.243721, "lng": -104.276651
},{
"label": "Rancho Primitivo", "lat": 22.037365, "lng": -104.046938
},{
"label": "Aristempa", "lat": 22.012392, "lng": -104.152474
},{
"label": "Los Guaises", "lat": 22.359648, "lng": -104.214679
},{
"label": "Cieneguitas", "lat": 22.365704, "lng": -103.748239
},{
"label": "El Palo de González", "lat": 22.390005, "lng": -103.679538
},{
"label": "Aguacate", "lat": 22.004053, "lng": -104.146537
},{
"label": "La Cebolleta", "lat": 22.096885, "lng": -104.357777
},{
"label": "Rancho Arrayán", "lat": 21.991723, "lng": -104.248853
},{
"label": "Chalate", "lat": 22.29938, "lng": -104.087375
},{
"label": "Los Arcos", "lat": 22.14954, "lng": -104.237724
},{
"label": "Siconita", "lat": 22.310377, "lng": -104.065624
},{
"label": "Tortillas Frías", "lat": 22.361824, "lng": -103.668729
},{
"label": "Peña Blanca", "lat": 22.347748, "lng": -104.08402
},{
"label": "Tequexine (Tekikie)", "lat": 22.19849, "lng": -104.295478
},{
"label": "Carbón", "lat": 22.13157, "lng": -104.030855
},{
"label": "El Tepozan", "lat": 22.162853, "lng": -103.828683
},{
"label": "Puerto Tampico", "lat": 22.310833, "lng": -104.158333
},{
"label": "Mezquitic", "lat": 22.39, "lng": -103.728056
},{
"label": "Rancho el Bajío (Colonia el Cerrito)", "lat": 22.074128, "lng": -104.06158
},{
"label": "Charco Largo", "lat": 21.960574, "lng": -104.10898
},{
"label": "La Mesa", "lat": 22.162639, "lng": -104.121802
},{
"label": "Rancho el Agua", "lat": 22.099056, "lng": -104.076351
},{
"label": "Golondrinas", "lat": 22.255, "lng": -103.797409
},{
"label": "Rancho San José del Chorro", "lat": 22.099202, "lng": -104.067908
},{
"label": "El Robloso", "lat": 22.374464, "lng": -104.159189
},{
"label": "Los Lirios", "lat": 22.124472, "lng": -104.074613
},{
"label": "Crescencio Medina", "lat": 22.191159, "lng": -104.088488
},{
"label": "El Rincón", "lat": 22.150143, "lng": -104.115759
},{
"label": "Huamuchilillo", "lat": 22.213516, "lng": -104.126105
},{
"label": "El Cuerno (Los Cuernos)", "lat": 22.00448, "lng": -104.246418
},{
"label": "Mesa del Banco", "lat": 22.015278, "lng": -104.195469
},{
"label": "Los Cuervos", "lat": 22.290045, "lng": -104.219403
},{
"label": "El Bajío", "lat": 22.214431, "lng": -104.050332
},{
"label": "Los Bañuelos (Charcos)", "lat": 22.333993, "lng": -103.725541
},{
"label": "Agustín Torres", "lat": 22.264296, "lng": -104.018348
},{
"label": "San Tiburcio", "lat": 22.300501, "lng": -104.005267
},{
"label": "El Resbalón", "lat": 22.009139, "lng": -104.081227
},{
"label": "El Gavilán", "lat": 22.290717, "lng": -104.074224
},{
"label": "Rancho Reynosa", "lat": 22.21402, "lng": -104.08124
},{
"label": "Alacrán", "lat": 22.147022, "lng": -104.062937
},{
"label": "Rancho el Corredero", "lat": 22.449275, "lng": -104.158713
},{
"label": "Estancia de San Nicolás (La Estancia)", "lat": 22.323611, "lng": -103.779444
},{
"label": "Tepeguajes", "lat": 22.489102, "lng": -103.708119
},{
"label": "El Sotolar", "lat": 22.461337, "lng": -104.137891
},{
"label": "Tesorero", "lat": 22.008619, "lng": -104.092116
},{
"label": "Los Encinos", "lat": 22.144626, "lng": -104.292434
},{
"label": "Corral Viejo", "lat": 22.182356, "lng": -103.81478
},{
"label": "Los Zapatos", "lat": 22.171603, "lng": -104.264359
},{
"label": "Zalatita", "lat": 22.01662, "lng": -104.325175
},{
"label": "Popotita", "lat": 22.04351, "lng": -104.292465
},{
"label": "El Cajón", "lat": 22.293572, "lng": -104.1216
},{
"label": "Las Pulgas", "lat": 22.240482, "lng": -104.214094
},{
"label": "Bajío de las Gallinas", "lat": 22.071441, "lng": -103.901582
},{
"label": "El Huichol", "lat": 22.056816, "lng": -104.338721
},{
"label": "Frontera del Maguey [Bodega]", "lat": 22.317019, "lng": -103.680829
},{
"label": "Los Aires", "lat": 22.122349, "lng": -104.023477
},{
"label": "Cerro Colorado", "lat": 22.492686, "lng": -103.763184
},{
"label": "Pedernales", "lat": 22.333365, "lng": -104.082652
},{
"label": "Tres Palomas", "lat": 22.219373, "lng": -104.072812
},{
"label": "Mesa del Soyate", "lat": 22.515154, "lng": -103.710907
},{
"label": "Las Mulas", "lat": 22.10703, "lng": -104.023089
},{
"label": "El Zalate", "lat": 21.924845, "lng": -104.158772
},{
"label": "Junta del Río", "lat": 22.142381, "lng": -104.107981
},{
"label": "Águila Blanca", "lat": 22.273326, "lng": -104.14621
},{
"label": "Garza Parada", "lat": 22.160938, "lng": -104.323783
},{
"label": "Chepehuey (Villa Guerrero)", "lat": 22.195626, "lng": -103.690054
},{
"label": "Santa Gertrudis (Santa Cruz)", "lat": 22.072778, "lng": -104.190833
},{
"label": "La Mesa de Minillas", "lat": 22.512965, "lng": -103.65762
},{
"label": "Los Bajíos (Carrizalillo)", "lat": 22.280515, "lng": -104.013512
},{
"label": "Jimulco", "lat": 22.303767, "lng": -103.738151
},{
"label": "Lechuguilla (Las Cotorras)", "lat": 22.310236, "lng": -104.253887
},{
"label": "Bajío el Huichol", "lat": 22.106596, "lng": -103.839523
},{
"label": "Las Guayabas", "lat": 22.18128, "lng": -104.263651
},{
"label": "Las Puertitas", "lat": 22.341982, "lng": -103.692022
},{
"label": "Los Pinos Huastita", "lat": 22.102578, "lng": -104.323109
},{
"label": "El Molcajete", "lat": 22.064931, "lng": -104.302951
},{
"label": "Mesa el Retiro", "lat": 21.889959, "lng": -104.18518
},{
"label": "Rancho Viejo", "lat": 22.2925, "lng": -103.7925
},{
"label": "Mutualismo", "lat": 22.475794, "lng": -103.717652
},{
"label": "Bajío de las Nubes", "lat": 22.273033, "lng": -104.029089
},{
"label": "Rancho los Postes", "lat": 22.117556, "lng": -104.090722
},{
"label": "Rancho los Pinos", "lat": 22.051905, "lng": -104.16513
},{
"label": "Ciénega Grande", "lat": 22.46376, "lng": -103.75113
},{
"label": "Las Juntas", "lat": 22.258712, "lng": -104.273468
},{
"label": "El Durazno", "lat": 22.11244, "lng": -103.93796
},{
"label": "Las Cruces", "lat": 22.068176, "lng": -104.362876
},{
"label": "La Hielera", "lat": 22.302881, "lng": -104.003819
},{
"label": "Metatitas", "lat": 22.247273, "lng": -104.235118
},{
"label": "Mesa de San Andrés", "lat": 22.174154, "lng": -104.217785
},{
"label": "Guamúchil", "lat": 22.143094, "lng": -104.285721
},{
"label": "Los Venados", "lat": 22.133616, "lng": -104.280091
},{
"label": "El Ciruelo", "lat": 21.99132, "lng": -104.011753
},{
"label": "La Zotolita", "lat": 22.343333, "lng": -104.112222
},{
"label": "Atotonilco", "lat": 22.213466, "lng": -104.056419
},{
"label": "La Mariposa", "lat": 22.177793, "lng": -104.080744
},{
"label": "Vallecito", "lat": 22.463423, "lng": -103.611815
},{
"label": "Los Bañuelos", "lat": 22.468425, "lng": -103.667541
},{
"label": "Las Huertas", "lat": 22.396146, "lng": -103.736925
},{
"label": "Cabeza del Llano", "lat": 22.333899, "lng": -104.292495
},{
"label": "El Candil (La Cantera)", "lat": 22.292445, "lng": -104.120865
},{
"label": "Calabacillas", "lat": 22.1125, "lng": -104.036944
},{
"label": "Pinavete", "lat": 22.101986, "lng": -104.101497
},{
"label": "Las Víboras", "lat": 22.03993, "lng": -104.179232
},{
"label": "Juana María", "lat": 22.391225, "lng": -104.162691
},{
"label": "La Ciénega de Huaistita (Los Quesos)", "lat": 22.061781, "lng": -104.325647
},{
"label": "El Coyote", "lat": 22.312877, "lng": -104.00385
},{
"label": "Ninguno [Caseta de Canastilla]", "lat": 22.40773, "lng": -103.727656
},{
"label": "La Ciudad (Rancho Ciudad)", "lat": 22.089936, "lng": -104.048332
},{
"label": "Piedra Colorada (La Guásima)", "lat": 22.161697, "lng": -104.118792
},{
"label": "Chonacata", "lat": 22.174297, "lng": -103.935199
},{
"label": "Colima", "lat": 22.296646, "lng": -104.167693
},{
"label": "Alaconsa (Cerro Alto)", "lat": 22.001524, "lng": -104.20899
},{
"label": "Escondida", "lat": 22.110791, "lng": -104.041425
},{
"label": "Los Amoles", "lat": 22.1375, "lng": -104.019722
},{
"label": "La Luna", "lat": 22.228696, "lng": -104.282104
},{
"label": "El Chocolate", "lat": 22.334508, "lng": -103.7589
},{
"label": "Los Bules", "lat": 22.265738, "lng": -104.057934
},{
"label": "La Esquina", "lat": 22.165069, "lng": -104.091954
},{
"label": "Pinos Altos", "lat": 22.212185, "lng": -103.928139
},{
"label": "Palo Redondo", "lat": 22.501662, "lng": -103.754783
},{
"label": "Compostela", "lat": 22.210242, "lng": -104.091146
},{
"label": "Jesús (Rancho Jesús)", "lat": 22.412768, "lng": -103.722492
},{
"label": "Las Nubes", "lat": 22.169618, "lng": -104.054134
},{
"label": "Los Leones", "lat": 22.384353, "lng": -103.649179
},{
"label": "Cabeza de Venado", "lat": 22.188438, "lng": -104.209801
},{
"label": "Arroyo Verde", "lat": 22.121657, "lng": -104.036686
},{
"label": "El Muerto", "lat": 22.344271, "lng": -103.728764
},{
"label": "Rancho el Pinal", "lat": 21.964756, "lng": -104.093995
},{
"label": "Buenavista", "lat": 22.19033, "lng": -104.074715
},{
"label": "Tonalisco", "lat": 22.208768, "lng": -104.243548
},{
"label": "La Mesa Pobre", "lat": 22.163636, "lng": -104.319081
},{
"label": "Los Lambederos", "lat": 22.36404, "lng": -104.191024
},{
"label": "El Nido", "lat": 22.144017, "lng": -104.064445
},{
"label": "Las Sandías", "lat": 22.282401, "lng": -103.729704
},{
"label": "Carretón", "lat": 22.241459, "lng": -103.781482
},{
"label": "Puertecito de las Gallinas", "lat": 22.299405, "lng": -104.000486
},{
"label": "Agua Azul", "lat": 22.29007, "lng": -104.024343
},{
"label": "Las Carreras", "lat": 22.516751, "lng": -103.687296
},{
"label": "La Ceja", "lat": 22.298294, "lng": -104.010774
},{
"label": "Agua de la Loma", "lat": 22.138151, "lng": -104.031296
},{
"label": "El Saucillo", "lat": 22.075382, "lng": -104.205551
},{
"label": "La Mesa de Vázquez", "lat": 22.235367, "lng": -103.681954
},{
"label": "Gilberto Mijares", "lat": 22.219882, "lng": -104.069021
},{
"label": "El Cerrito", "lat": 22.347108, "lng": -103.73396
},{
"label": "Cerro de la Puerta", "lat": 22.174424, "lng": -103.904659
},{
"label": "El Cordón del Borrego", "lat": 22.178183, "lng": -103.812154
},{
"label": "La Puerta de Cristo", "lat": 22.378003, "lng": -104.190639
},{
"label": "Rancho el Toro", "lat": 22.085998, "lng": -104.080135
},{
"label": "La Escondida", "lat": 22.179162, "lng": -103.914701
},{
"label": "Los Miramontes", "lat": 22.396111, "lng": -103.796389
},{
"label": "Tierras Blancas Huaistita", "lat": 22.049858, "lng": -104.345466
},{
"label": "Sierra Hermosa", "lat": 22.164931, "lng": -103.931031
},{
"label": "Tortugas", "lat": 22.374216, "lng": -103.677835
},{
"label": "Acatita Chica", "lat": 22.241334, "lng": -104.284803
},{
"label": "San Jerónimo", "lat": 22.555714, "lng": -103.709934
},{
"label": "Ciénega de los Pobres", "lat": 22.264872, "lng": -103.975352
},{
"label": "Jamaica", "lat": 22.290793, "lng": -104.005365
},{
"label": "Loma del Venado", "lat": 22.010578, "lng": -104.223924
},{
"label": "El Banco", "lat": 21.9791, "lng": -104.022893
},{
"label": "José Candelario", "lat": 22.29359, "lng": -104.029459
},{
"label": "Santa Rosa", "lat": 22.180788, "lng": -104.103023
},{
"label": "La Joya Chica", "lat": 22.470561, "lng": -103.650838
},{
"label": "Capomal (Santa María de los Capomo)", "lat": 22.23, "lng": -104.125278
},{
"label": "El Huarache", "lat": 22.095004, "lng": -104.315499
},{
"label": "Tierra Morada (Caligüey)", "lat": 22.077654, "lng": -104.060123
},{
"label": "El Cantarito", "lat": 22.355243, "lng": -104.19238
},{
"label": "Rancho Mesa Hueca", "lat": 22.08773, "lng": -104.06661
},{
"label": "Ninguno [Campo Santo]", "lat": 22.394564, "lng": -103.720439
},{
"label": "Aguapa (El Sabino)", "lat": 22.158182, "lng": -104.076896
},{
"label": "Puerta del Tigre", "lat": 22.559459, "lng": -103.672859
},{
"label": "Tierra Amarilla", "lat": 22.098889, "lng": -104.188333
},{
"label": "Piedra Parada", "lat": 22.197734, "lng": -104.219848
},{
"label": "Atonalisco", "lat": 22.168056, "lng": -104.0225
},{
"label": "San Luisito", "lat": 22.027704, "lng": -104.291623
},{
"label": "Piedras Altas", "lat": 22.32, "lng": -104.072154
},{
"label": "Las Tapias", "lat": 21.928893, "lng": -104.066532
},{
"label": "Huanacaxtle", "lat": 22.033126, "lng": -104.318429
},{
"label": "Tuameta", "lat": 22.27792, "lng": -104.131187
},{
"label": "Palmillas", "lat": 22.059669, "lng": -104.172875
},{
"label": "Mezquite", "lat": 22.037937, "lng": -104.287123
},{
"label": "El Ranchito", "lat": 22.235724, "lng": -104.006825
},{
"label": "Los Jarados (Los Arados)", "lat": 22.191372, "lng": -104.053545
},{
"label": "Los Corbo (Bella Flor)", "lat": 22.110396, "lng": -104.022191
},{
"label": "Rancho el Gran", "lat": 22.188712, "lng": -104.082317
},{
"label": "Tapeistes", "lat": 22.205157, "lng": -104.097326
},{
"label": "Mesa del Fraile (Mesa de Guadalupe)", "lat": 22.405818, "lng": -103.662123
},{
"label": "Los Guays", "lat": 22.169416, "lng": -104.073988
},{
"label": "Los Barros", "lat": 22.355684, "lng": -103.766011
},{
"label": "San Juan de Navarrete", "lat": 22.443447, "lng": -103.742756
},{
"label": "El Tablero", "lat": 22.242002, "lng": -103.628388
},{
"label": "El Huizachal", "lat": 22.493312, "lng": -104.169919
},{
"label": "Rancho Loco", "lat": 22.075734, "lng": -104.060188
},{
"label": "El Guayabo", "lat": 22.513056, "lng": -103.723056
},{
"label": "Milpillas", "lat": 22.116717, "lng": -104.024426
},{
"label": "Las Nueces", "lat": 22.189531, "lng": -104.296231
},{
"label": "La Mesita", "lat": 22.162748, "lng": -103.798659
},{
"label": "Palo Alto", "lat": 22.298676, "lng": -103.683852
},{
"label": "Las Joyas (Las Ollas)", "lat": 22.325249, "lng": -104.253421
},{
"label": "Janakia", "lat": 22.295068, "lng": -104.179526
},{
"label": "Las Águilas", "lat": 22.003981, "lng": -104.167268
},{
"label": "El Rodeo (Mesa del Rodeo)", "lat": 22.512009, "lng": -103.707139
},{
"label": "Arroyo de los Fierros", "lat": 22.333512, "lng": -104.154931
},{
"label": "Colonia Carlos Rivera Aceves [Aserradero]", "lat": 22.094553, "lng": -103.875716
},{
"label": "Platanar", "lat": 22.148172, "lng": -104.078467
},{
"label": "Tepetate", "lat": 22.304598, "lng": -104.026621
},{
"label": "El Zapo", "lat": 22.171066, "lng": -104.302248
},{
"label": "Rancho Nuevo", "lat": 22.074406, "lng": -104.057659
},{
"label": "Los Sauces", "lat": 22.357113, "lng": -103.735998
},{
"label": "Zapopan", "lat": 22.044674, "lng": -104.156784
},{
"label": "La Laguna", "lat": 22.158054, "lng": -104.218538
},{
"label": "Pinabete", "lat": 22.07913, "lng": -104.055919
},{
"label": "Talaveras", "lat": 22.370397, "lng": -103.728554
},{
"label": "Los Bules (Ciénega Escondida)", "lat": 22.089263, "lng": -104.041995
},{
"label": "El Pinabete", "lat": 22.112371, "lng": -104.036387
},{
"label": "Guamuchilillo", "lat": 22.050278, "lng": -104.315833
},{
"label": "Amoltita", "lat": 22.007222, "lng": -104.186944
},{
"label": "Birronexhie", "lat": 22.199956, "lng": -104.300899
},{
"label": "Rancho Pinavete", "lat": 21.903593, "lng": -104.186982
},{
"label": "Rincón de los Guaches", "lat": 21.996598, "lng": -104.220556
},{
"label": "San José el Tesorero", "lat": 22.308152, "lng": -104.232374
},{
"label": "La Lagunita", "lat": 22.452956, "lng": -103.73699
},{
"label": "El Plátano (La Bolsa de la Mesa de Vázquez)", "lat": 22.205492, "lng": -103.711927
},{
"label": "El Zapote Chico", "lat": 22.220859, "lng": -104.273922
},{
"label": "El Roble (Roblitos)", "lat": 22.017862, "lng": -104.308268
},{
"label": "La Campanita [Gasera]", "lat": 22.393809, "lng": -103.715448
},{
"label": "Los Mercado", "lat": 22.287892, "lng": -103.67892
},{
"label": "La Estrella", "lat": 22.372059, "lng": -104.222128
},{
"label": "El Llanito", "lat": 22.324365, "lng": -104.22353
},{
"label": "Los Hormigueros", "lat": 22.303021, "lng": -104.139073
},{
"label": "Bajío del Carrizal", "lat": 22.260457, "lng": -104.311832
},{
"label": "El Pino (La Espina)", "lat": 22.110651, "lng": -104.318889
},{
"label": "Tierras Blancas", "lat": 22.290753, "lng": -104.246797
},{
"label": "Tapalo", "lat": 22.079366, "lng": -104.039794
},{
"label": "Ninguno [Relleno Sanitario]", "lat": 22.413333, "lng": -103.731389
},{
"label": "El Naranjo", "lat": 22.036148, "lng": -104.284913
},{
"label": "Rancho la Chaquira", "lat": 22.155972, "lng": -104.128286
},{
"label": "Ninguno [Estación]", "lat": 22.184475, "lng": -104.085854
},{
"label": "Zapo", "lat": 22.111389, "lng": -104.035
},{
"label": "San Pedro", "lat": 22.301389, "lng": -103.668752
},{
"label": "El Chalate (Los Chalates)", "lat": 22.1351, "lng": -104.28025
},{
"label": "Jacales", "lat": 22.461882, "lng": -104.127864
},{
"label": "Los Borregos", "lat": 22.174378, "lng": -104.264516
},{
"label": "Monte Morelos", "lat": 22.249793, "lng": -104.137451
},{
"label": "Codorniz", "lat": 22.151462, "lng": -104.302274
},{
"label": "La Pitahaya", "lat": 22.011424, "lng": -104.210557
},{
"label": "Los Llanitos", "lat": 22.351909, "lng": -103.695709
},{
"label": "Jocotic", "lat": 22.316548, "lng": -104.086429
},{
"label": "Los Comales (Bajío de los Comales)", "lat": 22.267169, "lng": -103.994251
},{
"label": "Aguamilpa", "lat": 22.426226, "lng": -103.699039
},{
"label": "Las Latas", "lat": 22.26791, "lng": -104.030148
},{
"label": "El Pinar", "lat": 22.159129, "lng": -103.913184
},{
"label": "Puerto del Sol", "lat": 22.166082, "lng": -103.90505
},{
"label": "Coyotita", "lat": 21.974536, "lng": -103.995388
},{
"label": "La Huichola", "lat": 22.450734, "lng": -104.149284
},{
"label": "Rancho de López", "lat": 22.341969, "lng": -103.650801
},{
"label": "Peñas Blancas", "lat": 22.147034, "lng": -104.053419
},{
"label": "Amoltita Dos", "lat": 22.008203, "lng": -104.187054
},{
"label": "Uva Escondida", "lat": 21.969518, "lng": -104.099282
},{
"label": "El Zaguán (Chonacata)", "lat": 22.251716, "lng": -103.766279
},{
"label": "El Tule", "lat": 22.525759, "lng": -103.700294
},{
"label": "Rancho el Torito", "lat": 22.340328, "lng": -104.166392
},{
"label": "Los Tepetates", "lat": 22.259957, "lng": -103.840594
},{
"label": "Ocota (La Taberna)", "lat": 22.174353, "lng": -103.795831
},{
"label": "Tierra Azul", "lat": 22.150091, "lng": -104.056235
},{
"label": "Guaises", "lat": 22.186299, "lng": -104.274349
},{
"label": "Los Mogotes", "lat": 22.315999, "lng": -104.05718
},{
"label": "Carricitos", "lat": 22.051111, "lng": -104.061389
},{
"label": "Mesa del Picacho", "lat": 22.195971, "lng": -104.03034
},{
"label": "Los Amolillos", "lat": 22.360774, "lng": -104.055753
},{
"label": "Chicago", "lat": 22.340462, "lng": -104.161251
},{
"label": "Mesa del Venado", "lat": 22.365457, "lng": -104.144659
},{
"label": "El Terrero", "lat": 21.963889, "lng": -104.005278
},{
"label": "Uña de Gato", "lat": 22.334583, "lng": -103.656815
},{
"label": "Bellavista", "lat": 22.065811, "lng": -104.314318
},{
"label": "La Junta de Ríos", "lat": 22.535228, "lng": -103.678329
},{
"label": "Llano Grande", "lat": 22.4332, "lng": -103.807278
},{
"label": "Nostic", "lat": 22.317836, "lng": -103.735417
},{
"label": "El Mezquite", "lat": 22.263755, "lng": -104.135188
},{
"label": "La Loma Tres", "lat": 22.225962, "lng": -104.071124
},{
"label": "Soconita (Sinconita)", "lat": 22.269722, "lng": -104.104722
},{
"label": "El Quemado", "lat": 22.13423, "lng": -104.270022
},{
"label": "Tepeiste", "lat": 22.107957, "lng": -104.093494
},{
"label": "Tierras Amarillas", "lat": 22.030011, "lng": -104.043718
},{
"label": "La Monja", "lat": 22.227896, "lng": -104.249475
},{
"label": "La Chivilla (La Chivita)", "lat": 22.186517, "lng": -104.068843
},{
"label": "Los Espejos", "lat": 22.344028, "lng": -104.241401
},{
"label": "Acostalpa", "lat": 22.2417, "lng": -104.021502
}]