[{
"label": "La Candelilla", "lat": 20.329246, "lng": -102.819998
},{
"label": "Tlachichilco del Carmen", "lat": 20.333723, "lng": -103.088679
},{
"label": "Isla de Mezcala (El Presidio)", "lat": 20.292341, "lng": -103.023923
},{
"label": "San Luis del Agua Caliente", "lat": 20.383477, "lng": -102.824648
},{
"label": "Kilómetro Cuarenta y Tres", "lat": 20.365552, "lng": -102.833371
},{
"label": "Estancia de San Nicolás", "lat": 20.384819, "lng": -102.8385
},{
"label": "El Gusano (El Mezquite)", "lat": 20.304518, "lng": -102.832606
},{
"label": "Lomas de San Isidro", "lat": 20.358247, "lng": -102.931204
},{
"label": "El Salto", "lat": 20.346394, "lng": -102.926502
},{
"label": "Loma Alta (Purificadora San Miguel)", "lat": 20.39334, "lng": -103.010247
},{
"label": "Campestre del Valle [Fraccionamiento]", "lat": 20.34509, "lng": -102.791173
},{
"label": "El Muñeño", "lat": 20.356428, "lng": -102.926224
},{
"label": "La Zapotera", "lat": 20.306953, "lng": -102.895745
},{
"label": "Najar", "lat": 20.367219, "lng": -102.808294
},{
"label": "Los Rieles", "lat": 20.377467, "lng": -102.896755
},{
"label": "Celanese Mexicana", "lat": 20.353169, "lng": -102.791506
},{
"label": "Santa María de la Joya", "lat": 20.30544, "lng": -102.868411
},{
"label": "La Barranquilla", "lat": 20.320908, "lng": -102.792659
},{
"label": "Ninguno [Hortalizas ARGAMAN]", "lat": 20.382604, "lng": -102.95799
},{
"label": "Pueblo Nuevo", "lat": 20.366887, "lng": -102.814459
},{
"label": "Potrero del Cerro (Rancho la Glorieta)", "lat": 20.358261, "lng": -102.840586
},{
"label": "La Coronilla", "lat": 20.317997, "lng": -102.933892
},{
"label": "La Joya", "lat": 20.34794, "lng": -102.823038
},{
"label": "El Campo", "lat": 20.333058, "lng": -103.070753
},{
"label": "La Ocoterita (La Ocotera Chica)", "lat": 20.328977, "lng": -102.930388
},{
"label": "Potrero Torrecillas", "lat": 20.384178, "lng": -102.832128
},{
"label": "El Pandillo (El Mirador)", "lat": 20.345847, "lng": -103.036897
},{
"label": "El Cerrito", "lat": 20.336151, "lng": -103.082001
},{
"label": "Rancho de los Hernández", "lat": 20.401156, "lng": -103.008384
},{
"label": "Ninguno [Grupo AGROBAN S.A DE C.V.]", "lat": 20.396338, "lng": -102.983851
},{
"label": "El Zapote (Uvalano)", "lat": 20.346217, "lng": -102.900467
},{
"label": "Rosa Sánchez [Bodega]", "lat": 20.370774, "lng": -102.955201
},{
"label": "San Juan Tecomatlán", "lat": 20.328226, "lng": -103.101833
},{
"label": "Universidad UNIVER", "lat": 20.377946, "lng": -102.942082
},{
"label": "El Grupo", "lat": 20.376203, "lng": -102.818693
},{
"label": "Las Torrecillas", "lat": 20.379451, "lng": -102.854612
},{
"label": "Rancho de Martínez (Los Chancharos)", "lat": 20.362961, "lng": -102.928586
},{
"label": "San Miguel Zapotitlán", "lat": 20.391452, "lng": -102.995289
},{
"label": "Corralillos", "lat": 20.363931, "lng": -102.882976
},{
"label": "Rancho del Pinar", "lat": 20.318506, "lng": -102.925231
},{
"label": "Las Lajas", "lat": 20.340771, "lng": -103.084088
},{
"label": "Rancho los López", "lat": 20.373371, "lng": -102.826437
},{
"label": "El Chacuiz", "lat": 20.369234, "lng": -102.868732
},{
"label": "Chalpicote", "lat": 20.310201, "lng": -102.919552
},{
"label": "Casa Blanca", "lat": 20.400833, "lng": -103.037222
},{
"label": "San Miguel de la Orilla", "lat": 20.3019, "lng": -102.852699
},{
"label": "La Ladrillera", "lat": 20.364768, "lng": -102.870626
},{
"label": "La Piedra Parada", "lat": 20.31697, "lng": -102.927184
},{
"label": "La Manga", "lat": 20.401325, "lng": -103.013061
},{
"label": "La Barranca", "lat": 20.356099, "lng": -102.945883
},{
"label": "El Puerto", "lat": 20.320729, "lng": -102.807251
},{
"label": "La Mojonera", "lat": 20.329077, "lng": -102.789023
},{
"label": "Salcedo", "lat": 20.357918, "lng": -102.886983
},{
"label": "El Jaral", "lat": 20.362778, "lng": -102.855833
},{
"label": "Rancho el Campamento", "lat": 20.373117, "lng": -102.852717
},{
"label": "Paradero los Ayala", "lat": 20.396819, "lng": -103.076028
},{
"label": "San Antonio", "lat": 20.333676, "lng": -103.049168
},{
"label": "El Llano", "lat": 20.368404, "lng": -102.883575
},{
"label": "Rancho Villa Flores", "lat": 20.383697, "lng": -102.96155
},{
"label": "Camichines [Granja]", "lat": 20.382442, "lng": -102.973682
},{
"label": "Mezcala", "lat": 20.335, "lng": -103.016944
},{
"label": "Rancho la Soledad", "lat": 20.364666, "lng": -102.874776
},{
"label": "Pacífico", "lat": 20.36613, "lng": -102.890324
},{
"label": "La Cofradía", "lat": 20.339822, "lng": -102.931933
},{
"label": "La Mesa", "lat": 20.330674, "lng": -102.920731
},{
"label": "El Rincón", "lat": 20.386625, "lng": -102.937308
},{
"label": "Rancho la Casa (La Rusia)", "lat": 20.390188, "lng": -102.842116
},{
"label": "La Angostura", "lat": 20.332577, "lng": -103.041619
},{
"label": "San José de las Pilas", "lat": 20.337531, "lng": -102.894594
},{
"label": "Las Tortugas", "lat": 20.307315, "lng": -102.82059
},{
"label": "La Presa", "lat": 20.314277, "lng": -102.825088
},{
"label": "Rancho del Comienzo (Marcos Cabrera)", "lat": 20.372032, "lng": -102.833328
},{
"label": "El Patiño", "lat": 20.398144, "lng": -103.081817
},{
"label": "Quinta el Quintal", "lat": 20.356064, "lng": -102.929933
},{
"label": "La Huerta", "lat": 20.385918, "lng": -102.853195
},{
"label": "Poncitlán", "lat": 20.381389, "lng": -102.924167
},{
"label": "La Víbora", "lat": 20.364952, "lng": -102.893536
},{
"label": "San Sebastián", "lat": 20.365754, "lng": -102.965872
},{
"label": "Rancho de los Palillo", "lat": 20.373294, "lng": -102.951974
},{
"label": "Colonia la Granjena", "lat": 20.349726, "lng": -102.795627
},{
"label": "El Romereño (INFONAVIT)", "lat": 20.385028, "lng": -102.94937
},{
"label": "Cuesta de Mezcala", "lat": 20.336524, "lng": -102.997957
},{
"label": "San Miguel [Granjas]", "lat": 20.379862, "lng": -102.959229
},{
"label": "El Zapote", "lat": 20.310613, "lng": -102.809273
},{
"label": "Villa Aurora", "lat": 20.393288, "lng": -102.965488
},{
"label": "San José de Ornelas", "lat": 20.388352, "lng": -102.978591
},{
"label": "El Arroyo Prieto", "lat": 20.385064, "lng": -102.986269
},{
"label": "Rancho los Cuatro Potrillos", "lat": 20.366356, "lng": -102.897708
},{
"label": "Cuitzeo (La Estancia)", "lat": 20.342778, "lng": -102.783889
},{
"label": "Planta Tratadora de Aguas Residuales", "lat": 20.388753, "lng": -102.940065
},{
"label": "San Miguel [Granja]", "lat": 20.385832, "lng": -102.973182
},{
"label": "Los Guajes", "lat": 20.324629, "lng": -102.790264
},{
"label": "Ojo de Agua", "lat": 20.333112, "lng": -103.054973
},{
"label": "Santa Cruz el Grande", "lat": 20.375, "lng": -102.863611
},{
"label": "Rancho la Manga", "lat": 20.372189, "lng": -102.905719
},{
"label": "El Módulo", "lat": 20.401019, "lng": -103.020211
},{
"label": "Rancho los Jarritos", "lat": 20.373469, "lng": -102.935187
},{
"label": "El Cerro Grande", "lat": 20.317176, "lng": -102.832593
},{
"label": "Potrero Mirto", "lat": 20.316528, "lng": -102.923412
},{
"label": "Rancho de los Campos", "lat": 20.400725, "lng": -103.011003
},{
"label": "El Ocotito", "lat": 20.338386, "lng": -103.027163
},{
"label": "Rancho Santiago", "lat": 20.394783, "lng": -103.078728
},{
"label": "Corpomex (Estampado)", "lat": 20.386123, "lng": -102.96935
},{
"label": "Hacienda Alejandrez (Rancho el Rincón)", "lat": 20.377803, "lng": -102.891358
},{
"label": "San Jacinto", "lat": 20.397503, "lng": -103.057543
},{
"label": "La Peña", "lat": 20.327222, "lng": -102.975556
},{
"label": "El Panteón (Ojo de Agua del Guamúchil)", "lat": 20.399361, "lng": -103.005172
},{
"label": "Industrias Emman", "lat": 20.366389, "lng": -102.845
},{
"label": "El Comal", "lat": 20.345239, "lng": -103.040106
},{
"label": "La Hiedra [La Bodega]", "lat": 20.376561, "lng": -102.938013
},{
"label": "Santa María del Lago", "lat": 20.326146, "lng": -103.106377
},{
"label": "La Loma", "lat": 20.365184, "lng": -102.957412
},{
"label": "La Toma de San Mateo (Rancho Mendoza)", "lat": 20.372658, "lng": -102.95685
},{
"label": "La Arena", "lat": 20.334559, "lng": -103.038267
},{
"label": "Rancho Jorge López", "lat": 20.371737, "lng": -102.841336
},{
"label": "Rancho el Jacalón", "lat": 20.378421, "lng": -102.96391
},{
"label": "El Huaje", "lat": 20.365982, "lng": -102.863376
},{
"label": "Rancho Estrada (La Arena)", "lat": 20.370471, "lng": -102.826151
},{
"label": "Agua Caliente", "lat": 20.312568, "lng": -102.928629
},{
"label": "Rancho el Tepetate", "lat": 20.361118, "lng": -102.943095
},{
"label": "La Soledad", "lat": 20.364926, "lng": -102.8643
},{
"label": "La Calma", "lat": 20.341419, "lng": -103.080042
},{
"label": "Hacienda de Guadalupe de Sachos", "lat": 20.363924, "lng": -102.901162
},{
"label": "San Pedro Itzicán", "lat": 20.315556, "lng": -102.951944
},{
"label": "Los Galápagos (Rancho del Ingeniero Matute Remus)", "lat": 20.323043, "lng": -103.11098
},{
"label": "El Salto [Balneario]", "lat": 20.350123, "lng": -102.927585
},{
"label": "San Mateo", "lat": 20.390315, "lng": -102.943813
}]