[{
"label": "Los Timbres", "lat": 20.740725, "lng": -105.150478
},{
"label": "Coto San Xoaquín", "lat": 20.57077, "lng": -105.24944
},{
"label": "El Nogalito", "lat": 20.562058, "lng": -105.244542
},{
"label": "Salvador Callejas", "lat": 20.744075, "lng": -105.205561
},{
"label": "Bocanegra", "lat": 20.668627, "lng": -105.270768
},{
"label": "El Sombrío", "lat": 20.661725, "lng": -105.184721
},{
"label": "La Langosta Campestre", "lat": 20.722624, "lng": -105.184189
},{
"label": "Flo Gas", "lat": 20.722457, "lng": -105.173686
},{
"label": "Colonia los Robles", "lat": 20.591819, "lng": -105.216048
},{
"label": "La Casa de la Gringa", "lat": 20.624834, "lng": -105.206122
},{
"label": "La Noria", "lat": 20.840861, "lng": -105.132722
},{
"label": "El Cantón", "lat": 20.742828, "lng": -105.180863
},{
"label": "El Rosario", "lat": 20.610778, "lng": -105.188293
},{
"label": "Crucero Boca de los Tomates", "lat": 20.690588, "lng": -105.245323
},{
"label": "Real Atlético de Vallarta [Unidad Deportiva]", "lat": 20.704224, "lng": -105.231022
},{
"label": "El Trozadero", "lat": 20.749135, "lng": -105.098199
},{
"label": "Volcanes de la Montaña", "lat": 20.681166, "lng": -105.180919
},{
"label": "Mirador los Arcos", "lat": 20.544228, "lng": -105.284535
},{
"label": "La Primavera", "lat": 20.724248, "lng": -105.168164
},{
"label": "La Jungla de Nancy", "lat": 20.523924, "lng": -105.310303
},{
"label": "El Machete [RMO Telmex]", "lat": 20.698062, "lng": -105.212318
},{
"label": "Rancho de Miguel Rangel", "lat": 20.682694, "lng": -105.257677
},{
"label": "Rancho la Pradera", "lat": 20.680104, "lng": -105.213493
},{
"label": "Los Ángeles", "lat": 20.763889, "lng": -105.161111
},{
"label": "Las Palmas de Arriba", "lat": 20.822778, "lng": -105.098889
},{
"label": "Palmas de Abajo", "lat": 20.819466, "lng": -105.083371
},{
"label": "Los Discos", "lat": 20.827452, "lng": -105.154239
},{
"label": "El Zancudo", "lat": 20.779752, "lng": -105.153478
},{
"label": "Ponciano Porfidio e Hijos [Destilería]", "lat": 20.690839, "lng": -105.252429
},{
"label": "Alfredo Curiel [Materiales el Crucero]", "lat": 20.725109, "lng": -105.186712
},{
"label": "El Paso Real (La Limonera)", "lat": 20.725972, "lng": -105.182208
},{
"label": "Boca de Tomates", "lat": 20.671612, "lng": -105.276735
},{
"label": "Tierra Generosa", "lat": 20.750701, "lng": -105.212699
},{
"label": "Horizonte Azul", "lat": 20.529399, "lng": -105.301166
},{
"label": "Colonia Paso del Molino", "lat": 20.594444, "lng": -105.216667
},{
"label": "Rancho Bronco", "lat": 20.635345, "lng": -105.197249
},{
"label": "Rancho Calderón", "lat": 20.690911, "lng": -105.252364
},{
"label": "La Escondida", "lat": 20.668873, "lng": -105.160741
},{
"label": "La Desembocada", "lat": 20.729406, "lng": -105.156741
},{
"label": "Rancho Linda Vista Océano", "lat": 20.636576, "lng": -105.197181
},{
"label": "Recinto Funeral las Lomas", "lat": 20.689929, "lng": -105.185674
},{
"label": "Sierra del Mar", "lat": 20.549444, "lng": -105.268889
},{
"label": "El Tablón", "lat": 20.617666, "lng": -105.200324
},{
"label": "Vista Vallarta [Club de Golf]", "lat": 20.688086, "lng": -105.195188
},{
"label": "El Plan", "lat": 20.806339, "lng": -105.159311
},{
"label": "Aguacatera", "lat": 20.601459, "lng": -105.193806
},{
"label": "Santa Cruz de Quelitán (Palmillas)", "lat": 20.757502, "lng": -105.101642
},{
"label": "La Joyita", "lat": 20.552556, "lng": -105.16454
},{
"label": "Crucero del Cantón", "lat": 20.736694, "lng": -105.180104
},{
"label": "El Colorado", "lat": 20.769716, "lng": -105.155093
},{
"label": "Bugambilias (Santa Mónica)", "lat": 20.735649, "lng": -105.186186
},{
"label": "Global Gas", "lat": 20.705833, "lng": -105.227778
},{
"label": "San Nicolás", "lat": 20.68158, "lng": -105.185098
},{
"label": "Casa Paloma del Mar", "lat": 20.5225, "lng": -105.311944
},{
"label": "La Montaña [Restaurante]", "lat": 20.492973, "lng": -105.299558
},{
"label": "El Carretero [Restaurante]", "lat": 20.72433, "lng": -105.16466
},{
"label": "Casa Betania", "lat": 20.575825, "lng": -105.248601
},{
"label": "Rancho el Retorno", "lat": 20.700598, "lng": -105.234886
},{
"label": "El Edén", "lat": 20.522695, "lng": -105.261061
},{
"label": "Don Cuco", "lat": 20.687906, "lng": -105.250904
},{
"label": "El Reparito", "lat": 20.826333, "lng": -105.044569
},{
"label": "Playa Esmeralda", "lat": 20.551156, "lng": -105.269125
},{
"label": "Los Arreola", "lat": 20.693688, "lng": -105.253496
},{
"label": "La Garza Blanca", "lat": 20.553889, "lng": -105.264167
},{
"label": "El Jorullo", "lat": 20.56, "lng": -105.138168
},{
"label": "Los Reyes", "lat": 20.710292, "lng": -105.197194
},{
"label": "La Mesa del Veladero", "lat": 20.791283, "lng": -105.071829
},{
"label": "Rancho los Ramos", "lat": 20.736001, "lng": -105.172979
},{
"label": "Rancho de Don Chalo", "lat": 20.683399, "lng": -105.255451
},{
"label": "El Guayabo", "lat": 20.732331, "lng": -105.206747
},{
"label": "Gokart [Parque Deportivo]", "lat": 20.689955, "lng": -105.249197
},{
"label": "Ecoterra Paraíso", "lat": 20.749441, "lng": -105.15877
},{
"label": "Laguna Seca", "lat": 20.773843, "lng": -105.10231
},{
"label": "El Cuate", "lat": 20.838681, "lng": -105.150434
},{
"label": "Saladerito", "lat": 20.716112, "lng": -105.234719
},{
"label": "Los Socorros", "lat": 20.718674, "lng": -105.232321
},{
"label": "La Punta Negra", "lat": 20.562778, "lng": -105.254444
},{
"label": "Pierre Faure [Instituto]", "lat": 20.688471, "lng": -105.249393
},{
"label": "Ninguno [Caseta de Caminos y Puertos]", "lat": 20.691016, "lng": -105.253239
},{
"label": "Los Huizapoles", "lat": 20.724401, "lng": -105.164046
},{
"label": "El Naranjal", "lat": 20.845401, "lng": -105.040442
},{
"label": "El Limón", "lat": 20.841759, "lng": -105.156793
},{
"label": "La Loma de la Mesa del Veladero", "lat": 20.792091, "lng": -105.049264
},{
"label": "Los Sauces", "lat": 20.694935, "lng": -105.129981
},{
"label": "Seapal Vallarta", "lat": 20.706268, "lng": -105.235382
},{
"label": "Cordoncillo", "lat": 20.783616, "lng": -105.058922
},{
"label": "El Crucero (Los Coamiles)", "lat": 20.811446, "lng": -105.171322
},{
"label": "Colinas del Valle", "lat": 20.756944, "lng": -105.159167
},{
"label": "Joyas del Colorado", "lat": 20.7575, "lng": -105.154444
},{
"label": "Playa Gemelas", "lat": 20.548822, "lng": -105.272469
},{
"label": "Ninguno [Gasolinera]", "lat": 20.703139, "lng": -105.232444
},{
"label": "Ixtapa", "lat": 20.714444, "lng": -105.199722
},{
"label": "El Almacén (Los Almacenes)", "lat": 20.579066, "lng": -105.203446
},{
"label": "Colonia Paso del Guayabo", "lat": 20.588889, "lng": -105.212222
},{
"label": "Cuatro Vientos", "lat": 20.681138, "lng": -105.208977
},{
"label": "Puerto Vallarta", "lat": 20.613611, "lng": -105.227222
},{
"label": "El Mirador", "lat": 20.795723, "lng": -105.150855
},{
"label": "Parasol Vallarta [Hotel]", "lat": 20.685974, "lng": -105.253573
},{
"label": "Jorge Rodríguez (La Ladrillera)", "lat": 20.68584, "lng": -105.251317
},{
"label": "El Ranchito (El Colesio)", "lat": 20.732802, "lng": -105.150432
},{
"label": "Ladrilleras (Camino al Basurero)", "lat": 20.674478, "lng": -105.220488
},{
"label": "El Recodo", "lat": 20.822387, "lng": -105.15784
},{
"label": "La Guadalupe", "lat": 20.820417, "lng": -105.14375
},{
"label": "El Campamento", "lat": 20.720763, "lng": -105.220029
},{
"label": "Jalisquillo", "lat": 20.829167, "lng": -105.114583
},{
"label": "La Boca del Arroyo del Naranjal", "lat": 20.83171, "lng": -105.047531
},{
"label": "Cuatro Villas", "lat": 20.577411, "lng": -105.24677
},{
"label": "El Hundido", "lat": 20.580549, "lng": -105.149455
},{
"label": "San Pedro", "lat": 20.547361, "lng": -105.119722
},{
"label": "La Palma Sola", "lat": 20.834857, "lng": -105.126256
},{
"label": "La Arenita", "lat": 20.583056, "lng": -105.208056
},{
"label": "Mismaloya", "lat": 20.530943, "lng": -105.289597
},{
"label": "El Palmar de Rivera", "lat": 20.709327, "lng": -105.236264
},{
"label": "Guásimas", "lat": 20.575999, "lng": -105.171552
},{
"label": "Las Guacas", "lat": 20.778111, "lng": -105.067374
},{
"label": "Ninguno [Láminas y Reciclados]", "lat": 20.721964, "lng": -105.18195
},{
"label": "Barreras", "lat": 20.906684, "lng": -105.10488
},{
"label": "El Polvorín", "lat": 20.505978, "lng": -105.306004
},{
"label": "Rancho Nácar", "lat": 20.743056, "lng": -105.161389
},{
"label": "La Vista", "lat": 20.696214, "lng": -105.160789
},{
"label": "Ojo de Agua", "lat": 20.745869, "lng": -105.154056
},{
"label": "El Agua Zarca", "lat": 20.562724, "lng": -105.14509
},{
"label": "Los Llanitos", "lat": 20.798592, "lng": -105.15898
},{
"label": "Ramblases Ecológico", "lat": 20.623584, "lng": -105.205787
},{
"label": "Boca de Tomatlán", "lat": 20.512059, "lng": -105.313933
},{
"label": "El Jilguero", "lat": 20.684086, "lng": -105.176528
},{
"label": "Rancho Manuel Colín Juárez", "lat": 20.675577, "lng": -105.265709
},{
"label": "Rancho Viejo", "lat": 20.490731, "lng": -105.271615
},{
"label": "Verde Valle", "lat": 20.786944, "lng": -105.154167
},{
"label": "La Quebrada", "lat": 20.51864, "lng": -105.319279
},{
"label": "Sun Resorts", "lat": 20.569066, "lng": -105.250138
},{
"label": "La Ceiba", "lat": 20.8406, "lng": -105.156025
},{
"label": "Carlos Sánchez", "lat": 20.799492, "lng": -105.139968
},{
"label": "Las Higueras del Hundido", "lat": 20.585176, "lng": -105.150205
},{
"label": "Las Peñas", "lat": 20.738769, "lng": -105.213107
},{
"label": "Las Juntas", "lat": 20.700556, "lng": -105.243056
},{
"label": "Gruas Ayón (El Corralón)", "lat": 20.708231, "lng": -105.228227
},{
"label": "La Querencia de los Pérez", "lat": 20.773146, "lng": -105.066293
},{
"label": "Ninguno [Campamento de Protección de la Tortuga Marina]", "lat": 20.669306, "lng": -105.272314
},{
"label": "Rancho de Talavera", "lat": 20.802083, "lng": -105.113333
},{
"label": "Zarahemla", "lat": 20.549072, "lng": -105.206894
},{
"label": "El Remachón (Guadalupana)", "lat": 20.833411, "lng": -105.151733
},{
"label": "Rancho el Refugio", "lat": 20.679009, "lng": -105.270236
},{
"label": "Colinas Campestres", "lat": 20.770074, "lng": -105.126449
},{
"label": "Tres Puertas", "lat": 20.687543, "lng": -105.256476
},{
"label": "Playa Grande (San Pedro)", "lat": 20.649346, "lng": -105.190031
},{
"label": "León de la Sierra", "lat": 20.525339, "lng": -105.307161
},{
"label": "Criba de Roberto Sandoval", "lat": 20.710123, "lng": -105.239728
},{
"label": "Ninguno [Ladrilleras]", "lat": 20.769622, "lng": -105.171442
},{
"label": "El Limbo", "lat": 20.730704, "lng": -105.071049
},{
"label": "Club de Equitación Hípico del Mar", "lat": 20.676874, "lng": -105.264948
},{
"label": "Los Menores", "lat": 20.800227, "lng": -105.133068
},{
"label": "Costa Vida Vallarta", "lat": 20.574595, "lng": -105.249078
},{
"label": "Nene Gómez", "lat": 20.723936, "lng": -105.173189
},{
"label": "Ninguno [Nestlé]", "lat": 20.701215, "lng": -105.233325
},{
"label": "Las Estacas", "lat": 20.581646, "lng": -105.24078
},{
"label": "Agua Caliente", "lat": 20.810771, "lng": -105.127523
},{
"label": "Mata de Bule", "lat": 20.820992, "lng": -105.161459
},{
"label": "El Aguacate", "lat": 20.737892, "lng": -105.166192
},{
"label": "El Verde", "lat": 20.861901, "lng": -105.149495
},{
"label": "El Cajón Morado", "lat": 20.823084, "lng": -105.05872
},{
"label": "Palmitas", "lat": 20.775628, "lng": -105.071358
},{
"label": "Getsemaní", "lat": 20.728333, "lng": -105.203611
},{
"label": "Bella Vista", "lat": 20.783363, "lng": -105.156486
},{
"label": "Hacienda las Peñas [Restaurante Bar]", "lat": 20.722778, "lng": -105.176389
},{
"label": "El Cantón Dos", "lat": 20.746279, "lng": -105.16632
},{
"label": "Tebelchia (El Roble)", "lat": 20.861561, "lng": -105.131321
},{
"label": "La Arboleda (Lomas del Valle)", "lat": 20.751023, "lng": -105.15732
},{
"label": "Trompetas", "lat": 20.680612, "lng": -105.179011
},{
"label": "Vallejo", "lat": 20.566684, "lng": -105.208355
},{
"label": "Ninguno [Escuela de Futbol Tres A]", "lat": 20.721953, "lng": -105.184694
},{
"label": "Colima", "lat": 20.737501, "lng": -105.20017
},{
"label": "Amapal", "lat": 20.825735, "lng": -105.139613
}]