[{
"label": "Cañaditas", "lat": 19.774722, "lng": -102.929722
},{
"label": "Cañada Seca (Las Ánimas)", "lat": 19.794165, "lng": -102.936554
},{
"label": "Benito Juárez (San Onofre)", "lat": 19.929462, "lng": -102.824551
},{
"label": "El Pozo", "lat": 19.733919, "lng": -102.957316
},{
"label": "El Lirio", "lat": 19.707364, "lng": -102.852284
},{
"label": "Puerto del Ojo de Agua", "lat": 19.807627, "lng": -102.959129
},{
"label": "Chacones", "lat": 19.676839, "lng": -102.945024
},{
"label": "La Troje (Las Trojes)", "lat": 19.95929, "lng": -102.873906
},{
"label": "El Montoso", "lat": 19.683743, "lng": -102.924916
},{
"label": "Los Chiqueros", "lat": 19.720233, "lng": -102.867117
},{
"label": "Buenavista", "lat": 19.758098, "lng": -102.847273
},{
"label": "Mula", "lat": 19.672, "lng": -102.893275
},{
"label": "Cuesta del Burro", "lat": 19.691104, "lng": -102.832324
},{
"label": "La Fábrica (La Máquina)", "lat": 19.857758, "lng": -102.869545
},{
"label": "El Cuervo", "lat": 19.80971, "lng": -102.819137
},{
"label": "La Joya", "lat": 19.646919, "lng": -102.904163
},{
"label": "Puerto el Tejocote", "lat": 19.829851, "lng": -102.954623
},{
"label": "Ramón Corona (Santa Fe)", "lat": 19.890354, "lng": -102.814191
},{
"label": "Los Bajíos", "lat": 19.843465, "lng": -102.94009
},{
"label": "Las Carreras", "lat": 19.804641, "lng": -102.946647
},{
"label": "El Talayote", "lat": 19.829131, "lng": -102.802371
},{
"label": "Rodeo", "lat": 19.8805, "lng": -102.917805
},{
"label": "Los Agrios (El Tule)", "lat": 19.932186, "lng": -102.845854
},{
"label": "Pino Chino", "lat": 19.818858, "lng": -102.962055
},{
"label": "Palo Herrado", "lat": 19.875848, "lng": -102.942659
},{
"label": "Chamacuero", "lat": 19.96, "lng": -102.850556
},{
"label": "Juaguique", "lat": 19.730338, "lng": -102.863724
},{
"label": "Río de Huertas", "lat": 19.672222, "lng": -102.846111
},{
"label": "La Parejita", "lat": 19.804172, "lng": -102.880899
},{
"label": "El Fiscalejo", "lat": 19.872076, "lng": -102.872871
},{
"label": "Azulillo", "lat": 19.718172, "lng": -102.878811
},{
"label": "Puerto Puertas Cuatas", "lat": 19.766221, "lng": -102.936162
},{
"label": "Mandojano", "lat": 19.75, "lng": -102.845833
},{
"label": "El Guayabal", "lat": 19.666237, "lng": -102.880139
},{
"label": "La Cabaña", "lat": 19.883451, "lng": -102.921791
},{
"label": "Los Alisos", "lat": 19.725556, "lng": -102.794722
},{
"label": "Barranca del Zarzal", "lat": 19.752539, "lng": -102.81647
},{
"label": "La Hacienda (La Peñita)", "lat": 19.763848, "lng": -102.94878
},{
"label": "Palo Verde", "lat": 19.754414, "lng": -102.961115
},{
"label": "Sin Hacha", "lat": 19.900693, "lng": -102.887508
},{
"label": "El Mesteño", "lat": 19.664249, "lng": -102.852463
},{
"label": "San Antonio (Carrillo Puerto)", "lat": 19.92844, "lng": -102.815234
},{
"label": "La Cuesta", "lat": 19.882531, "lng": -102.821062
},{
"label": "Las Barrancas", "lat": 19.915744, "lng": -102.91475
},{
"label": "Faisán", "lat": 19.712954, "lng": -102.909805
},{
"label": "Lavaderos", "lat": 19.772626, "lng": -102.899803
},{
"label": "El Quiringual", "lat": 19.89537, "lng": -102.760153
},{
"label": "San José de la Majada", "lat": 19.86449, "lng": -102.891961
},{
"label": "Carrizalillo", "lat": 19.756851, "lng": -102.937207
},{
"label": "La Espuela", "lat": 19.8244, "lng": -102.93059
},{
"label": "La Fábrica", "lat": 19.742484, "lng": -102.821108
},{
"label": "La Mancha", "lat": 19.729267, "lng": -102.833223
},{
"label": "Cuesta de la Cruz (El Burro)", "lat": 19.625869, "lng": -102.965952
},{
"label": "Cieneguita", "lat": 19.759248, "lng": -102.963185
},{
"label": "Los Llanos", "lat": 19.657429, "lng": -102.887753
},{
"label": "Buenos Aires", "lat": 19.759591, "lng": -102.874475
},{
"label": "El Güinaral", "lat": 19.66686, "lng": -102.902328
},{
"label": "Las Cabras", "lat": 19.742778, "lng": -102.860278
},{
"label": "Las Ollas", "lat": 19.788222, "lng": -102.848544
},{
"label": "La Tocusera", "lat": 19.651192, "lng": -102.888328
},{
"label": "Las Tablas", "lat": 19.855227, "lng": -102.779292
},{
"label": "La Hacienda", "lat": 19.969804, "lng": -102.879962
},{
"label": "El Guayabito", "lat": 19.670414, "lng": -102.920529
},{
"label": "El Guayabo", "lat": 19.735288, "lng": -102.871749
},{
"label": "Los Llanitos de Orozco", "lat": 19.87707, "lng": -102.801269
},{
"label": "Las Nueces", "lat": 19.700604, "lng": -102.845195
},{
"label": "El Cuate", "lat": 19.804769, "lng": -102.976333
},{
"label": "Pizotepe", "lat": 19.745412, "lng": -102.963756
},{
"label": "Los Capulines", "lat": 19.890014, "lng": -102.918602
},{
"label": "La Tejocotera", "lat": 19.71953, "lng": -102.915546
},{
"label": "La Presa (La Fábrica)", "lat": 19.894063, "lng": -102.872415
},{
"label": "Santas Marías", "lat": 19.940773, "lng": -102.828372
},{
"label": "El Limón", "lat": 19.878851, "lng": -102.854407
},{
"label": "El Arpa", "lat": 19.667733, "lng": -102.816327
},{
"label": "Los Desmontes", "lat": 19.857664, "lng": -102.971029
},{
"label": "Puerto Hondo", "lat": 19.849311, "lng": -102.927284
},{
"label": "El Tejamanil", "lat": 19.916172, "lng": -102.898496
},{
"label": "La Fila", "lat": 19.678404, "lng": -102.899799
},{
"label": "El Bajío", "lat": 19.728056, "lng": -102.882778
},{
"label": "La Presa", "lat": 19.761712, "lng": -102.867299
},{
"label": "Plan de Cervantes", "lat": 19.856667, "lng": -102.939167
},{
"label": "Guadalupe del Montoso", "lat": 19.687576, "lng": -102.902565
},{
"label": "La Tinaja", "lat": 19.951189, "lng": -102.8034
},{
"label": "Llano Largo", "lat": 19.843056, "lng": -102.785556
},{
"label": "El Conejo", "lat": 19.859545, "lng": -102.953643
},{
"label": "Los Carrizos", "lat": 19.668942, "lng": -102.82344
},{
"label": "La Mesa Grande", "lat": 19.712475, "lng": -102.851512
},{
"label": "Panales", "lat": 19.729578, "lng": -102.841044
},{
"label": "El Limón de Carranza (El Limón)", "lat": 19.87432, "lng": -102.75205
},{
"label": "El Chorro", "lat": 19.949873, "lng": -102.825924
},{
"label": "El Zapotal", "lat": 19.929356, "lng": -102.85885
},{
"label": "Lázaro Cárdenas (San Diego)", "lat": 19.888888, "lng": -102.832376
},{
"label": "Prietos", "lat": 19.637778, "lng": -102.916667
},{
"label": "Barranca de las Nueces", "lat": 19.688788, "lng": -102.866917
},{
"label": "El Capulín", "lat": 19.950884, "lng": -102.863221
},{
"label": "Rodada", "lat": 19.685556, "lng": -102.828889
},{
"label": "El Cucharo (El Aserradero)", "lat": 19.728333, "lng": -102.927778
},{
"label": "El Penguillal (El Pengullal)", "lat": 19.753662, "lng": -102.970614
},{
"label": "Potrerillos", "lat": 19.880875, "lng": -102.895402
},{
"label": "Santas Marías (Las Canoas)", "lat": 19.641722, "lng": -102.929434
},{
"label": "El Remate", "lat": 19.832143, "lng": -102.902435
},{
"label": "Cerca de Piedra", "lat": 19.868139, "lng": -102.973251
},{
"label": "Luis", "lat": 19.953695, "lng": -102.843348
},{
"label": "La Vinata", "lat": 19.764776, "lng": -102.888153
},{
"label": "El Pulido", "lat": 19.83404, "lng": -102.970043
},{
"label": "Cerro de Piedra", "lat": 19.820686, "lng": -102.807645
},{
"label": "La Sierrita", "lat": 19.876661, "lng": -102.791379
},{
"label": "Los Chapiles", "lat": 19.650687, "lng": -102.868997
},{
"label": "Ciénega Larga", "lat": 19.766785, "lng": -102.956239
},{
"label": "El Regadillo", "lat": 19.763, "lng": -102.88388
},{
"label": "Los Barbechos", "lat": 19.645, "lng": -102.877778
},{
"label": "Las Ánimas", "lat": 19.779101, "lng": -102.908603
},{
"label": "Españita", "lat": 19.659879, "lng": -102.86368
},{
"label": "Quitupan", "lat": 19.9275, "lng": -102.872222
},{
"label": "El Raicero", "lat": 19.833566, "lng": -102.873206
},{
"label": "Pueblo Viejo", "lat": 19.642171, "lng": -102.954029
},{
"label": "Lagunillas", "lat": 19.839535, "lng": -102.761248
},{
"label": "Las Juntas", "lat": 19.725545, "lng": -102.912473
},{
"label": "Poca Sangre", "lat": 19.883578, "lng": -102.779697
},{
"label": "Rodeo (El Rodeo San Onofre)", "lat": 19.939167, "lng": -102.8225
},{
"label": "Las Maravillas", "lat": 19.882208, "lng": -102.910769
},{
"label": "Los Tejones (Betania)", "lat": 19.703306, "lng": -102.932871
},{
"label": "Las Tecatas", "lat": 19.838058, "lng": -102.956182
},{
"label": "La Peña", "lat": 19.941768, "lng": -102.840248
},{
"label": "Cerro Blanco", "lat": 19.721111, "lng": -102.862222
},{
"label": "Puerta de Agujas", "lat": 19.872553, "lng": -102.923801
},{
"label": "Las Flores", "lat": 19.735338, "lng": -102.887825
},{
"label": "El Establo", "lat": 19.911267, "lng": -102.78747
},{
"label": "La Mora", "lat": 19.835561, "lng": -102.951379
},{
"label": "La Cruz", "lat": 19.733894, "lng": -102.900963
},{
"label": "San Francisco (Emiliano Zapata)", "lat": 19.920157, "lng": -102.849447
},{
"label": "Los Ranchitos", "lat": 19.708753, "lng": -102.884258
},{
"label": "El Carrizalillo", "lat": 19.660556, "lng": -102.878333
},{
"label": "Soromuta", "lat": 19.809376, "lng": -102.950469
},{
"label": "El Laurel", "lat": 19.826989, "lng": -102.853527
},{
"label": "La Bufita", "lat": 19.686364, "lng": -102.856551
},{
"label": "La Loma", "lat": 19.733117, "lng": -102.860389
},{
"label": "El Salitrillo", "lat": 19.862371, "lng": -102.96465
},{
"label": "Mesa del Guayabo", "lat": 19.745742, "lng": -102.87181
},{
"label": "La Esperanza", "lat": 19.916221, "lng": -102.796015
},{
"label": "Agua Caliente", "lat": 19.861543, "lng": -102.968431
},{
"label": "La Culebra", "lat": 19.680028, "lng": -102.814897
},{
"label": "Loma Blanca (Los Capulines)", "lat": 19.78558, "lng": -102.964355
},{
"label": "El Mezquite", "lat": 19.753697, "lng": -102.86396
},{
"label": "La Laja", "lat": 19.685278, "lng": -102.8325
},{
"label": "Ojo de Agua del Coruco (El Coruco)", "lat": 19.867586, "lng": -102.952456
},{
"label": "La Unión", "lat": 19.913781, "lng": -102.790224
},{
"label": "El Aguacate", "lat": 19.763001, "lng": -102.84708
},{
"label": "Falda Verde (El Julián)", "lat": 19.722328, "lng": -102.957045
},{
"label": "Mariano Escobedo (La Guadalupe)", "lat": 19.901839, "lng": -102.776124
},{
"label": "El Fresnal", "lat": 19.72351, "lng": -102.873479
},{
"label": "Palo Dulzal", "lat": 19.873786, "lng": -102.911468
},{
"label": "Rafael Picazo (Santa Cruz)", "lat": 19.899385, "lng": -102.852799
},{
"label": "Plan Baroso", "lat": 19.768889, "lng": -102.961667
},{
"label": "El Cuascomate", "lat": 19.750091, "lng": -102.921076
},{
"label": "Cerro Montoso", "lat": 19.707222, "lng": -102.894444
},{
"label": "Agua Blanca", "lat": 19.861389, "lng": -102.781111
}]