[{
"label": "Mesa del Chile (Mesa de Amador)", "lat": 20.999444, "lng": -102.329722
},{
"label": "Rinconcito", "lat": 20.985888, "lng": -102.34901
},{
"label": "Cañada Grande", "lat": 21.059044, "lng": -102.447858
},{
"label": "Las Fuentes [Fraccionamiento]", "lat": 21.0248, "lng": -102.445653
},{
"label": "Morquecho", "lat": 20.973376, "lng": -102.462819
},{
"label": "Huizache Chino", "lat": 20.966519, "lng": -102.519157
},{
"label": "Tierra Blanca", "lat": 20.996817, "lng": -102.357141
},{
"label": "El Fraile", "lat": 20.880239, "lng": -102.468528
},{
"label": "Ceja de los Romanos", "lat": 20.988471, "lng": -102.323807
},{
"label": "El Toro Pinto (El Pilar)", "lat": 20.918056, "lng": -102.436667
},{
"label": "Comedero", "lat": 20.949167, "lng": -102.509167
},{
"label": "El Carretero", "lat": 20.90448, "lng": -102.272539
},{
"label": "Los Metates", "lat": 20.923224, "lng": -102.246771
},{
"label": "El Jagüey", "lat": 20.985085, "lng": -102.385459
},{
"label": "Ninguno", "lat": 20.937755, "lng": -102.330859
},{
"label": "La Corona", "lat": 20.991662, "lng": -102.373815
},{
"label": "San Agustín", "lat": 20.985115, "lng": -102.366415
},{
"label": "San Rafael Uno", "lat": 21.022493, "lng": -102.366984
},{
"label": "El Salto del Gavilán", "lat": 20.976717, "lng": -102.408897
},{
"label": "La Libertad", "lat": 20.883056, "lng": -102.447778
},{
"label": "La Mata (Fátima)", "lat": 20.909201, "lng": -102.478276
},{
"label": "Los Chapeteados (Cerro de la Cruz)", "lat": 21.010656, "lng": -102.218139
},{
"label": "La Palma", "lat": 20.957318, "lng": -102.433266
},{
"label": "Santa Ana de Arriba", "lat": 21.091574, "lng": -102.410762
},{
"label": "Las Biznagas", "lat": 20.961799, "lng": -102.36889
},{
"label": "San José del Cuarto", "lat": 20.963455, "lng": -102.505727
},{
"label": "Buenavista (San Julián) [Club] [Fraccionamiento]", "lat": 21.01217, "lng": -102.210196
},{
"label": "Santa Clara", "lat": 21.039009, "lng": -102.307958
},{
"label": "La Barranca del Rincón de Chávez", "lat": 20.961657, "lng": -102.296154
},{
"label": "El Astillero", "lat": 20.89922, "lng": -102.393432
},{
"label": "Ninguno [Crucero San Miguel-San Julián Kilómetro Siete]", "lat": 21.014059, "lng": -102.322669
},{
"label": "Cieneguita", "lat": 21.042292, "lng": -102.409023
},{
"label": "La Cinta", "lat": 20.908824, "lng": -102.3348
},{
"label": "La Barranca", "lat": 20.974076, "lng": -102.264346
},{
"label": "Montecillo", "lat": 21.049873, "lng": -102.426394
},{
"label": "El Púlpito", "lat": 20.890556, "lng": -102.315
},{
"label": "El Puerto", "lat": 21.067335, "lng": -102.395069
},{
"label": "La Cebolleta", "lat": 20.957973, "lng": -102.515502
},{
"label": "El Romerillo", "lat": 20.951372, "lng": -102.304286
},{
"label": "Las Mesitas (Los Cerritos)", "lat": 21.075468, "lng": -102.416087
},{
"label": "Sauz de los Ramírez", "lat": 21.066667, "lng": -102.239722
},{
"label": "El Arañero (La Curva)", "lat": 21.008839, "lng": -102.273559
},{
"label": "El Fresnito", "lat": 20.960954, "lng": -102.220249
},{
"label": "Mesa de Jalpa", "lat": 20.975653, "lng": -102.287301
},{
"label": "Ave María", "lat": 20.966542, "lng": -102.372329
},{
"label": "San Rafael Dos", "lat": 21.024875, "lng": -102.366817
},{
"label": "El Rincón de Chávez", "lat": 20.973276, "lng": -102.306122
},{
"label": "Moya", "lat": 20.970218, "lng": -102.427039
},{
"label": "La Perilla", "lat": 20.946389, "lng": -102.490278
},{
"label": "La Cofradía", "lat": 21.010488, "lng": -102.415146
},{
"label": "La Verdolaga", "lat": 20.989669, "lng": -102.281453
},{
"label": "La Mesa", "lat": 21.063561, "lng": -102.431223
},{
"label": "El Cuadrado", "lat": 21.051952, "lng": -102.510044
},{
"label": "Las Pilas", "lat": 20.888007, "lng": -102.461303
},{
"label": "Los Charcos", "lat": 20.920753, "lng": -102.23791
},{
"label": "La Angostura", "lat": 20.934444, "lng": -102.346389
},{
"label": "El Bajío", "lat": 21.015033, "lng": -102.38266
},{
"label": "Las Cuevas", "lat": 20.994149, "lng": -102.346786
},{
"label": "Amador", "lat": 21.015403, "lng": -102.335661
},{
"label": "La Presa", "lat": 20.990443, "lng": -102.40301
},{
"label": "Cruz de Orozco", "lat": 20.954417, "lng": -102.257988
},{
"label": "La Aurora", "lat": 20.984598, "lng": -102.322138
},{
"label": "Pajaritos (Los Pájaros)", "lat": 20.942921, "lng": -102.508719
},{
"label": "El Mesón de los Garañones", "lat": 21.091609, "lng": -102.248913
},{
"label": "Lechuguilla", "lat": 20.929645, "lng": -102.286666
},{
"label": "El Rodadillo", "lat": 20.929883, "lng": -102.295515
},{
"label": "El Cerrito de Cristo Rey (Cerro Bolón)", "lat": 21.025691, "lng": -102.424886
},{
"label": "La Víbora", "lat": 20.915833, "lng": -102.313333
},{
"label": "Hacienda de las Ánimas", "lat": 21.007368, "lng": -102.213199
},{
"label": "El Baluarte", "lat": 20.938048, "lng": -102.367555
},{
"label": "Salto Prieto", "lat": 20.947823, "lng": -102.280067
},{
"label": "La Tapona", "lat": 21.081096, "lng": -102.252508
},{
"label": "El Zapote", "lat": 20.928333, "lng": -102.516111
},{
"label": "Ceja de Enmedio", "lat": 20.964351, "lng": -102.261609
},{
"label": "Las Galeras", "lat": 21.062528, "lng": -102.485956
},{
"label": "Capulines de Arriba", "lat": 21.00977, "lng": -102.50453
},{
"label": "Los Ladrillos", "lat": 20.97457, "lng": -102.243579
},{
"label": "Montecillos", "lat": 21.019494, "lng": -102.242708
},{
"label": "Texas", "lat": 21.050833, "lng": -102.279167
},{
"label": "Mala Gana", "lat": 20.89565, "lng": -102.243103
},{
"label": "Puerta del Sauz", "lat": 21.084142, "lng": -102.241478
},{
"label": "San Jorge", "lat": 20.939253, "lng": -102.416674
},{
"label": "Mesa de la Cieneguita", "lat": 21.052991, "lng": -102.392885
},{
"label": "La Ciénega", "lat": 21.090471, "lng": -102.382668
},{
"label": "El Mastranzo", "lat": 20.888161, "lng": -102.39787
},{
"label": "Charcos de Cristo", "lat": 21.039623, "lng": -102.4166
},{
"label": "Los Nogales", "lat": 21.005818, "lng": -102.22823
},{
"label": "El Estanco", "lat": 21.012019, "lng": -102.276939
},{
"label": "Potrerillo", "lat": 21.060556, "lng": -102.286667
},{
"label": "La Ladera", "lat": 20.999524, "lng": -102.231811
},{
"label": "La Laguna Seca", "lat": 21.048023, "lng": -102.466229
},{
"label": "Pedregoso", "lat": 21.004567, "lng": -102.281592
},{
"label": "Valverde", "lat": 21.013031, "lng": -102.400369
},{
"label": "Las Carretas", "lat": 20.908256, "lng": -102.362245
},{
"label": "Llano de los Conejos", "lat": 21.021291, "lng": -102.349007
},{
"label": "Camichines", "lat": 20.974127, "lng": -102.374432
},{
"label": "Capulines de Abajo", "lat": 21.028156, "lng": -102.488139
},{
"label": "El Ramblas", "lat": 20.930445, "lng": -102.360522
},{
"label": "Cerro de la Cruz", "lat": 21.025868, "lng": -102.23436
},{
"label": "Rincón del Niño", "lat": 21.081111, "lng": -102.234722
},{
"label": "Los Ocotes", "lat": 21.051001, "lng": -102.373201
},{
"label": "Pandillo", "lat": 21.034074, "lng": -102.41956
},{
"label": "El Robadero", "lat": 20.912626, "lng": -102.304425
},{
"label": "El Arrastradero", "lat": 21.037638, "lng": -102.265513
},{
"label": "La Mesa de San Juan de Dios (La Mesa del Gato)", "lat": 21.065278, "lng": -102.357778
},{
"label": "La Soledad", "lat": 21.068679, "lng": -102.223128
},{
"label": "Potrero Grande", "lat": 20.971934, "lng": -102.340809
},{
"label": "La Capilla", "lat": 21.006058, "lng": -102.389437
},{
"label": "Monte Alto", "lat": 20.912635, "lng": -102.282737
},{
"label": "Los Aviones", "lat": 20.9275, "lng": -102.466667
},{
"label": "La Pimienta", "lat": 21.020638, "lng": -102.378088
},{
"label": "Belem", "lat": 21.008009, "lng": -102.29908
},{
"label": "Cañaditas", "lat": 20.948353, "lng": -102.225444
},{
"label": "La Carbonera", "lat": 20.934167, "lng": -102.405278
},{
"label": "Mesita del Fresno", "lat": 21.098834, "lng": -102.308921
},{
"label": "Jesús María", "lat": 20.901877, "lng": -102.345727
},{
"label": "La Loma del Refugio", "lat": 21.087923, "lng": -102.232402
},{
"label": "El Pino", "lat": 20.920114, "lng": -102.295714
},{
"label": "La Estancia", "lat": 21.029044, "lng": -102.306034
},{
"label": "Buenavista", "lat": 21.009227, "lng": -102.558533
},{
"label": "San Juanico", "lat": 20.931769, "lng": -102.325942
},{
"label": "Mirandillas", "lat": 20.942181, "lng": -102.542337
},{
"label": "San Isidro", "lat": 20.981093, "lng": -102.499472
},{
"label": "La Joya", "lat": 20.925113, "lng": -102.384136
},{
"label": "El Hortelano", "lat": 20.958594, "lng": -102.300524
},{
"label": "Monte Oso", "lat": 20.977928, "lng": -102.2556
},{
"label": "La Chiripada [Granja]", "lat": 21.011161, "lng": -102.405473
},{
"label": "Santa Teresa", "lat": 20.928704, "lng": -102.272641
},{
"label": "La Ceja", "lat": 20.975801, "lng": -102.424011
},{
"label": "San Juan de Dios", "lat": 21.060736, "lng": -102.344259
},{
"label": "El Saucillo", "lat": 21.063018, "lng": -102.306058
},{
"label": "El Puchote", "lat": 21.060954, "lng": -102.322789
},{
"label": "Ventanillas", "lat": 20.971049, "lng": -102.392579
},{
"label": "La Pila", "lat": 20.976579, "lng": -102.359674
},{
"label": "El Pirul", "lat": 20.993301, "lng": -102.303436
},{
"label": "El Grillo", "lat": 20.88694, "lng": -102.24274
},{
"label": "El Cerro de San Francisco", "lat": 20.964454, "lng": -102.242436
},{
"label": "La Escondida", "lat": 20.984592, "lng": -102.448619
},{
"label": "Charco Grande", "lat": 20.989369, "lng": -102.410272
},{
"label": "El Salero", "lat": 20.92237, "lng": -102.283324
},{
"label": "Piedras Grandes", "lat": 21.021251, "lng": -102.423394
},{
"label": "El Banco", "lat": 20.910541, "lng": -102.318986
},{
"label": "Santa Rosa", "lat": 20.993946, "lng": -102.455089
},{
"label": "Cruz Verde", "lat": 20.991259, "lng": -102.428921
},{
"label": "San Vicente Uno", "lat": 20.925508, "lng": -102.442618
},{
"label": "Buenavista (Barranca de Buenavista)", "lat": 20.985556, "lng": -102.301111
},{
"label": "Maravillas", "lat": 20.910488, "lng": -102.444812
},{
"label": "Guadalajarita", "lat": 20.970055, "lng": -102.213634
},{
"label": "Santo Domingo (La Comba)", "lat": 21.019307, "lng": -102.463154
},{
"label": "El Ranchito", "lat": 20.973373, "lng": -102.534825
},{
"label": "Palo Blanco", "lat": 20.920478, "lng": -102.493988
},{
"label": "Magueyes", "lat": 21.038363, "lng": -102.387721
},{
"label": "Cuatro Esquinas (Plan de Cañaditas)", "lat": 20.940903, "lng": -102.230127
},{
"label": "Potrero de Arriba", "lat": 20.967374, "lng": -102.540618
},{
"label": "Capulines", "lat": 20.972275, "lng": -102.320094
},{
"label": "El Derramadero", "lat": 21.092202, "lng": -102.262159
},{
"label": "La Culata (Potrero de la Cuchilla)", "lat": 20.918574, "lng": -102.358805
},{
"label": "Paso de Jesús", "lat": 21.090245, "lng": -102.294191
},{
"label": "El Refugio", "lat": 21.094722, "lng": -102.239444
},{
"label": "El Guayabo", "lat": 21.03022, "lng": -102.438431
},{
"label": "El Espinal", "lat": 21.043085, "lng": -102.479106
},{
"label": "La Trinidad", "lat": 20.95307, "lng": -102.459573
},{
"label": "Rosa de Castilla", "lat": 21.017558, "lng": -102.445754
},{
"label": "El Salto del Tecomate (Plan del Salto)", "lat": 20.988339, "lng": -102.262816
},{
"label": "El Guaje", "lat": 21.008333, "lng": -102.253792
},{
"label": "Barranca del Tigre", "lat": 20.967417, "lng": -102.400547
},{
"label": "La Nopalera", "lat": 20.953281, "lng": -102.464248
},{
"label": "La Lomita", "lat": 21.014441, "lng": -102.40936
},{
"label": "La Comba", "lat": 21.006236, "lng": -102.465808
},{
"label": "La Tarjea", "lat": 21.057635, "lng": -102.405998
},{
"label": "Santa Bárbara", "lat": 21.001675, "lng": -102.400224
},{
"label": "Los Sauces", "lat": 20.97729, "lng": -102.381056
},{
"label": "La Loma Uno", "lat": 21.018764, "lng": -102.312567
},{
"label": "Cerro Prieto", "lat": 21.097623, "lng": -102.272695
},{
"label": "Cornejo", "lat": 20.998448, "lng": -102.491383
},{
"label": "Pilares Blancos", "lat": 21.015253, "lng": -102.403386
},{
"label": "Colonia González", "lat": 21.019242, "lng": -102.525905
},{
"label": "Los Once Pueblos", "lat": 21.020688, "lng": -102.397752
},{
"label": "Jaritas", "lat": 20.93213, "lng": -102.263008
},{
"label": "Los Álamos", "lat": 21.014306, "lng": -102.210944
},{
"label": "La Tinaja", "lat": 20.886664, "lng": -102.30516
},{
"label": "Barranca Verde", "lat": 20.943909, "lng": -102.452383
},{
"label": "Potrero Nuevo", "lat": 20.950236, "lng": -102.550396
},{
"label": "Cerro del Capulín", "lat": 20.882941, "lng": -102.433783
},{
"label": "Ringlera", "lat": 21.024722, "lng": -102.323333
},{
"label": "Tecomates", "lat": 20.970403, "lng": -102.23973
},{
"label": "El Ranero (Laguna de Piedra)", "lat": 20.941389, "lng": -102.464167
},{
"label": "La Mole", "lat": 21.046294, "lng": -102.270817
},{
"label": "La Lobera", "lat": 21.004172, "lng": -102.552951
},{
"label": "Anacaspiloya", "lat": 21.050161, "lng": -102.439775
},{
"label": "Los Soyates", "lat": 20.99479, "lng": -102.47623
},{
"label": "El Burral", "lat": 20.963701, "lng": -102.529574
},{
"label": "Salto de la Puerca", "lat": 20.935869, "lng": -102.256917
},{
"label": "El Irrel", "lat": 21.035918, "lng": -102.416802
},{
"label": "El Tigre", "lat": 21.049763, "lng": -102.354058
},{
"label": "San José de los Reynoso", "lat": 21.072597, "lng": -102.284699
},{
"label": "Los Cerritos", "lat": 21.050476, "lng": -102.226664
},{
"label": "Cerrito de San Nicolás", "lat": 21.107327, "lng": -102.247536
},{
"label": "Pozos Morados", "lat": 21.078008, "lng": -102.432166
},{
"label": "Ojo de Agua", "lat": 21.031654, "lng": -102.335283
},{
"label": "La Jarrilla", "lat": 20.950023, "lng": -102.544517
},{
"label": "San Vicente", "lat": 20.936582, "lng": -102.447663
},{
"label": "El Compas", "lat": 20.938333, "lng": -102.521944
},{
"label": "San Miguel el Alto", "lat": 21.030556, "lng": -102.398056
},{
"label": "Los Arados", "lat": 20.943654, "lng": -102.425921
},{
"label": "El Saucillo de Abajo", "lat": 21.08016, "lng": -102.295113
},{
"label": "La Garita", "lat": 21.015948, "lng": -102.401164
},{
"label": "Peña Amarilla", "lat": 21.045338, "lng": -102.342079
},{
"label": "Las Minas", "lat": 21.046527, "lng": -102.394583
},{
"label": "El Mirasol", "lat": 21.066742, "lng": -102.439352
},{
"label": "El Rodeo", "lat": 21.066944, "lng": -102.468056
},{
"label": "El Saltillo", "lat": 21.027793, "lng": -102.455434
},{
"label": "El Taray", "lat": 21.043341, "lng": -102.362055
},{
"label": "Cerro Grande", "lat": 20.998939, "lng": -102.440471
},{
"label": "San José de los Padilla", "lat": 20.972791, "lng": -102.482054
},{
"label": "La Loma", "lat": 21.084452, "lng": -102.286805
},{
"label": "Sinagua", "lat": 20.976038, "lng": -102.332959
},{
"label": "El Terrero", "lat": 20.934167, "lng": -102.379444
},{
"label": "La Esperanza", "lat": 20.929722, "lng": -102.478611
},{
"label": "Las Alazanas", "lat": 20.90362, "lng": -102.420733
},{
"label": "El Buche", "lat": 20.896291, "lng": -102.364959
},{
"label": "Cabrito", "lat": 21.092458, "lng": -102.272876
},{
"label": "Los Cuates", "lat": 21.040816, "lng": -102.467566
},{
"label": "Las Presitas", "lat": 20.926389, "lng": -102.426944
},{
"label": "La Cuchilla (Potrero de la Cuchilla)", "lat": 20.921044, "lng": -102.347942
},{
"label": "Sacamecate", "lat": 20.938881, "lng": -102.259895
}]