[{
"label": "Las Varillas", "lat": 19.738531, "lng": -103.679921
},{
"label": "La Crucecita (La Joya)", "lat": 19.689493, "lng": -103.723718
},{
"label": "Rancho Prieto", "lat": 19.666899, "lng": -103.785241
},{
"label": "La Mezcalera", "lat": 19.743723, "lng": -103.696828
},{
"label": "El Sauz", "lat": 19.713096, "lng": -103.804319
},{
"label": "El Manzanillo", "lat": 19.688207, "lng": -103.704599
},{
"label": "La Estancia", "lat": 19.712248, "lng": -103.845594
},{
"label": "Los Ahuates", "lat": 19.762217, "lng": -103.885438
},{
"label": "El Comandante", "lat": 19.654044, "lng": -103.788517
},{
"label": "Palos Verdes", "lat": 19.635977, "lng": -103.593375
},{
"label": "Rancho de Juan Dávalos", "lat": 19.697346, "lng": -103.791203
},{
"label": "Buenavista", "lat": 19.753319, "lng": -103.763963
},{
"label": "San Isidro", "lat": 19.63563, "lng": -103.761104
},{
"label": "Crucero del Camichín", "lat": 19.630195, "lng": -103.802849
},{
"label": "La Loma Larga (Rancho de Don Faustino)", "lat": 19.645447, "lng": -103.72068
},{
"label": "Sayulapan", "lat": 19.659818, "lng": -103.646264
},{
"label": "Puerto de la Estacada", "lat": 19.653459, "lng": -103.615664
},{
"label": "El Jardín", "lat": 19.776028, "lng": -103.897077
},{
"label": "Finca Rosario", "lat": 19.798045, "lng": -103.676988
},{
"label": "La Croix", "lat": 19.710053, "lng": -103.854478
},{
"label": "Ninguno", "lat": 19.694071, "lng": -103.583827
},{
"label": "Rancho los Patos", "lat": 19.686828, "lng": -103.815731
},{
"label": "El Carpintero", "lat": 19.723677, "lng": -103.71858
},{
"label": "Estancia la María Isabel", "lat": 19.803652, "lng": -103.68512
},{
"label": "El Pelillo", "lat": 19.80021, "lng": -103.647324
},{
"label": "Tacamo y Corral de Piedra", "lat": 19.630149, "lng": -103.737892
},{
"label": "El Izote", "lat": 19.63374, "lng": -103.644732
},{
"label": "Agua Escondida", "lat": 19.774651, "lng": -103.621966
},{
"label": "Rancho de Jesús Gómez", "lat": 19.695124, "lng": -103.800631
},{
"label": "El Veladero", "lat": 19.802715, "lng": -103.6708
},{
"label": "La Chingada", "lat": 19.7345, "lng": -103.757006
},{
"label": "Cuatro Caminos", "lat": 19.681338, "lng": -103.799912
},{
"label": "Faro del Llano", "lat": 19.734768, "lng": -103.776513
},{
"label": "Juan Diego", "lat": 19.737038, "lng": -103.789744
},{
"label": "El Anillo", "lat": 19.753472, "lng": -103.666169
},{
"label": "El Penal", "lat": 19.660861, "lng": -103.780717
},{
"label": "El Carbunco", "lat": 19.761999, "lng": -103.934228
},{
"label": "Nahuapan", "lat": 19.625718, "lng": -103.760298
},{
"label": "La Galera", "lat": 19.785853, "lng": -103.68775
},{
"label": "Los Gallos", "lat": 19.708611, "lng": -103.731511
},{
"label": "Ojo de Agua de Apango", "lat": 19.789028, "lng": -103.709733
},{
"label": "La Gatera", "lat": 19.641821, "lng": -103.683335
},{
"label": "El Oasis del Desierto", "lat": 19.659197, "lng": -103.87832
},{
"label": "El Encino", "lat": 19.795368, "lng": -103.679178
},{
"label": "Las Primaveras [Invernadero]", "lat": 19.701806, "lng": -103.840556
},{
"label": "La Mojonera", "lat": 19.705465, "lng": -103.760021
},{
"label": "Cuista", "lat": 19.709588, "lng": -103.77839
},{
"label": "Puente Alto", "lat": 19.641507, "lng": -103.727979
},{
"label": "La Manzanilla", "lat": 19.785387, "lng": -103.665904
},{
"label": "San José del Rincón (San José de las Burras)", "lat": 19.766434, "lng": -103.857352
},{
"label": "El Edén", "lat": 19.726233, "lng": -103.778135
},{
"label": "Los Arcos", "lat": 19.694808, "lng": -103.790536
},{
"label": "El Retiro de Poncho", "lat": 19.673112, "lng": -103.810308
},{
"label": "Loma Alta", "lat": 19.722891, "lng": -103.774276
},{
"label": "Rancho el Bordo", "lat": 19.664732, "lng": -103.77868
},{
"label": "San Antonio", "lat": 19.794974, "lng": -103.887455
},{
"label": "Los Machetes", "lat": 19.650311, "lng": -103.684766
},{
"label": "Rancho los Chávez", "lat": 19.783924, "lng": -103.729954
},{
"label": "El Maguey", "lat": 19.720417, "lng": -103.746842
},{
"label": "El Tepozal", "lat": 19.674305, "lng": -103.743463
},{
"label": "La Reserva", "lat": 19.708284, "lng": -103.749744
},{
"label": "El Tepamal", "lat": 19.692727, "lng": -103.759396
},{
"label": "La Cuicha", "lat": 19.821153, "lng": -103.718528
},{
"label": "La Guayabera", "lat": 19.712843, "lng": -103.838588
},{
"label": "La Tuna", "lat": 19.742651, "lng": -103.709938
},{
"label": "La Mesa", "lat": 19.736692, "lng": -103.696265
},{
"label": "Ranchos Unidos Santa Bárbara", "lat": 19.755917, "lng": -103.637778
},{
"label": "Loma Delgada", "lat": 19.636224, "lng": -103.768237
},{
"label": "Chapopotera", "lat": 19.688307, "lng": -103.794713
},{
"label": "Las Pilas", "lat": 19.685142, "lng": -103.569055
},{
"label": "Los Tacotes", "lat": 19.767919, "lng": -103.768313
},{
"label": "La Cruz del Padre Mota", "lat": 19.627964, "lng": -103.756957
},{
"label": "Rancho de Antonio Durán", "lat": 19.710879, "lng": -103.788554
},{
"label": "Rancho de Benjamín Gómez", "lat": 19.738227, "lng": -103.76839
},{
"label": "El Aguaje", "lat": 19.806222, "lng": -103.724192
},{
"label": "Telcampana", "lat": 19.7075, "lng": -103.780556
},{
"label": "Los Preciado", "lat": 19.717573, "lng": -103.817141
},{
"label": "Salsipuedes", "lat": 19.749235, "lng": -103.668766
},{
"label": "Las Tortugas", "lat": 19.708903, "lng": -103.773891
},{
"label": "Rancho del Cerrito", "lat": 19.689116, "lng": -103.768641
},{
"label": "La Lagunita", "lat": 19.712439, "lng": -103.726418
},{
"label": "Loma del Camichín", "lat": 19.634692, "lng": -103.799799
},{
"label": "La Tinaja", "lat": 19.619793, "lng": -103.810764
},{
"label": "El Pantalón", "lat": 19.658753, "lng": -103.752477
},{
"label": "Piedra Ancha", "lat": 19.635154, "lng": -103.579477
},{
"label": "El Colchón", "lat": 19.683746, "lng": -103.762129
},{
"label": "La Guadalupe", "lat": 19.736702, "lng": -103.780671
},{
"label": "La Lobera", "lat": 19.654639, "lng": -103.848462
},{
"label": "Los Pozos y el Ocote", "lat": 19.733414, "lng": -103.646973
},{
"label": "El Copal", "lat": 19.738106, "lng": -103.71833
},{
"label": "El Capulín", "lat": 19.659748, "lng": -103.736396
},{
"label": "Jaime Cárdenas", "lat": 19.69946, "lng": -103.820122
},{
"label": "Cerro Viejo", "lat": 19.796166, "lng": -103.741687
},{
"label": "Presa de Tierra", "lat": 19.659298, "lng": -103.823909
},{
"label": "La Sauceda", "lat": 19.736611, "lng": -103.752143
},{
"label": "Santa María", "lat": 19.689833, "lng": -103.791404
},{
"label": "Potrero Ojo de Agua", "lat": 19.635536, "lng": -103.753552
},{
"label": "El Divisadero", "lat": 19.774519, "lng": -103.795899
},{
"label": "El Crucero", "lat": 19.767184, "lng": -103.781181
},{
"label": "Loma de Temuchil", "lat": 19.65402, "lng": -103.809193
},{
"label": "Ojo de Agua", "lat": 19.620694, "lng": -103.71629
},{
"label": "La Ciénega", "lat": 19.763313, "lng": -103.759266
},{
"label": "Los Alpes", "lat": 19.65196, "lng": -103.592829
},{
"label": "Rancho de Javier Peralta (La Penca)", "lat": 19.70147, "lng": -103.789911
},{
"label": "El Tezontel", "lat": 19.732679, "lng": -103.779226
},{
"label": "El Carrizal", "lat": 19.803548, "lng": -103.747286
},{
"label": "Crucero del Aguaje", "lat": 19.791667, "lng": -103.699906
},{
"label": "Hacienda Vieja", "lat": 19.771184, "lng": -103.785777
},{
"label": "Las Juntas", "lat": 19.739614, "lng": -103.784429
},{
"label": "La Media Luna", "lat": 19.72253, "lng": -103.618156
},{
"label": "El Caracol", "lat": 19.763545, "lng": -103.719435
},{
"label": "Rancho Blanco", "lat": 19.710184, "lng": -103.759301
},{
"label": "Jahuiques", "lat": 19.690899, "lng": -103.741675
},{
"label": "Jiquilpan", "lat": 19.779926, "lng": -103.777489
},{
"label": "La Planta de Luz", "lat": 19.747222, "lng": -103.700556
},{
"label": "Los Laureles", "lat": 19.705454, "lng": -103.810613
},{
"label": "El Molino", "lat": 19.745238, "lng": -103.694081
},{
"label": "El Manzano", "lat": 19.707659, "lng": -103.795812
},{
"label": "La Higuerilla", "lat": 19.671212, "lng": -103.778147
},{
"label": "Rancho el Torito", "lat": 19.795295, "lng": -103.702181
},{
"label": "El Tule", "lat": 19.725985, "lng": -103.813818
},{
"label": "Finca Susana del Carmen", "lat": 19.805129, "lng": -103.686448
},{
"label": "Los Camichines", "lat": 19.675447, "lng": -103.773312
},{
"label": "Totolimixpa", "lat": 19.695259, "lng": -103.817544
},{
"label": "El Rodeo", "lat": 19.665361, "lng": -103.749484
},{
"label": "Camichines", "lat": 19.761171, "lng": -103.763779
},{
"label": "Los Ranchitos", "lat": 19.724969, "lng": -103.856539
},{
"label": "Los Mogotes", "lat": 19.720584, "lng": -103.752109
},{
"label": "San Gabriel", "lat": 19.7475, "lng": -103.765278
},{
"label": "La Puerta", "lat": 19.695253, "lng": -103.789366
},{
"label": "El Desmonte de Pizano", "lat": 19.615278, "lng": -103.672778
},{
"label": "La Loma", "lat": 19.665884, "lng": -103.731247
},{
"label": "Apango", "lat": 19.78027, "lng": -103.707863
},{
"label": "Los Fresnos", "lat": 19.726803, "lng": -103.722297
},{
"label": "El Jazmín", "lat": 19.652946, "lng": -103.70922
},{
"label": "Los Llanetes", "lat": 19.789132, "lng": -103.736197
},{
"label": "El Platanito", "lat": 19.660798, "lng": -103.765195
},{
"label": "La Esperanza", "lat": 19.803064, "lng": -103.808048
},{
"label": "Rancho de Salvador Chávez", "lat": 19.693894, "lng": -103.82261
},{
"label": "Alista", "lat": 19.634209, "lng": -103.788907
},{
"label": "La Erita", "lat": 19.650246, "lng": -103.74369
},{
"label": "El Coyote", "lat": 19.690167, "lng": -103.796263
},{
"label": "Puerta Alta", "lat": 19.654048, "lng": -103.731223
},{
"label": "La Cañada", "lat": 19.80866, "lng": -103.689863
},{
"label": "Puerto el Floripondio", "lat": 19.645003, "lng": -103.620587
},{
"label": "Los García", "lat": 19.63968, "lng": -103.667722
},{
"label": "Potrero de San Isidro", "lat": 19.620901, "lng": -103.784945
},{
"label": "La Virgen", "lat": 19.725359, "lng": -103.775136
},{
"label": "El Jilote", "lat": 19.77276, "lng": -103.931185
},{
"label": "Loma de Tacamo", "lat": 19.642111, "lng": -103.788712
},{
"label": "El Chubasco", "lat": 19.731396, "lng": -103.780012
},{
"label": "Rancho el Paraíso", "lat": 19.717778, "lng": -103.797222
},{
"label": "El Sinaí", "lat": 19.729649, "lng": -103.778571
},{
"label": "Los Cajones", "lat": 19.793252, "lng": -103.698928
},{
"label": "La Capilla", "lat": 19.735318, "lng": -103.785661
}]