[{
"label": "El Hueso", "lat": 19.585745, "lng": -102.856357
},{
"label": "La Chimenea", "lat": 19.487465, "lng": -102.635557
},{
"label": "El Nogalito", "lat": 19.552177, "lng": -102.962985
},{
"label": "Barranca de Aguacate", "lat": 19.621737, "lng": -102.794119
},{
"label": "La Limonera", "lat": 19.547221, "lng": -102.924498
},{
"label": "El Sauz", "lat": 19.496479, "lng": -102.98719
},{
"label": "La Rodada (El Tapón)", "lat": 19.562292, "lng": -102.859679
},{
"label": "La Tortuga", "lat": 19.541667, "lng": -102.740278
},{
"label": "El Guinaral (El Tacotito)", "lat": 19.53594, "lng": -102.861304
},{
"label": "El Tocuro", "lat": 19.539876, "lng": -102.899859
},{
"label": "El Manchado", "lat": 19.554277, "lng": -102.820748
},{
"label": "Arroyo Seco", "lat": 19.473121, "lng": -102.971838
},{
"label": "El Tucusal (El Marcelo)", "lat": 19.511566, "lng": -102.757923
},{
"label": "El Changungo", "lat": 19.569198, "lng": -102.73421
},{
"label": "Los Hornos", "lat": 19.514924, "lng": -102.953126
},{
"label": "Los Pocitos", "lat": 19.576898, "lng": -102.814747
},{
"label": "Güilumba", "lat": 19.485187, "lng": -102.815112
},{
"label": "La Cueva", "lat": 19.544282, "lng": -102.921796
},{
"label": "Las Playas", "lat": 19.561875, "lng": -102.91426
},{
"label": "Los Mezcalitos", "lat": 19.585626, "lng": -102.74702
},{
"label": "La Plaza", "lat": 19.613803, "lng": -102.957656
},{
"label": "Plaza de Chávez", "lat": 19.63697, "lng": -102.782721
},{
"label": "Mesa del Águila", "lat": 19.5875, "lng": -102.801944
},{
"label": "Los Hornitos de Arriba", "lat": 19.456766, "lng": -102.832118
},{
"label": "El Guamúchil", "lat": 19.643003, "lng": -102.822286
},{
"label": "Los Aguacates", "lat": 19.57606, "lng": -102.846203
},{
"label": "El Ticuiz", "lat": 19.617869, "lng": -102.765609
},{
"label": "La Escondida", "lat": 19.478761, "lng": -102.750244
},{
"label": "Puerto del Arado", "lat": 19.479121, "lng": -102.883397
},{
"label": "Agua de Enmedio", "lat": 19.507669, "lng": -102.779333
},{
"label": "Paso del Ganado", "lat": 19.610278, "lng": -102.964661
},{
"label": "El Huaco", "lat": 19.579171, "lng": -102.740343
},{
"label": "El Pitahayo", "lat": 19.494007, "lng": -102.88379
},{
"label": "Petacala", "lat": 19.494444, "lng": -102.612222
},{
"label": "Santa Rosa", "lat": 19.510893, "lng": -102.691065
},{
"label": "La Aurora (El Reparo)", "lat": 19.496248, "lng": -102.904657
},{
"label": "Piedra Blanca", "lat": 19.504626, "lng": -102.912217
},{
"label": "Las Higueras", "lat": 19.493928, "lng": -102.727772
},{
"label": "El Cirián (Mata de Carrizo)", "lat": 19.525818, "lng": -102.580797
},{
"label": "Las Naranjas", "lat": 19.580119, "lng": -102.895356
},{
"label": "Los Pelillos", "lat": 19.500208, "lng": -102.778699
},{
"label": "Barranca Puerto de la Cruz", "lat": 19.482352, "lng": -102.962793
},{
"label": "Santa María del Oro", "lat": 19.5875, "lng": -102.908333
},{
"label": "La Mesa del Valle", "lat": 19.597162, "lng": -102.937068
},{
"label": "El Nogal", "lat": 19.521191, "lng": -102.990594
},{
"label": "La Mancha", "lat": 19.503, "lng": -102.964661
},{
"label": "Los Pintos", "lat": 19.497425, "lng": -102.96912
},{
"label": "Villa Morelos (El Carrizo)", "lat": 19.464953, "lng": -102.64784
},{
"label": "La Tigra", "lat": 19.553644, "lng": -102.950867
},{
"label": "Los Hornitos de Abajo", "lat": 19.461985, "lng": -102.832144
},{
"label": "El Vallecillo", "lat": 19.504859, "lng": -102.749927
},{
"label": "Los Llanos", "lat": 19.466408, "lng": -102.742358
},{
"label": "La Güera", "lat": 19.502912, "lng": -102.910726
},{
"label": "La Pareja", "lat": 19.547352, "lng": -103.004551
},{
"label": "Tepehuajes", "lat": 19.399754, "lng": -102.845444
},{
"label": "Los Plátanos", "lat": 19.496169, "lng": -102.595241
},{
"label": "La Casa de Teja", "lat": 19.602671, "lng": -102.905488
},{
"label": "Las Paredes", "lat": 19.539217, "lng": -102.860627
},{
"label": "La Cieneguita", "lat": 19.457259, "lng": -102.669387
},{
"label": "El Maculis", "lat": 19.488325, "lng": -102.877339
},{
"label": "Las Ollas", "lat": 19.583293, "lng": -102.955888
},{
"label": "El Guayabo", "lat": 19.542922, "lng": -102.880011
},{
"label": "El Sabino", "lat": 19.594333, "lng": -102.826425
},{
"label": "Milpillas", "lat": 19.527146, "lng": -103.014421
},{
"label": "La Breña", "lat": 19.598729, "lng": -102.799073
},{
"label": "Los Panales", "lat": 19.477149, "lng": -102.627033
},{
"label": "Catambo", "lat": 19.601313, "lng": -102.886328
},{
"label": "Mesa el Ocote", "lat": 19.548321, "lng": -102.97752
},{
"label": "Playa Bonita", "lat": 19.618909, "lng": -102.824794
},{
"label": "El Caballito", "lat": 19.498056, "lng": -102.837222
},{
"label": "El Limón", "lat": 19.637566, "lng": -102.803588
},{
"label": "Las Pilas", "lat": 19.588055, "lng": -102.760047
},{
"label": "Los Hoyos", "lat": 19.576162, "lng": -102.907956
},{
"label": "Mata de Huaje", "lat": 19.557894, "lng": -102.843132
},{
"label": "El Tejamanil", "lat": 19.594566, "lng": -102.927787
},{
"label": "Abasolo (La Otra Casa)", "lat": 19.473889, "lng": -102.823333
},{
"label": "Los Charcos", "lat": 19.448667, "lng": -102.821189
},{
"label": "Los Arreguines (Tío Arreguín)", "lat": 19.578581, "lng": -102.90978
},{
"label": "El Tecolote", "lat": 19.517919, "lng": -102.738805
},{
"label": "Mesa de Mendoza", "lat": 19.594419, "lng": -102.748516
},{
"label": "Las Caramicuas", "lat": 19.523422, "lng": -102.931358
},{
"label": "El Cobano", "lat": 19.491123, "lng": -102.84367
},{
"label": "Chorrera", "lat": 19.547469, "lng": -102.90359
},{
"label": "Los Edificios", "lat": 19.591727, "lng": -102.980851
},{
"label": "Barranca Verde", "lat": 19.568882, "lng": -102.862008
},{
"label": "Cataquío", "lat": 19.538566, "lng": -102.775625
},{
"label": "El Guásimal", "lat": 19.602342, "lng": -102.870433
},{
"label": "La Víbora", "lat": 19.527148, "lng": -102.784596
},{
"label": "La Canela", "lat": 19.506206, "lng": -102.863026
},{
"label": "Piedra Ancha", "lat": 19.632894, "lng": -102.923089
},{
"label": "La Cuartilla", "lat": 19.479833, "lng": -102.888665
},{
"label": "La Confitera", "lat": 19.479999, "lng": -102.800376
},{
"label": "Puerto de la Olla", "lat": 19.453063, "lng": -102.821276
},{
"label": "El Calóndrigo", "lat": 19.604643, "lng": -102.851586
},{
"label": "Puerto la Encinera", "lat": 19.494901, "lng": -102.896621
},{
"label": "El Cirián", "lat": 19.524424, "lng": -102.583102
},{
"label": "Chiquiadora", "lat": 19.569784, "lng": -102.725456
},{
"label": "Mezcalillo", "lat": 19.546286, "lng": -102.99743
},{
"label": "El Volcancillo", "lat": 19.557486, "lng": -102.745424
},{
"label": "Los Planes", "lat": 19.591803, "lng": -102.850029
},{
"label": "La Jabalina", "lat": 19.554222, "lng": -102.918253
},{
"label": "Las Trojitas", "lat": 19.609778, "lng": -102.95606
},{
"label": "La Mesa de San Juan", "lat": 19.407636, "lng": -102.772191
},{
"label": "El Tigre", "lat": 19.589999, "lng": -102.940615
},{
"label": "El Hervidero", "lat": 19.527621, "lng": -102.953152
},{
"label": "La Troja (Dislabón)", "lat": 19.61105, "lng": -102.805158
},{
"label": "Las Parotas", "lat": 19.463698, "lng": -102.822314
},{
"label": "Las Culebrillas", "lat": 19.602747, "lng": -102.912156
},{
"label": "Encino Colorado", "lat": 19.601929, "lng": -102.977821
},{
"label": "La Troja", "lat": 19.651419, "lng": -102.784609
},{
"label": "Ceperán", "lat": 19.551756, "lng": -102.774755
},{
"label": "La Otatera", "lat": 19.57613, "lng": -102.723714
},{
"label": "Pino", "lat": 19.554687, "lng": -102.837701
},{
"label": "La Ciénega", "lat": 19.501026, "lng": -102.589409
},{
"label": "Tepehuaje Ancho", "lat": 19.527726, "lng": -102.845111
},{
"label": "El Tepeguaje", "lat": 19.601222, "lng": -102.946294
},{
"label": "La Catalinera", "lat": 19.533289, "lng": -102.837428
},{
"label": "La Rodillera", "lat": 19.483212, "lng": -102.836198
},{
"label": "Puerto de la Cruz (Los Platanitos)", "lat": 19.49904, "lng": -102.971531
},{
"label": "La Majada", "lat": 19.500668, "lng": -102.591449
},{
"label": "La Lagunita (Valle Alto)", "lat": 19.530743, "lng": -102.830115
},{
"label": "San Pablo", "lat": 19.502399, "lng": -102.923458
},{
"label": "Pueblo Viejo", "lat": 19.59932, "lng": -102.760295
},{
"label": "El Mojalito", "lat": 19.520828, "lng": -102.898702
},{
"label": "Las Peñas", "lat": 19.568844, "lng": -102.922068
},{
"label": "Potrerillo", "lat": 19.553795, "lng": -102.890042
},{
"label": "Las Juntas", "lat": 19.614768, "lng": -102.805706
},{
"label": "El Granadillo", "lat": 19.5134, "lng": -102.911586
},{
"label": "Los Rosillos", "lat": 19.598891, "lng": -102.965619
},{
"label": "La Jarana", "lat": 19.593218, "lng": -102.908276
},{
"label": "Valle Alto", "lat": 19.518854, "lng": -102.825333
},{
"label": "Los Tepetates", "lat": 19.481182, "lng": -102.926379
},{
"label": "Las Minas", "lat": 19.557197, "lng": -102.87296
},{
"label": "El Ciruelo", "lat": 19.46096, "lng": -102.940498
},{
"label": "El Mango", "lat": 19.476079, "lng": -102.895866
},{
"label": "La Hoya", "lat": 19.611755, "lng": -102.900837
},{
"label": "Las Parotillas", "lat": 19.467758, "lng": -102.740606
},{
"label": "La Loma", "lat": 19.520954, "lng": -102.838951
},{
"label": "El Salitrillo", "lat": 19.531525, "lng": -102.977732
},{
"label": "El Terrero", "lat": 19.607414, "lng": -102.806516
},{
"label": "Garibay (El Garibay)", "lat": 19.503746, "lng": -102.937596
},{
"label": "Zipoco", "lat": 19.460657, "lng": -102.706359
},{
"label": "El Jazmín", "lat": 19.466762, "lng": -102.909474
},{
"label": "Las Barrosas", "lat": 19.562076, "lng": -102.894971
},{
"label": "Los Vallecitos", "lat": 19.604551, "lng": -102.851598
},{
"label": "El Molinito", "lat": 19.553427, "lng": -102.901923
},{
"label": "Agua Caliente", "lat": 19.523104, "lng": -102.807623
},{
"label": "Tirador (El Tirador)", "lat": 19.581483, "lng": -102.885927
},{
"label": "Las Taunas", "lat": 19.553506, "lng": -102.925366
},{
"label": "La Soledad", "lat": 19.607369, "lng": -102.785704
},{
"label": "Agua del Pinto", "lat": 19.492929, "lng": -102.798743
},{
"label": "Mesa de González", "lat": 19.572641, "lng": -102.795125
},{
"label": "Maíz Cimarrón", "lat": 19.465283, "lng": -102.956064
}]