[{
"label": "Loma de San Simón", "lat": 19.591267, "lng": -103.793592
},{
"label": "La Laguna", "lat": 19.542845, "lng": -103.97871
},{
"label": "Los Picachos", "lat": 19.474162, "lng": -103.917422
},{
"label": "El Huisichi", "lat": 19.580621, "lng": -103.78542
},{
"label": "Anselmo Mendoza", "lat": 19.593114, "lng": -103.976467
},{
"label": "La Guamuchilera (La Parota)", "lat": 19.59908, "lng": -103.955456
},{
"label": "Llano Verde", "lat": 19.533527, "lng": -103.969477
},{
"label": "La Joya (Crucero al Platanar)", "lat": 19.640596, "lng": -103.905585
},{
"label": "Llano de Toxín", "lat": 19.501008, "lng": -104.021751
},{
"label": "Casa de Alfredo", "lat": 19.605065, "lng": -103.915618
},{
"label": "El Gavilán", "lat": 19.569689, "lng": -103.762719
},{
"label": "Loma del Camichín", "lat": 19.505094, "lng": -103.882045
},{
"label": "Nuevo Zopoma (El Bolitar)", "lat": 19.582778, "lng": -103.769722
},{
"label": "Los Zapotes", "lat": 19.492588, "lng": -104.000667
},{
"label": "La Playita", "lat": 19.488244, "lng": -103.865803
},{
"label": "Tolimán", "lat": 19.6, "lng": -103.914444
},{
"label": "Las Canoas", "lat": 19.543741, "lng": -103.89742
},{
"label": "Cuauhtémoc", "lat": 19.633254, "lng": -103.927211
},{
"label": "Rigoberto Gutiérrez", "lat": 19.593673, "lng": -103.971028
},{
"label": "La Parota", "lat": 19.604166, "lng": -103.811255
},{
"label": "El Llanito", "lat": 19.614196, "lng": -103.923781
},{
"label": "Teutlán", "lat": 19.576021, "lng": -103.912615
},{
"label": "El Puerto de Toxín", "lat": 19.525421, "lng": -104.00945
},{
"label": "La Caballada", "lat": 19.552256, "lng": -103.902309
},{
"label": "El Llanete", "lat": 19.637953, "lng": -103.870753
},{
"label": "Los Aguacates", "lat": 19.500102, "lng": -104.026802
},{
"label": "Las Trojes", "lat": 19.57995, "lng": -103.805003
},{
"label": "El Organito", "lat": 19.649306, "lng": -103.852708
},{
"label": "Loma de Pombe", "lat": 19.566638, "lng": -103.82333
},{
"label": "Rancho de Alfredo", "lat": 19.602321, "lng": -103.921611
},{
"label": "José Espinoza", "lat": 19.594066, "lng": -103.979748
},{
"label": "Loma el Ocote", "lat": 19.462098, "lng": -103.883774
},{
"label": "Coastecomate", "lat": 19.655828, "lng": -103.910743
},{
"label": "Los Cerritos", "lat": 19.544556, "lng": -103.868841
},{
"label": "El Paso Real", "lat": 19.60466, "lng": -103.960649
},{
"label": "Las Tunas", "lat": 19.563822, "lng": -103.890501
},{
"label": "Santa Rosa", "lat": 19.623151, "lng": -103.938089
},{
"label": "La Agüita", "lat": 19.607999, "lng": -103.961793
},{
"label": "Las Torrecillas", "lat": 19.498149, "lng": -104.004671
},{
"label": "El Plan", "lat": 19.599644, "lng": -103.865615
},{
"label": "Los Encinitos", "lat": 19.483968, "lng": -103.993526
},{
"label": "Piedra Blanca", "lat": 19.605892, "lng": -103.918627
},{
"label": "El Mezquital", "lat": 19.583395, "lng": -103.941876
},{
"label": "Ojo de Mar", "lat": 19.495279, "lng": -104.030156
},{
"label": "El Bolitar (Zopoma)", "lat": 19.577056, "lng": -103.768274
},{
"label": "Toxín", "lat": 19.491618, "lng": -104.01323
},{
"label": "Puerta del Petacal (El Petacal)", "lat": 19.614322, "lng": -103.857008
},{
"label": "Cerro de Villa", "lat": 19.483177, "lng": -103.851041
},{
"label": "Pueblo Viejo", "lat": 19.572421, "lng": -103.914298
},{
"label": "Cinacar", "lat": 19.589444, "lng": -104.018653
},{
"label": "Los Jagüeyes (Los Tres Potrillos)", "lat": 19.602632, "lng": -103.889452
},{
"label": "El Pochote", "lat": 19.607644, "lng": -103.932834
},{
"label": "La Loma de la Parota", "lat": 19.604397, "lng": -103.787924
},{
"label": "La Parota (Loma de San Antonio)", "lat": 19.559671, "lng": -103.890749
},{
"label": "La Garita", "lat": 19.516036, "lng": -104.010486
},{
"label": "Chaperico", "lat": 19.572735, "lng": -103.801349
},{
"label": "La Lima", "lat": 19.519843, "lng": -104.062564
},{
"label": "Cerrito Colorado", "lat": 19.619608, "lng": -103.921044
},{
"label": "El Rodeo", "lat": 19.54878, "lng": -104.05393
},{
"label": "El Llanetito", "lat": 19.638518, "lng": -103.877311
},{
"label": "Cópala", "lat": 19.610556, "lng": -103.766944
},{
"label": "Ninguno [Bodega de Chileros]", "lat": 19.603005, "lng": -103.918339
},{
"label": "El Pandito", "lat": 19.637058, "lng": -103.933493
},{
"label": "El Zalatillo", "lat": 19.585883, "lng": -103.780759
},{
"label": "La Loma", "lat": 19.612565, "lng": -103.963899
},{
"label": "Las Paredes", "lat": 19.501484, "lng": -103.854191
},{
"label": "La Huaracha (La Trinidad)", "lat": 19.653292, "lng": -103.870166
},{
"label": "San Pedro Toxín", "lat": 19.589299, "lng": -103.967978
},{
"label": "Rancho Zapopan", "lat": 19.638681, "lng": -103.90625
},{
"label": "Huisichi", "lat": 19.565409, "lng": -103.866837
},{
"label": "Santa Elena (Santa Elena de la Cruz)", "lat": 19.550249, "lng": -103.871493
},{
"label": "Rancho de Anselmo Rosales", "lat": 19.612161, "lng": -103.825643
},{
"label": "La Rajadura", "lat": 19.617616, "lng": -103.972022
},{
"label": "Loma Delgada", "lat": 19.614259, "lng": -103.765133
},{
"label": "Santa Anita", "lat": 19.615573, "lng": -103.790105
},{
"label": "La Primera Agua", "lat": 19.566639, "lng": -104.040623
},{
"label": "Monte Grande", "lat": 19.530468, "lng": -103.894224
}]