[{
"label": "Playas de Soyatlán", "lat": 20.208586, "lng": -103.323332
},{
"label": "La Palma", "lat": 20.21038, "lng": -103.332168
},{
"label": "El Tepeguaje", "lat": 20.171157, "lng": -103.213209
},{
"label": "El Lindero", "lat": 20.214441, "lng": -103.342428
},{
"label": "La Becerrera", "lat": 20.063204, "lng": -103.171888
},{
"label": "La Guásima", "lat": 20.195529, "lng": -103.289494
},{
"label": "El Ayoyote (Lo de Vaca)", "lat": 20.15, "lng": -103.187222
},{
"label": "Puerto Corona", "lat": 20.19475, "lng": -103.278106
},{
"label": "Rancho el Bajío", "lat": 20.144279, "lng": -103.175805
},{
"label": "Puruagua de Ramón Corona", "lat": 20.151796, "lng": -103.157227
},{
"label": "Los Compadres", "lat": 20.21827, "lng": -103.357913
},{
"label": "Puerta de San Nicolás", "lat": 20.181773, "lng": -103.240106
},{
"label": "San Luis Soyatlán", "lat": 20.195, "lng": -103.302222
},{
"label": "El Gavilán", "lat": 20.065619, "lng": -103.176751
},{
"label": "Rancho Alegre (San Pedro)", "lat": 20.088369, "lng": -103.167178
},{
"label": "El Saucito", "lat": 20.059773, "lng": -103.183478
},{
"label": "La Nopalera (Rancho el Mirador)", "lat": 20.155494, "lng": -103.193282
},{
"label": "La Rusia", "lat": 20.108056, "lng": -103.170556
},{
"label": "Potrero Nuevo", "lat": 20.101659, "lng": -103.194993
},{
"label": "El Puente Colorado (El Puente)", "lat": 20.218094, "lng": -103.36658
},{
"label": "San Pedro (Rancho San José Joaquín)", "lat": 20.147778, "lng": -103.165556
},{
"label": "La Tachica", "lat": 20.155416, "lng": -103.249901
},{
"label": "Las Cebollas", "lat": 20.094942, "lng": -103.175505
},{
"label": "La Morusa", "lat": 20.168563, "lng": -103.195048
},{
"label": "La Aguacatita", "lat": 20.188333, "lng": -103.32
},{
"label": "San Antonio", "lat": 20.161613, "lng": -103.192575
},{
"label": "El Ahijadero", "lat": 20.082964, "lng": -103.179012
},{
"label": "La Bolsa", "lat": 20.123573, "lng": -103.155404
},{
"label": "La Lagunilla", "lat": 20.053998, "lng": -103.181521
},{
"label": "El Ocote", "lat": 20.120278, "lng": -103.168056
},{
"label": "El Melón", "lat": 20.19416, "lng": -103.263424
},{
"label": "Tuxcueca", "lat": 20.155556, "lng": -103.183889
},{
"label": "La Cofradía", "lat": 20.146401, "lng": -103.171256
},{
"label": "San Nicolás de Acuña (San Nicolás)", "lat": 20.18786, "lng": -103.251764
},{
"label": "Rancho la Virgen (Los Fresnos)", "lat": 20.195238, "lng": -103.273358
},{
"label": "Loma Bonita", "lat": 20.145278, "lng": -103.179444
},{
"label": "La Piedra", "lat": 20.136406, "lng": -103.177451
},{
"label": "Rincón de los Fresnos", "lat": 20.195788, "lng": -103.267082
},{
"label": "Michelson", "lat": 20.210278, "lng": -103.331111
},{
"label": "Potrero Grande (La Guajillera)", "lat": 20.138616, "lng": -103.189311
},{
"label": "El Centenario", "lat": 20.187028, "lng": -103.292266
},{
"label": "Rancho Nuevo", "lat": 20.145446, "lng": -103.176099
},{
"label": "Santa Elena", "lat": 20.206136, "lng": -103.318849
},{
"label": "Los Llanitos", "lat": 20.155063, "lng": -103.237377
}]