[{
"label": "El Lobo (El Lobo de Primavera)", "lat": 21.173702, "lng": -101.793727
},{
"label": "San José de Corralitos (El Zapote)", "lat": 21.052721, "lng": -102.080723
},{
"label": "Altamira", "lat": 21.1368, "lng": -102.039056
},{
"label": "El Cedro", "lat": 21.163714, "lng": -101.966786
},{
"label": "El Salto", "lat": 21.119358, "lng": -102.141833
},{
"label": "El Valladito", "lat": 21.167803, "lng": -101.945034
},{
"label": "Rancho el Pensamiento", "lat": 21.145148, "lng": -101.936672
},{
"label": "La Rosa de Castilla (Ejido Jaramillo de Abajo)", "lat": 21.207332, "lng": -101.780198
},{
"label": "La Loma Alta (Estación Loma Alta)", "lat": 21.245488, "lng": -101.910751
},{
"label": "El Sencillo", "lat": 21.177047, "lng": -101.990521
},{
"label": "Santa Martha", "lat": 21.075682, "lng": -102.006973
},{
"label": "Fracción de San Javier", "lat": 21.154961, "lng": -102.022472
},{
"label": "Las Vueltas", "lat": 21.122953, "lng": -101.869968
},{
"label": "La Sauceda Grande", "lat": 21.187785, "lng": -102.119809
},{
"label": "San Fermín", "lat": 21.12047, "lng": -101.949984
},{
"label": "La Noria (Las Norias de las Vueltas)", "lat": 21.110618, "lng": -101.836354
},{
"label": "Chamacuero", "lat": 21.215833, "lng": -101.975
},{
"label": "La Fortuna", "lat": 21.251111, "lng": -101.900833
},{
"label": "Lomas de Santa Gertrudis", "lat": 21.160576, "lng": -101.868594
},{
"label": "Rancho Nuevo (El Carmen)", "lat": 21.043334, "lng": -102.066474
},{
"label": "Presa San Ángel", "lat": 21.190261, "lng": -101.872643
},{
"label": "Tuna Alta", "lat": 21.170898, "lng": -101.990444
},{
"label": "El Tanque del Muerto", "lat": 21.170508, "lng": -101.997348
},{
"label": "La Haciendita", "lat": 21.205386, "lng": -102.092083
},{
"label": "La Florida", "lat": 21.177403, "lng": -102.010839
},{
"label": "Halconeros", "lat": 21.151551, "lng": -102.022143
},{
"label": "Mesillas de Abajo", "lat": 21.07274, "lng": -101.970615
},{
"label": "Arroyo del Palo", "lat": 21.260994, "lng": -102.114275
},{
"label": "El Reboso", "lat": 21.268692, "lng": -102.125356
},{
"label": "La Barranca", "lat": 21.238914, "lng": -102.124591
},{
"label": "El Espiguero", "lat": 21.143223, "lng": -102.011301
},{
"label": "La Linasa", "lat": 21.203028, "lng": -102.096111
},{
"label": "Ejido las Palmas", "lat": 21.119222, "lng": -101.842385
},{
"label": "El Conejo (Los Conejos)", "lat": 21.080996, "lng": -102.007505
},{
"label": "Loma del Aire (Lomita del Aire)", "lat": 21.156128, "lng": -101.908763
},{
"label": "La Tenería", "lat": 21.158011, "lng": -102.098364
},{
"label": "San Ignacio", "lat": 21.18086, "lng": -102.032691
},{
"label": "Rancho el Tío", "lat": 21.147726, "lng": -102.01642
},{
"label": "Santa Anita", "lat": 21.107702, "lng": -102.078319
},{
"label": "Churica [Granja]", "lat": 21.221744, "lng": -101.883941
},{
"label": "Los Charcos", "lat": 21.054204, "lng": -101.918462
},{
"label": "El Hormiguero", "lat": 21.127575, "lng": -102.102492
},{
"label": "Arroyo Azul", "lat": 21.077049, "lng": -101.957571
},{
"label": "El Zapote (El Tecolote)", "lat": 21.223008, "lng": -101.927446
},{
"label": "Cañada de Mena", "lat": 21.185144, "lng": -101.893256
},{
"label": "San Cayetano", "lat": 21.056522, "lng": -102.016389
},{
"label": "Lomas de la Presa", "lat": 21.062222, "lng": -101.885556
},{
"label": "La Tapona", "lat": 21.214554, "lng": -101.916625
},{
"label": "El Capulín", "lat": 21.146576, "lng": -102.079874
},{
"label": "La Placita", "lat": 21.162965, "lng": -102.101583
},{
"label": "La Puerta de San José (La Mesita)", "lat": 21.167803, "lng": -102.070804
},{
"label": "La Cuchilla", "lat": 21.251719, "lng": -102.005068
},{
"label": "Nopal Alto", "lat": 21.104249, "lng": -101.935978
},{
"label": "Granja Marce", "lat": 21.206706, "lng": -101.873899
},{
"label": "El Soplido (La Laguna)", "lat": 21.158136, "lng": -101.980061
},{
"label": "El Mezquital", "lat": 21.176804, "lng": -102.121499
},{
"label": "El Romeral", "lat": 21.090226, "lng": -102.001067
},{
"label": "La Bajada del Gato", "lat": 21.128355, "lng": -102.037166
},{
"label": "El Rescoldo", "lat": 21.23979, "lng": -102.117611
},{
"label": "Las Agrillas", "lat": 21.232252, "lng": -101.960133
},{
"label": "San Bartolo de González (San Bartolo)", "lat": 21.10481, "lng": -101.898015
},{
"label": "Las Palomas", "lat": 21.110821, "lng": -102.013235
},{
"label": "San Antonio de la Garza", "lat": 21.195188, "lng": -102.093291
},{
"label": "Acosta [Granja]", "lat": 21.228306, "lng": -101.884924
},{
"label": "La Mesa Larga", "lat": 21.251944, "lng": -101.976389
},{
"label": "Las Agujas", "lat": 21.14025, "lng": -101.832067
},{
"label": "San José del Caliche (El Caliche)", "lat": 21.126679, "lng": -101.930356
},{
"label": "Casas Blancas", "lat": 21.198889, "lng": -101.9025
},{
"label": "La Torre", "lat": 21.270556, "lng": -101.976944
},{
"label": "San Ángel", "lat": 21.256111, "lng": -101.948056
},{
"label": "Pedregal de San Antonio", "lat": 21.195826, "lng": -101.788184
},{
"label": "Santo Domingo", "lat": 21.183791, "lng": -102.149612
},{
"label": "Tampico", "lat": 21.129958, "lng": -102.052584
},{
"label": "Salto Zurita", "lat": 21.219592, "lng": -102.036333
},{
"label": "Las Palomas (El Palomar)", "lat": 21.138241, "lng": -101.934877
},{
"label": "Cantarranas", "lat": 21.176894, "lng": -102.148923
},{
"label": "La Concha", "lat": 21.263994, "lng": -101.964835
},{
"label": "Granja Meche", "lat": 21.219448, "lng": -101.878356
},{
"label": "San Francisco", "lat": 21.122711, "lng": -102.053235
},{
"label": "San Jerónimo (Las Aburradas)", "lat": 21.095603, "lng": -101.941611
},{
"label": "La Mora (Moras)", "lat": 21.21815, "lng": -102.075488
},{
"label": "La Soledad", "lat": 21.156761, "lng": -101.952146
},{
"label": "Encinillas", "lat": 21.24725, "lng": -102.115444
},{
"label": "Potrero Grande", "lat": 21.152525, "lng": -102.045258
},{
"label": "El Salto de San Antonio", "lat": 21.178586, "lng": -101.824058
},{
"label": "Puerta de San Bartolo", "lat": 21.085833, "lng": -101.918939
},{
"label": "El Llano (El Llano de García)", "lat": 21.126049, "lng": -102.128893
},{
"label": "Jagüey", "lat": 21.108226, "lng": -102.023583
},{
"label": "El Muerto", "lat": 21.171827, "lng": -101.939047
},{
"label": "San José el Alto", "lat": 21.263286, "lng": -102.122708
},{
"label": "El Ranchito (El Refugio)", "lat": 21.205398, "lng": -102.075437
},{
"label": "Las Moras", "lat": 21.07022, "lng": -102.05985
},{
"label": "San Isidro", "lat": 21.08005, "lng": -102.088505
},{
"label": "La Joya", "lat": 21.186384, "lng": -102.067481
},{
"label": "Ejido las Agujas (El Maguey)", "lat": 21.131914, "lng": -101.838824
},{
"label": "San José de Gordoa", "lat": 21.223758, "lng": -101.953833
},{
"label": "Santa Teresa", "lat": 21.199551, "lng": -101.939702
},{
"label": "El Jaralito", "lat": 21.092229, "lng": -102.007571
},{
"label": "El Potrero (El Potrerito)", "lat": 21.197232, "lng": -101.971724
},{
"label": "Los Patos", "lat": 21.147325, "lng": -101.900374
},{
"label": "Las Peñitas", "lat": 21.175206, "lng": -101.952586
},{
"label": "Los Cuartos (Los Cuartos de Primavera)", "lat": 21.184704, "lng": -101.810807
},{
"label": "El Cerrito", "lat": 21.107808, "lng": -102.147222
},{
"label": "Los Chicharos", "lat": 21.120652, "lng": -102.01314
},{
"label": "Granja Gaby", "lat": 21.210006, "lng": -101.882605
},{
"label": "Negritas", "lat": 21.074011, "lng": -101.998814
},{
"label": "La Sandía", "lat": 21.094557, "lng": -102.016502
},{
"label": "El Montoro", "lat": 21.191386, "lng": -101.973969
},{
"label": "Cañada de Barajas", "lat": 21.120916, "lng": -101.861095
},{
"label": "Jacona", "lat": 21.111605, "lng": -102.100907
},{
"label": "El Vallado", "lat": 21.052556, "lng": -102.02962
},{
"label": "Llanos de Basilio", "lat": 21.188987, "lng": -101.982782
},{
"label": "Rancho la Esperanza", "lat": 21.19143, "lng": -102.084505
},{
"label": "Adi [Granja]", "lat": 21.211545, "lng": -101.873403
},{
"label": "La Cabaña", "lat": 21.189414, "lng": -102.099239
},{
"label": "El Banco", "lat": 21.134146, "lng": -101.922915
},{
"label": "Santa Rosa", "lat": 21.240808, "lng": -101.919016
},{
"label": "Los Jacales", "lat": 21.171046, "lng": -102.115805
},{
"label": "San Ramón", "lat": 21.046998, "lng": -101.99848
},{
"label": "El Pastor", "lat": 21.211922, "lng": -101.935871
},{
"label": "Hacienda la Concepción", "lat": 21.095115, "lng": -101.877163
},{
"label": "Piedras Negras", "lat": 21.178411, "lng": -102.168861
},{
"label": "Vizcaíno", "lat": 21.182614, "lng": -101.964562
},{
"label": "Mesa del Rodeo (La Borrasca)", "lat": 21.159232, "lng": -102.150561
},{
"label": "Santa Rita", "lat": 21.158207, "lng": -101.918328
},{
"label": "Las Tapias", "lat": 21.219496, "lng": -102.133584
},{
"label": "Camino a Charcas", "lat": 21.065103, "lng": -101.899228
},{
"label": "El Ranchito", "lat": 21.119334, "lng": -101.995742
},{
"label": "Corral Blanco", "lat": 21.188416, "lng": -101.918426
},{
"label": "El Jaral", "lat": 21.174474, "lng": -101.97118
},{
"label": "La Palma (La Palma Grande)", "lat": 21.202162, "lng": -101.990891
},{
"label": "Predio la Luz (La Ladera)", "lat": 21.200705, "lng": -102.074924
},{
"label": "La Cumbre", "lat": 21.155443, "lng": -102.139396
},{
"label": "La Bóveda", "lat": 21.208779, "lng": -101.982393
},{
"label": "San José de las Palmas", "lat": 21.135684, "lng": -101.860197
},{
"label": "Las Crucitas", "lat": 21.115336, "lng": -102.044777
},{
"label": "El Refugio", "lat": 21.088263, "lng": -102.026687
},{
"label": "La Trinidad", "lat": 21.271905, "lng": -101.990653
},{
"label": "La Mesita", "lat": 21.114886, "lng": -101.86407
},{
"label": "Palo Alto", "lat": 21.118223, "lng": -102.155073
},{
"label": "Pedrito [Estación]", "lat": 21.135854, "lng": -101.915549
},{
"label": "Las Grullas", "lat": 21.139873, "lng": -101.929166
},{
"label": "El Saucillo de Primavera", "lat": 21.201009, "lng": -101.793413
},{
"label": "El Guaje", "lat": 21.212267, "lng": -102.084
},{
"label": "El Saltillo de Velázquez", "lat": 21.228214, "lng": -102.001444
},{
"label": "Bordo Blanco", "lat": 21.185861, "lng": -102.044136
},{
"label": "Rincón de Salas", "lat": 21.084772, "lng": -101.885241
},{
"label": "El Puertecito", "lat": 21.099782, "lng": -101.981087
},{
"label": "Los Ahogados", "lat": 21.220414, "lng": -102.074833
},{
"label": "Ejido San Salvador", "lat": 21.183206, "lng": -102.146944
},{
"label": "El Puerto de San José", "lat": 21.154722, "lng": -102.028056
},{
"label": "Santa Bárbara", "lat": 21.099311, "lng": -102.040876
},{
"label": "La Laguna", "lat": 21.083186, "lng": -102.049425
},{
"label": "Los Gavilanes", "lat": 21.198176, "lng": -101.924651
},{
"label": "Jalpilla", "lat": 21.134497, "lng": -102.042862
},{
"label": "Las Tortugas", "lat": 21.134016, "lng": -101.961151
},{
"label": "Loma de Sotelos", "lat": 21.148515, "lng": -101.943655
},{
"label": "Asociación Ganadera Alicia", "lat": 21.135536, "lng": -101.906464
},{
"label": "Mesillas de Arriba", "lat": 21.059199, "lng": -101.953539
},{
"label": "Los Horcones", "lat": 21.085482, "lng": -102.066437
},{
"label": "El Alto de la Tuna", "lat": 21.266306, "lng": -102.125642
},{
"label": "Rancho Alegre", "lat": 21.07817, "lng": -102.061729
},{
"label": "La Lobera", "lat": 21.139434, "lng": -102.144975
},{
"label": "La Montosa", "lat": 21.234519, "lng": -102.136824
},{
"label": "La Puerta de los Cerritos", "lat": 21.221671, "lng": -101.94326
},{
"label": "San Pedro", "lat": 21.211852, "lng": -101.987314
},{
"label": "La Sauceda", "lat": 21.185989, "lng": -102.126036
},{
"label": "El Varal (La Cantera)", "lat": 21.201274, "lng": -101.874459
},{
"label": "La Palma Chica", "lat": 21.195078, "lng": -101.989515
},{
"label": "Betania", "lat": 21.123008, "lng": -102.036814
},{
"label": "Los Cerritos", "lat": 21.118858, "lng": -102.012831
},{
"label": "El Río Verde", "lat": 21.144489, "lng": -101.916554
},{
"label": "San Gustavo", "lat": 21.115193, "lng": -101.935928
},{
"label": "Carreón (Carrión)", "lat": 21.160545, "lng": -101.852321
},{
"label": "Santa Cruz", "lat": 21.166006, "lng": -101.892753
},{
"label": "Ojo de Agua", "lat": 21.146306, "lng": -102.05741
},{
"label": "La Pitahaya", "lat": 21.139259, "lng": -101.973047
},{
"label": "Santa Elena", "lat": 21.043505, "lng": -102.012149
},{
"label": "El Salto Solo", "lat": 21.17347, "lng": -101.817906
},{
"label": "San Vicente", "lat": 21.2366, "lng": -101.889926
},{
"label": "Presa los Ahogados", "lat": 21.106071, "lng": -101.940118
},{
"label": "Avilag", "lat": 21.201344, "lng": -102.008214
},{
"label": "Primavera (Hacienda de Primavera)", "lat": 21.196696, "lng": -101.807929
},{
"label": "La Troje", "lat": 21.169722, "lng": -101.916111
},{
"label": "El Jaralito de Vega", "lat": 21.239664, "lng": -101.951219
},{
"label": "San Javier", "lat": 21.152478, "lng": -102.016944
},{
"label": "Hacienda San Salvador", "lat": 21.18247, "lng": -102.132714
},{
"label": "Presa de San Agustín", "lat": 21.163511, "lng": -102.121889
},{
"label": "Los Laureles", "lat": 21.090308, "lng": -102.065941
},{
"label": "Unión de San Antonio", "lat": 21.128056, "lng": -102.007222
},{
"label": "Santillanes", "lat": 21.082748, "lng": -102.059175
},{
"label": "La Calle (Potrero Tuna Alta)", "lat": 21.208869, "lng": -102.004972
},{
"label": "Potrero Viejo", "lat": 21.136784, "lng": -102.153063
},{
"label": "Las Rosillas (La Rosilla)", "lat": 21.160756, "lng": -101.812496
},{
"label": "Churintzio", "lat": 21.263336, "lng": -102.014133
},{
"label": "Cañada de Infante", "lat": 21.150956, "lng": -102.1286
},{
"label": "El Rodeo de Encinillas", "lat": 21.248361, "lng": -102.109789
},{
"label": "Charco Largo (Las Palmas)", "lat": 21.13236, "lng": -102.103195
},{
"label": "Charcas", "lat": 21.065706, "lng": -101.915158
},{
"label": "Las Pintas", "lat": 21.131689, "lng": -101.873029
},{
"label": "El Rodeo", "lat": 21.203289, "lng": -102.044417
},{
"label": "La Longaniza", "lat": 21.163174, "lng": -102.020905
},{
"label": "La Loma", "lat": 21.249133, "lng": -102.014361
},{
"label": "El Ocote", "lat": 21.142831, "lng": -102.052917
},{
"label": "Las Tierras Pardas", "lat": 21.262427, "lng": -102.001351
},{
"label": "Las Ardillas", "lat": 21.147778, "lng": -102.095278
},{
"label": "El Terrero", "lat": 21.179639, "lng": -101.79378
},{
"label": "Arroneras de Lourdes (Arroneras)", "lat": 21.066766, "lng": -102.074881
},{
"label": "Arroyo Hondo", "lat": 21.1785, "lng": -101.849184
},{
"label": "Charco Redondo (Fátima)", "lat": 21.121016, "lng": -102.104099
},{
"label": "San Basilio", "lat": 21.143964, "lng": -101.913213
},{
"label": "Río de Vázquez", "lat": 21.164935, "lng": -102.095953
},{
"label": "Providencia", "lat": 21.112079, "lng": -101.960416
},{
"label": "Las Presitas", "lat": 21.179704, "lng": -101.999086
},{
"label": "Mesa de González", "lat": 21.148253, "lng": -102.15438
},{
"label": "Tlacuitapan", "lat": 21.200283, "lng": -102.122358
}]