[{
"label": "El Huacal", "lat": 19.475774, "lng": -103.760744
},{
"label": "El Delgado", "lat": 19.562646, "lng": -103.758252
},{
"label": "El Cangrejo", "lat": 19.58313, "lng": -103.725326
},{
"label": "El Potrero", "lat": 19.427106, "lng": -103.802933
},{
"label": "Telcruz", "lat": 19.570423, "lng": -103.753476
},{
"label": "Tetapán (Tetiapán)", "lat": 19.478232, "lng": -103.812355
},{
"label": "El Vivero", "lat": 19.554914, "lng": -103.800883
},{
"label": "Loma de Perempitz", "lat": 19.512559, "lng": -103.857946
},{
"label": "La Estancia", "lat": 19.470689, "lng": -103.71992
},{
"label": "Loma del Camichín", "lat": 19.529077, "lng": -103.817663
},{
"label": "El Borbollón", "lat": 19.478096, "lng": -103.719282
},{
"label": "El Camichín", "lat": 19.501304, "lng": -103.818014
},{
"label": "Loma de Guadalupe (Cruz Blanca)", "lat": 19.530315, "lng": -103.859846
},{
"label": "Los Navas (Loma de los Navas)", "lat": 19.562227, "lng": -103.783388
},{
"label": "El Gigante", "lat": 19.541581, "lng": -103.781508
},{
"label": "San Isidro", "lat": 19.504254, "lng": -103.804781
},{
"label": "Las Galeanas", "lat": 19.472659, "lng": -103.723401
},{
"label": "La Cruz", "lat": 19.44116, "lng": -103.786395
},{
"label": "Tlajomulco", "lat": 19.476795, "lng": -103.712769
},{
"label": "San Cristóbal", "lat": 19.493123, "lng": -103.803679
},{
"label": "Plan de Alcoyunque", "lat": 19.566648, "lng": -103.745244
},{
"label": "Chancuellar", "lat": 19.509994, "lng": -103.83143
},{
"label": "El Tecuán", "lat": 19.472665, "lng": -103.739034
},{
"label": "Rancho Blanco (Ángeles Custodios)", "lat": 19.539098, "lng": -103.833705
},{
"label": "Rancho Santa Rosa", "lat": 19.479372, "lng": -103.704206
},{
"label": "Zapotitlán de Vadillo", "lat": 19.5475, "lng": -103.809167
},{
"label": "Mesa de Arias", "lat": 19.533902, "lng": -103.776496
},{
"label": "Loma de Murguías", "lat": 19.527291, "lng": -103.803152
},{
"label": "Rancho del Cacao", "lat": 19.530801, "lng": -103.833956
},{
"label": "Nuevo Perempitz", "lat": 19.510436, "lng": -103.865831
},{
"label": "El Granero", "lat": 19.505366, "lng": -103.788287
},{
"label": "Palo de Villa", "lat": 19.556993, "lng": -103.800522
},{
"label": "Paso de Alceseca (Mazatlán)", "lat": 19.485575, "lng": -103.83929
},{
"label": "El Espinal", "lat": 19.454093, "lng": -103.772447
},{
"label": "Huitzometl (La Providencia)", "lat": 19.510253, "lng": -103.752635
},{
"label": "Mazatán (San Francisco Mazatán)", "lat": 19.456679, "lng": -103.82491
},{
"label": "San José del Carmen", "lat": 19.463996, "lng": -103.766841
},{
"label": "Los Rivera", "lat": 19.538691, "lng": -103.840491
},{
"label": "Perempitz de Abajo", "lat": 19.505394, "lng": -103.870598
},{
"label": "Loma de las Flores", "lat": 19.499712, "lng": -103.767644
},{
"label": "El Fresno", "lat": 19.541365, "lng": -103.726854
},{
"label": "Zacalmecatl", "lat": 19.518424, "lng": -103.774397
},{
"label": "La Parotilla", "lat": 19.561667, "lng": -103.801667
},{
"label": "Nuevo Progreso", "lat": 19.541944, "lng": -103.818889
},{
"label": "Potrero Grande", "lat": 19.545564, "lng": -103.783262
},{
"label": "Rancho de Jorge Magaña", "lat": 19.559031, "lng": -103.817373
}]