[{
"label": "Agustín Olvera [Colonia]", "lat": 20.119069, "lng": -98.446248
},{
"label": "La Calera (Los Baños)", "lat": 20.290779, "lng": -98.457396
},{
"label": "Metepec Primero", "lat": 20.141405, "lng": -98.435441
},{
"label": "El Rosario", "lat": 20.233682, "lng": -98.442561
},{
"label": "El Transformador", "lat": 20.17407, "lng": -98.426664
},{
"label": "Zupitlán (Los Pocitos)", "lat": 20.146965, "lng": -98.399354
},{
"label": "Benito Juárez [Colonia]", "lat": 20.139321, "lng": -98.44946
},{
"label": "El Huizache y la Paloma", "lat": 20.223081, "lng": -98.472611
},{
"label": "Buena Vista", "lat": 20.325793, "lng": -98.456211
},{
"label": "Loma Larga", "lat": 20.270057, "lng": -98.47945
},{
"label": "Lagunicatlán", "lat": 20.079737, "lng": -98.473197
},{
"label": "La Chamusquina", "lat": 20.290701, "lng": -98.48745
},{
"label": "Encinillos", "lat": 20.197843, "lng": -98.433834
},{
"label": "Ampliación Hueyotlipa", "lat": 20.265, "lng": -98.409444
},{
"label": "El Cerrito", "lat": 20.189012, "lng": -98.464056
},{
"label": "San Dionisio", "lat": 20.126212, "lng": -98.464867
},{
"label": "San Bartolo", "lat": 20.254218, "lng": -98.459146
},{
"label": "El Milagro San Simón", "lat": 20.196362, "lng": -98.46042
},{
"label": "El Fortín", "lat": 20.227514, "lng": -98.430286
},{
"label": "La Palma", "lat": 20.306419, "lng": -98.49255
},{
"label": "El Veladero", "lat": 20.253207, "lng": -98.421225
},{
"label": "Totoapita Canutillo", "lat": 20.186364, "lng": -98.411536
},{
"label": "Metepec Segundo", "lat": 20.151438, "lng": -98.42831
},{
"label": "Totoapa el Grande", "lat": 20.189247, "lng": -98.446387
},{
"label": "El Chilar (La Barranca)", "lat": 20.2925, "lng": -98.472778
},{
"label": "El Potrero", "lat": 20.280549, "lng": -98.455032
},{
"label": "Alcholoya (El Salto de Alcholoya)", "lat": 20.225427, "lng": -98.453079
},{
"label": "Rancho Alicia", "lat": 20.119167, "lng": -98.43
},{
"label": "San Pablo", "lat": 20.29722, "lng": -98.476469
},{
"label": "Hacienda el Lucero", "lat": 20.163884, "lng": -98.434835
},{
"label": "Las Palmas", "lat": 20.137889, "lng": -98.397516
},{
"label": "Los Migueles", "lat": 20.161019, "lng": -98.399809
},{
"label": "Totoapita la Herradura", "lat": 20.182091, "lng": -98.434954
},{
"label": "Majadillas (La Venta)", "lat": 20.25128, "lng": -98.405331
},{
"label": "Mixquiapan", "lat": 20.142282, "lng": -98.482426
},{
"label": "28 de Mayo (Santa Rosa) [Colonia]", "lat": 20.167388, "lng": -98.388416
},{
"label": "La Peñuela", "lat": 20.264797, "lng": -98.444558
},{
"label": "San Antonio la Palma", "lat": 20.25235, "lng": -98.418433
},{
"label": "Piedra Larga", "lat": 20.289383, "lng": -98.444537
},{
"label": "Cerro de Aguatepec", "lat": 20.179322, "lng": -98.482708
},{
"label": "Rancho Guadalupe", "lat": 20.215044, "lng": -98.420692
},{
"label": "Los Arcos", "lat": 20.176188, "lng": -98.448264
},{
"label": "Hueyotlipa", "lat": 20.281728, "lng": -98.429503
},{
"label": "Almoloya", "lat": 20.151959, "lng": -98.449361
},{
"label": "Ernesto Zedillo [Colonia]", "lat": 20.161476, "lng": -98.457699
},{
"label": "Loma Chica", "lat": 20.113621, "lng": -98.462926
},{
"label": "Echeverría [Colonia]", "lat": 20.156333, "lng": -98.467092
},{
"label": "La Luz", "lat": 20.324708, "lng": -98.477908
},{
"label": "La Unión", "lat": 20.231651, "lng": -98.414682
},{
"label": "Barrio el Yolo", "lat": 20.309467, "lng": -98.402717
},{
"label": "El Sabino (La Barranca)", "lat": 20.2889, "lng": -98.464144
},{
"label": "Vicente Guerrero", "lat": 20.203754, "lng": -98.393261
},{
"label": "Acatlán", "lat": 20.145848, "lng": -98.438434
},{
"label": "Chauténco", "lat": 20.129642, "lng": -98.448936
}]