[{
"label": "Canuto Monroy", "lat": 19.721111, "lng": -98.441111
},{
"label": "San José Jiquilpan", "lat": 19.626819, "lng": -98.387089
},{
"label": "Los Gutiérrez", "lat": 19.845606, "lng": -98.342728
},{
"label": "Alcantarillas", "lat": 19.796401, "lng": -98.383705
},{
"label": "San Isidro (Rosendo Luna Orozco)", "lat": 19.634773, "lng": -98.52746
},{
"label": "La Curva", "lat": 19.752949, "lng": -98.440223
},{
"label": "Los Chiteros", "lat": 19.706091, "lng": -98.491787
},{
"label": "La Joya", "lat": 19.805241, "lng": -98.395625
},{
"label": "Bosques de Chulco", "lat": 19.695323, "lng": -98.469636
},{
"label": "Buena Vista", "lat": 19.765348, "lng": -98.463002
},{
"label": "La Era de Ocotepec", "lat": 19.690596, "lng": -98.431221
},{
"label": "Ex-Hacienda Zotoluca", "lat": 19.623331, "lng": -98.516689
},{
"label": "Los Voladores", "lat": 19.680939, "lng": -98.494395
},{
"label": "Las Peñitas", "lat": 19.730098, "lng": -98.468802
},{
"label": "El Cerrito", "lat": 19.619738, "lng": -98.513403
},{
"label": "Chimalpa Tlalayote", "lat": 19.663513, "lng": -98.512438
},{
"label": "Ex-Hacienda Espejel", "lat": 19.727706, "lng": -98.453609
},{
"label": "San Juan Ixtilmaco", "lat": 19.667235, "lng": -98.447991
},{
"label": "Lomas del Tepeyac", "lat": 19.749058, "lng": -98.497499
},{
"label": "La Montaña de las Tres Cruces (Tecorral)", "lat": 19.725651, "lng": -98.527382
},{
"label": "Acopinalco", "lat": 19.708172, "lng": -98.531759
},{
"label": "Hacienda San Miguel de las Tunas", "lat": 19.776753, "lng": -98.427411
},{
"label": "Santa Rosa", "lat": 19.858528, "lng": -98.358876
},{
"label": "La Virgencita [Colonia]", "lat": 19.795875, "lng": -98.405811
},{
"label": "Los Morales (El Jagüey)", "lat": 19.765594, "lng": -98.394103
},{
"label": "Guadalupe", "lat": 19.828393, "lng": -98.371372
},{
"label": "Joaquín Macías Romano", "lat": 19.692373, "lng": -98.409446
},{
"label": "Cocinillas", "lat": 19.844869, "lng": -98.37348
},{
"label": "San Francisco Marañón (La Virgencita)", "lat": 19.694476, "lng": -98.477077
},{
"label": "El Colorado", "lat": 19.821804, "lng": -98.34449
},{
"label": "Loma Linda", "lat": 19.663291, "lng": -98.502697
},{
"label": "Los Montalvo", "lat": 19.802818, "lng": -98.399309
},{
"label": "La Hidalguense", "lat": 19.727358, "lng": -98.46767
},{
"label": "San Lucas", "lat": 19.760834, "lng": -98.427317
},{
"label": "El Capulín (La Mesa)", "lat": 19.789124, "lng": -98.372056
},{
"label": "Loma Larga (San Antonio)", "lat": 19.809911, "lng": -98.375613
},{
"label": "San Antonio", "lat": 19.732293, "lng": -98.47507
},{
"label": "Los Mauricios", "lat": 19.649152, "lng": -98.496336
},{
"label": "El Llano", "lat": 19.717437, "lng": -98.470078
},{
"label": "Zotoluca (Veloz)", "lat": 19.611448, "lng": -98.511914
},{
"label": "Los Reyes", "lat": 19.745964, "lng": -98.427964
},{
"label": "Lindero de Ocotepec", "lat": 19.699598, "lng": -98.442428
},{
"label": "San Rafael", "lat": 19.84397, "lng": -98.356729
},{
"label": "Los Sosa", "lat": 19.748048, "lng": -98.455276
},{
"label": "Jagüeyes Cuates", "lat": 19.779009, "lng": -98.474971
},{
"label": "Malayerba", "lat": 19.636083, "lng": -98.437948
},{
"label": "Los Téllez", "lat": 19.798066, "lng": -98.392909
},{
"label": "San José", "lat": 19.664746, "lng": -98.431157
},{
"label": "Cerro del Conejo", "lat": 19.834954, "lng": -98.325258
},{
"label": "La Laguna", "lat": 19.734641, "lng": -98.499698
},{
"label": "Los Ojitos", "lat": 19.843016, "lng": -98.298003
},{
"label": "Las Ventas", "lat": 19.720066, "lng": -98.497848
},{
"label": "El Rocío", "lat": 19.706151, "lng": -98.469306
},{
"label": "San Joaquín", "lat": 19.723232, "lng": -98.470294
},{
"label": "Rancho Teteyo", "lat": 19.790096, "lng": -98.383334
},{
"label": "Los Ranchos (Salsipuedes)", "lat": 19.629636, "lng": -98.489692
},{
"label": "El Mirador", "lat": 19.80852, "lng": -98.403304
},{
"label": "Los Encinos", "lat": 19.656046, "lng": -98.468171
},{
"label": "Salinas", "lat": 19.719764, "lng": -98.456945
},{
"label": "San Sebastián", "lat": 19.745663, "lng": -98.469928
},{
"label": "Marcelino Guzmán González", "lat": 19.793974, "lng": -98.387669
},{
"label": "Apan", "lat": 19.71, "lng": -98.451944
},{
"label": "Ex-Hacienda el Marañón", "lat": 19.702606, "lng": -98.4811
},{
"label": "San Miguel de las Tunas", "lat": 19.781002, "lng": -98.433958
},{
"label": "La Lagunilla", "lat": 19.768039, "lng": -98.49317
},{
"label": "El Balconcillo (La Palma)", "lat": 19.834972, "lng": -98.344876
},{
"label": "La Providencia", "lat": 19.853436, "lng": -98.367275
},{
"label": "El Coyote (El Chupadero)", "lat": 19.803826, "lng": -98.369725
},{
"label": "El Tigre", "lat": 19.824949, "lng": -98.320991
},{
"label": "Ex-Hacienda San Juan Ixtilmaco", "lat": 19.656667, "lng": -98.445278
},{
"label": "Las Cabañitas", "lat": 19.713687, "lng": -98.442502
},{
"label": "Zacatepec", "lat": 19.67467, "lng": -98.404848
},{
"label": "Santa Cruz", "lat": 19.814033, "lng": -98.396855
},{
"label": "Ojo de Agua", "lat": 19.781638, "lng": -98.408523
},{
"label": "Ex-Hacienda Ocotepec", "lat": 19.693328, "lng": -98.434011
},{
"label": "San José el Mirador", "lat": 19.692143, "lng": -98.458493
},{
"label": "El Tejocote", "lat": 19.697045, "lng": -98.417229
},{
"label": "Lázaro Cárdenas", "lat": 19.639823, "lng": -98.471108
},{
"label": "El Tezoyo", "lat": 19.842072, "lng": -98.313271
},{
"label": "San Antonio Atochac", "lat": 19.634907, "lng": -98.482213
},{
"label": "El Tecorral", "lat": 19.749222, "lng": -98.44828
},{
"label": "San Diego Tlalayote", "lat": 19.744303, "lng": -98.441199
},{
"label": "Lomas del Pedregal", "lat": 19.747396, "lng": -98.493168
},{
"label": "El Tejón", "lat": 19.787237, "lng": -98.370612
},{
"label": "El Alcanfor", "lat": 19.77749, "lng": -98.423206
},{
"label": "Ampliación Loma Bonita", "lat": 19.696826, "lng": -98.459809
},{
"label": "La Leona", "lat": 19.779758, "lng": -98.453035
},{
"label": "Los Laureles", "lat": 19.702874, "lng": -98.468253
},{
"label": "Las Palomas", "lat": 19.645349, "lng": -98.521243
},{
"label": "Las Lagunetas (La Presa)", "lat": 19.65409, "lng": -98.524893
},{
"label": "Los Barrera", "lat": 19.820464, "lng": -98.404086
},{
"label": "Cándido García Beristáin", "lat": 19.686795, "lng": -98.405329
},{
"label": "La Ermita", "lat": 19.786988, "lng": -98.378085
},{
"label": "Los Cotorros", "lat": 19.730452, "lng": -98.447215
},{
"label": "La Loma", "lat": 19.632563, "lng": -98.408198
},{
"label": "Las Haciendas", "lat": 19.717025, "lng": -98.46421
},{
"label": "El Jazmín", "lat": 19.733748, "lng": -98.438848
},{
"label": "UNTA [Colonia]", "lat": 19.718957, "lng": -98.446448
},{
"label": "Celedonio Márquez Sánchez", "lat": 19.822015, "lng": -98.397751
},{
"label": "Leonel Ramírez González", "lat": 19.841807, "lng": -98.383196
},{
"label": "La Josefina", "lat": 19.701939, "lng": -98.473476
},{
"label": "San Diego Tlazala Avilés (Los Quintos)", "lat": 19.754316, "lng": -98.408393
},{
"label": "La Soledad", "lat": 19.738229, "lng": -98.44683
},{
"label": "Ex-Hacienda Santa Cruz", "lat": 19.800164, "lng": -98.404552
}]