[{
"label": "Hueyapita", "lat": 20.0713, "lng": -98.241046
},{
"label": "El Ojito de Agua", "lat": 20.078574, "lng": -98.327679
},{
"label": "Lomas de los Pinos", "lat": 20.067823, "lng": -98.336051
},{
"label": "Casas Coloradas", "lat": 19.970423, "lng": -98.31239
},{
"label": "El Salto", "lat": 19.973764, "lng": -98.283441
},{
"label": "La Gloria", "lat": 19.923146, "lng": -98.358224
},{
"label": "Cerro de Buenavista", "lat": 19.926272, "lng": -98.312858
},{
"label": "La Barranca del Agua", "lat": 19.967805, "lng": -98.334432
},{
"label": "Santa María Nativitas", "lat": 20.038586, "lng": -98.2967
},{
"label": "Chacalapa", "lat": 20.082058, "lng": -98.170346
},{
"label": "Las Eras de Huistongo", "lat": 19.976944, "lng": -98.220556
},{
"label": "San Lorenzo Sayula", "lat": 19.988478, "lng": -98.297528
},{
"label": "San Isidro", "lat": 19.926188, "lng": -98.293393
},{
"label": "La Coronilla", "lat": 19.923497, "lng": -98.276775
},{
"label": "Tecocomulco de Juárez", "lat": 19.905218, "lng": -98.352247
},{
"label": "Valentín Hernández Yáñez", "lat": 20.007253, "lng": -98.299151
},{
"label": "Lomas de Ojuila", "lat": 19.872651, "lng": -98.317175
},{
"label": "San Rafael Mazatepec", "lat": 19.862919, "lng": -98.349171
},{
"label": "Cuautepec [Granja Avícola]", "lat": 20.022457, "lng": -98.306769
},{
"label": "El Piñón", "lat": 19.965999, "lng": -98.320157
},{
"label": "Cuautepec", "lat": 20.03547, "lng": -98.309738
},{
"label": "Cerro Verde", "lat": 20.053682, "lng": -98.299149
},{
"label": "La Palma", "lat": 19.901426, "lng": -98.328485
},{
"label": "El Encinal", "lat": 20.062931, "lng": -98.20624
},{
"label": "San Juan Tecocomulco", "lat": 19.931396, "lng": -98.325466
},{
"label": "La Mesa (Pozo Blanco)", "lat": 20.005171, "lng": -98.236842
},{
"label": "San Juan Hueyapan", "lat": 20.030193, "lng": -98.28129
},{
"label": "Las Palmas", "lat": 20.053873, "lng": -98.270457
},{
"label": "Guadalupe Victoria", "lat": 20.032678, "lng": -98.265267
},{
"label": "El Ventorrillo", "lat": 19.995307, "lng": -98.329151
},{
"label": "La Fábrica", "lat": 19.970274, "lng": -98.177795
},{
"label": "San José Vista Hermosa", "lat": 20.00284, "lng": -98.343569
},{
"label": "Los Aguilares", "lat": 19.983792, "lng": -98.251346
},{
"label": "Maravillas", "lat": 19.911214, "lng": -98.368468
},{
"label": "La Cueva del Tezontle", "lat": 19.89091, "lng": -98.298457
},{
"label": "La Isleta", "lat": 19.892131, "lng": -98.377336
},{
"label": "Buenos Aires", "lat": 20.022414, "lng": -98.294829
},{
"label": "Marcelino Acosta Cruz", "lat": 20.016432, "lng": -98.3032
},{
"label": "Ejido el Pedregal", "lat": 20.068604, "lng": -98.328426
},{
"label": "Tulimán", "lat": 19.954818, "lng": -98.243751
},{
"label": "El Coyuco", "lat": 19.899759, "lng": -98.283733
},{
"label": "Tezoquipa", "lat": 20.03124, "lng": -98.336817
},{
"label": "Santa Elena Paliseca", "lat": 19.997239, "lng": -98.244294
},{
"label": "Tenango", "lat": 20.060884, "lng": -98.325848
},{
"label": "Las Águilas", "lat": 19.936715, "lng": -98.368745
},{
"label": "Caballo Rucio", "lat": 19.977169, "lng": -98.167973
},{
"label": "Cebaditas", "lat": 20.017618, "lng": -98.243083
},{
"label": "El Rincón", "lat": 20.002651, "lng": -98.219091
},{
"label": "La Esperanza II", "lat": 20.002518, "lng": -98.301547
},{
"label": "Xocopa", "lat": 20.059304, "lng": -98.253786
},{
"label": "La Rayuela", "lat": 20.060594, "lng": -98.346186
},{
"label": "Alhuajoyucan", "lat": 20.013666, "lng": -98.227286
},{
"label": "Arboledas", "lat": 19.988672, "lng": -98.285549
},{
"label": "La Puerta del Yolo", "lat": 20.068268, "lng": -98.308269
},{
"label": "Ojo de Agua de Ocotlán", "lat": 20.093223, "lng": -98.269086
},{
"label": "Tezoncualpan", "lat": 19.964163, "lng": -98.274858
},{
"label": "Las Conchas", "lat": 19.84982, "lng": -98.328086
},{
"label": "El Ranchero", "lat": 19.956636, "lng": -98.347018
},{
"label": "Las Canoas", "lat": 19.991516, "lng": -98.176963
},{
"label": "Chapultepec la Palma", "lat": 19.975665, "lng": -98.292973
},{
"label": "El Abertal", "lat": 19.922248, "lng": -98.312249
},{
"label": "San Aparicio", "lat": 20.000689, "lng": -98.314203
},{
"label": "El Emporio", "lat": 19.938115, "lng": -98.34177
},{
"label": "Rancho Trejo", "lat": 19.990156, "lng": -98.312863
},{
"label": "La Lagunilla", "lat": 19.940016, "lng": -98.245833
},{
"label": "El Capulín", "lat": 20.008236, "lng": -98.275699
},{
"label": "Cima de Togo", "lat": 20.018402, "lng": -98.200455
},{
"label": "Huistongo", "lat": 19.979905, "lng": -98.188102
},{
"label": "Texcaltepec", "lat": 20.030202, "lng": -98.324212
},{
"label": "Las Tires", "lat": 19.978775, "lng": -98.180524
},{
"label": "Xayahualulco", "lat": 20.004508, "lng": -98.195982
},{
"label": "El Jarillal", "lat": 20.047157, "lng": -98.215632
},{
"label": "Nopal Alto", "lat": 19.909828, "lng": -98.314941
},{
"label": "El Rincón de la Sirena", "lat": 19.992205, "lng": -98.209229
},{
"label": "La Isla de Montecristo", "lat": 19.903959, "lng": -98.367052
},{
"label": "Vista Hermosa", "lat": 19.976935, "lng": -98.278773
},{
"label": "El Aserradero", "lat": 19.954875, "lng": -98.326631
},{
"label": "Las Ánimas", "lat": 19.921387, "lng": -98.330507
},{
"label": "El Nectario", "lat": 19.95856, "lng": -98.296703
},{
"label": "Las Puentes", "lat": 20.045198, "lng": -98.183538
},{
"label": "El Durazno", "lat": 20.066205, "lng": -98.187649
},{
"label": "Los Laureles", "lat": 19.953713, "lng": -98.231145
},{
"label": "La Reforma", "lat": 19.93046, "lng": -98.305605
},{
"label": "Manuel Rodríguez Martínez", "lat": 20.008589, "lng": -98.3016
},{
"label": "Cerrito de las Milpas", "lat": 19.96778, "lng": -98.171613
},{
"label": "La Puerta", "lat": 19.936128, "lng": -98.308874
},{
"label": "Almoloya", "lat": 20.022458, "lng": -98.316323
},{
"label": "Peña del Tigre", "lat": 19.961419, "lng": -98.18467
},{
"label": "El Jazmín", "lat": 19.974769, "lng": -98.306397
},{
"label": "La Esperanza", "lat": 19.974743, "lng": -98.319599
},{
"label": "Presa Reventada", "lat": 19.897346, "lng": -98.307623
},{
"label": "Los Sabinos", "lat": 19.971667, "lng": -98.296944
},{
"label": "El Atorón", "lat": 19.998306, "lng": -98.277454
},{
"label": "El Tepeyac", "lat": 20.051089, "lng": -98.310589
},{
"label": "La Cañada", "lat": 19.919872, "lng": -98.292301
},{
"label": "La Unión", "lat": 19.856222, "lng": -98.330435
},{
"label": "La Explanada", "lat": 20.054976, "lng": -98.350788
},{
"label": "Loma Bonita", "lat": 20.05706, "lng": -98.305611
},{
"label": "Coatzetzengo", "lat": 19.929818, "lng": -98.354292
}]