[{
"label": "Santo Tomás (Cuaxahual)", "lat": 20.986782, "lng": -98.452708
},{
"label": "Copalapa", "lat": 20.97482, "lng": -98.484904
},{
"label": "Tetlicuil", "lat": 20.973491, "lng": -98.498954
},{
"label": "La Ceiba", "lat": 21.04493, "lng": -98.425421
},{
"label": "Tepemaxac", "lat": 21.030347, "lng": -98.491642
},{
"label": "Ahuatitla", "lat": 21.038483, "lng": -98.505262
},{
"label": "Congreso", "lat": 21.031694, "lng": -98.500114
},{
"label": "Huilotitla II", "lat": 21.055768, "lng": -98.498256
},{
"label": "Zoquicualoya", "lat": 20.991917, "lng": -98.466982
},{
"label": "Huilotitla I", "lat": 21.05094, "lng": -98.49216
},{
"label": "Mantetitla", "lat": 20.972901, "lng": -98.479015
},{
"label": "Chichilzoquitl", "lat": 21.04369, "lng": -98.416366
},{
"label": "Coahuazas", "lat": 21.036562, "lng": -98.511266
},{
"label": "Huilotepetl (Cerro de las Palomas) [Parque Ecoturístico]", "lat": 21.052195, "lng": -98.504476
},{
"label": "Tlatzonco", "lat": 20.964793, "lng": -98.470998
},{
"label": "Pilchiatipa", "lat": 21.033929, "lng": -98.469099
},{
"label": "Tzapotitla", "lat": 20.979452, "lng": -98.48172
},{
"label": "La Cumbre [Rancho]", "lat": 20.934822, "lng": -98.537104
},{
"label": "Los Parajes [Rancho]", "lat": 20.939269, "lng": -98.525151
},{
"label": "Acohuaco", "lat": 20.973489, "lng": -98.502637
},{
"label": "Ixtlahuac", "lat": 20.958284, "lng": -98.492143
},{
"label": "Tlamamala", "lat": 20.969594, "lng": -98.541413
},{
"label": "Pahuatitla", "lat": 20.972849, "lng": -98.505893
},{
"label": "Ámaxac", "lat": 21.041907, "lng": -98.441964
},{
"label": "Chiatipán", "lat": 21.021864, "lng": -98.526516
},{
"label": "Copaltitla", "lat": 21.017093, "lng": -98.453654
},{
"label": "San Juan", "lat": 20.989392, "lng": -98.504383
},{
"label": "Barrio las Flores", "lat": 20.975728, "lng": -98.506502
},{
"label": "Coaxocotitla", "lat": 20.96903, "lng": -98.503719
},{
"label": "Mazahapa", "lat": 20.990376, "lng": -98.499054
},{
"label": "Ameyalol", "lat": 21.046291, "lng": -98.506382
},{
"label": "Otecoch", "lat": 21.015265, "lng": -98.462249
},{
"label": "San Pedro", "lat": 20.952226, "lng": -98.525442
},{
"label": "Ahuateno", "lat": 21.034948, "lng": -98.505286
},{
"label": "Cuahuapílol", "lat": 21.026386, "lng": -98.497737
},{
"label": "San Francisco", "lat": 21.019255, "lng": -98.486231
},{
"label": "Cuamontax", "lat": 21.024953, "lng": -98.429331
},{
"label": "Nuevo Hidalgo", "lat": 20.943744, "lng": -98.518039
},{
"label": "Santa María", "lat": 20.998278, "lng": -98.468671
},{
"label": "Comala", "lat": 21.023556, "lng": -98.497129
},{
"label": "Tepancahuatl", "lat": 20.96245, "lng": -98.488414
},{
"label": "Tahuize", "lat": 20.957827, "lng": -98.503511
},{
"label": "Huazalingo", "lat": 20.980303, "lng": -98.507748
}]