[{
"label": "San Lorenzo Itztacoyotla", "lat": 20.822378, "lng": -98.816802
},{
"label": "Sotiopa (El Dólar)", "lat": 20.832228, "lng": -98.852403
},{
"label": "Xochaco", "lat": 20.805306, "lng": -98.788943
},{
"label": "Tetipanchalco", "lat": 20.878349, "lng": -98.799163
},{
"label": "Cuayacapa", "lat": 20.824295, "lng": -98.853583
},{
"label": "San Nicolás Coatzontla", "lat": 20.871455, "lng": -98.85142
},{
"label": "Rancho Hernández (Xochipila)", "lat": 20.837284, "lng": -98.855163
},{
"label": "Tepehica", "lat": 20.781051, "lng": -98.820655
},{
"label": "Santa María", "lat": 20.849725, "lng": -98.875896
},{
"label": "Tonalixco", "lat": 20.850855, "lng": -98.838269
},{
"label": "Zoquilquiza", "lat": 20.806643, "lng": -98.838768
},{
"label": "Juárez Hidalgo", "lat": 20.783717, "lng": -98.828861
},{
"label": "Los Tejocotes", "lat": 20.847308, "lng": -98.896099
},{
"label": "Acatitlán", "lat": 20.801174, "lng": -98.817073
},{
"label": "Tlalostoteno", "lat": 20.874956, "lng": -98.858717
},{
"label": "Tenexco", "lat": 20.862233, "lng": -98.805823
}]