[{
"label": "Chantasco", "lat": 21.169317, "lng": -98.749726
},{
"label": "Tetlapaya", "lat": 21.01278, "lng": -98.738653
},{
"label": "Totonicapa (Tlamaya)", "lat": 21.140556, "lng": -98.734444
},{
"label": "Chicazapa (Pilancón)", "lat": 21.075034, "lng": -98.744474
},{
"label": "Antonio Apolonio Campoy", "lat": 20.867394, "lng": -98.693096
},{
"label": "Quimixtla", "lat": 21.095881, "lng": -98.735048
},{
"label": "Ixtacuatla", "lat": 21.038917, "lng": -98.754182
},{
"label": "Atla", "lat": 21.029774, "lng": -98.737512
},{
"label": "Tlacozintla", "lat": 20.868247, "lng": -98.708468
},{
"label": "Aquixquitla", "lat": 20.899705, "lng": -98.699658
},{
"label": "Xalcuatla", "lat": 21.184231, "lng": -98.763956
},{
"label": "Chiconcoac", "lat": 20.981436, "lng": -98.736582
},{
"label": "Tolago", "lat": 20.979375, "lng": -98.729701
},{
"label": "El Coyol", "lat": 20.959135, "lng": -98.724786
},{
"label": "Tenquiquixtla", "lat": 21.084751, "lng": -98.766407
},{
"label": "Tlamaxa", "lat": 20.853934, "lng": -98.721117
},{
"label": "Crisolco", "lat": 20.96957, "lng": -98.751159
},{
"label": "Zihuatego (Ohuesco)", "lat": 20.925551, "lng": -98.727975
},{
"label": "Lolotla", "lat": 20.841164, "lng": -98.717289
},{
"label": "Tepazintla", "lat": 21.09539, "lng": -98.741886
},{
"label": "Santiago", "lat": 20.841289, "lng": -98.728822
},{
"label": "Tlaltepingo", "lat": 20.935283, "lng": -98.731369
},{
"label": "Acatepec", "lat": 20.908519, "lng": -98.716181
},{
"label": "Mecapala", "lat": 20.970899, "lng": -98.731739
},{
"label": "Capultitlán", "lat": 20.893389, "lng": -98.675574
},{
"label": "Las Adjuntas", "lat": 21.144914, "lng": -98.733301
},{
"label": "El Barco", "lat": 21.177695, "lng": -98.721684
},{
"label": "Tecamachal", "lat": 21.128822, "lng": -98.736779
},{
"label": "La Pahua", "lat": 21.078143, "lng": -98.743096
},{
"label": "Ojo de Agua", "lat": 21.065, "lng": -98.768056
},{
"label": "Chalma", "lat": 20.875885, "lng": -98.691966
},{
"label": "La Florida", "lat": 21.119101, "lng": -98.74092
},{
"label": "Ixtlahuaco", "lat": 20.883634, "lng": -98.703565
},{
"label": "Rancho Viejo", "lat": 21.068333, "lng": -98.776944
},{
"label": "Las Puentes", "lat": 20.911525, "lng": -98.708266
},{
"label": "Chiquitla", "lat": 20.901279, "lng": -98.648194
},{
"label": "Amecaco", "lat": 21.083893, "lng": -98.775198
},{
"label": "Mazahuacán", "lat": 20.903751, "lng": -98.681803
},{
"label": "Los Otates", "lat": 21.092035, "lng": -98.75091
},{
"label": "Contepec", "lat": 20.877693, "lng": -98.682474
},{
"label": "El Chalahuite", "lat": 21.081872, "lng": -98.754291
},{
"label": "Cuatitlanapa", "lat": 21.085666, "lng": -98.745687
},{
"label": "El Vergel", "lat": 21.094419, "lng": -98.758848
},{
"label": "Cuaxala", "lat": 20.962869, "lng": -98.750972
},{
"label": "Tlaxcango", "lat": 20.853677, "lng": -98.714086
},{
"label": "Xuchitlán", "lat": 21.064019, "lng": -98.744302
},{
"label": "Xuchipantla", "lat": 21.184965, "lng": -98.720442
},{
"label": "Fábrica Vieja", "lat": 21.120556, "lng": -98.748611
},{
"label": "Xintla", "lat": 20.837251, "lng": -98.708198
},{
"label": "Cerro Boludo", "lat": 21.119722, "lng": -98.732778
},{
"label": "Chalchocotipa", "lat": 21.171389, "lng": -98.731111
},{
"label": "Ocotlán", "lat": 20.856373, "lng": -98.742756
},{
"label": "Santa Cruz Ayotetla", "lat": 20.977446, "lng": -98.74293
},{
"label": "Tentla (Cerro Blanco)", "lat": 21.154179, "lng": -98.735918
},{
"label": "La Unión", "lat": 21.104431, "lng": -98.752109
},{
"label": "Huitznopala", "lat": 20.923088, "lng": -98.752181
},{
"label": "Coatetla", "lat": 20.899337, "lng": -98.717999
},{
"label": "Texacal", "lat": 21.10999, "lng": -98.74518
},{
"label": "Comontla", "lat": 21.048659, "lng": -98.739163
},{
"label": "La Pimienta", "lat": 21.108789, "lng": -98.735135
},{
"label": "Tequixco", "lat": 20.915731, "lng": -98.723072
},{
"label": "Atoscalao", "lat": 20.971313, "lng": -98.721096
}]