[{
"label": "Metzquititla", "lat": 20.629628, "lng": -98.908853
},{
"label": "El Pirú Tepozotlán (El Pirú)", "lat": 20.526961, "lng": -98.786531
},{
"label": "El Rincón (El Rincón de Ixcoatitla)", "lat": 20.573084, "lng": -98.769027
},{
"label": "Milpa Grande", "lat": 20.573859, "lng": -98.917701
},{
"label": "Tlaxco", "lat": 20.70375, "lng": -98.810368
},{
"label": "Rancho Nuevo de Guadalupe", "lat": 20.488126, "lng": -98.697991
},{
"label": "La Mesa Grande (Mesa Grande)", "lat": 20.660587, "lng": -98.772568
},{
"label": "San Pedro Amajatlán (Amajatlán)", "lat": 20.634504, "lng": -98.806346
},{
"label": "Tablón Chico", "lat": 20.422049, "lng": -98.848511
},{
"label": "Tierra Blanca", "lat": 20.577637, "lng": -98.900646
},{
"label": "Pueblo Nuevo", "lat": 20.611123, "lng": -98.798336
},{
"label": "Barrio el Calvario", "lat": 20.604255, "lng": -98.762599
},{
"label": "El Tezontle", "lat": 20.551195, "lng": -98.789456
},{
"label": "Chimalacatla", "lat": 20.589089, "lng": -98.816071
},{
"label": "El Salitre", "lat": 20.564234, "lng": -98.749307
},{
"label": "La Joya", "lat": 20.639167, "lng": -98.838333
},{
"label": "Buena Vista", "lat": 20.482438, "lng": -98.685951
},{
"label": "Palo Blanco (Cacaloco)", "lat": 20.616506, "lng": -98.81975
},{
"label": "Metztitlán", "lat": 20.5947, "lng": -98.764144
},{
"label": "San Cristóbal", "lat": 20.642149, "lng": -98.826873
},{
"label": "San Juan Metztitlán", "lat": 20.586063, "lng": -98.753211
},{
"label": "Metznoxtla (Metznoztla)", "lat": 20.625699, "lng": -98.861189
},{
"label": "El Mamtha", "lat": 20.509867, "lng": -98.938734
},{
"label": "Tlacotepec (Cerrito de Tlacotepec)", "lat": 20.669123, "lng": -98.830388
},{
"label": "El Damhú", "lat": 20.557566, "lng": -98.883773
},{
"label": "Huixastla", "lat": 20.460338, "lng": -98.72746
},{
"label": "Hacienda de Guadalupe", "lat": 20.481361, "lng": -98.693911
},{
"label": "Cacalome (Acalome)", "lat": 20.466601, "lng": -98.672008
},{
"label": "El Palmar", "lat": 20.515524, "lng": -98.799723
},{
"label": "Zoquizoquipan", "lat": 20.646164, "lng": -98.717696
},{
"label": "Tolapa (Santiago Tolapa)", "lat": 20.611663, "lng": -98.768733
},{
"label": "Barrio de Quinjuá", "lat": 20.61, "lng": -98.909444
},{
"label": "Cerro Verde", "lat": 20.456127, "lng": -98.755611
},{
"label": "El Tablón", "lat": 20.533364, "lng": -98.762859
},{
"label": "Agua Hedeonda", "lat": 20.516135, "lng": -98.918687
},{
"label": "La Paila de Anáhuac", "lat": 20.529693, "lng": -98.719724
},{
"label": "El Arenal", "lat": 20.646013, "lng": -98.928172
},{
"label": "San Pedro Tlatemalco", "lat": 20.501769, "lng": -98.702024
},{
"label": "Coalquizque", "lat": 20.573423, "lng": -98.795581
},{
"label": "San Juan Tlatepexi", "lat": 20.567703, "lng": -98.898108
},{
"label": "Hacienda de Potrero", "lat": 20.509106, "lng": -98.718118
},{
"label": "Tezisco", "lat": 20.671529, "lng": -98.807719
},{
"label": "Yerbabuena", "lat": 20.554254, "lng": -98.949618
},{
"label": "Tezochuca", "lat": 20.59747, "lng": -98.725121
},{
"label": "Xocotitla", "lat": 20.634728, "lng": -98.919241
},{
"label": "Fontezuelas", "lat": 20.488717, "lng": -98.873849
},{
"label": "Atzolcintla", "lat": 20.59821, "lng": -98.815547
},{
"label": "Los Arcos", "lat": 20.664405, "lng": -98.739707
},{
"label": "Miahuatlán", "lat": 20.579634, "lng": -98.764338
},{
"label": "Olotla", "lat": 20.617877, "lng": -98.705431
},{
"label": "San Antonio Tlaxco", "lat": 20.708538, "lng": -98.819233
},{
"label": "Rincón de Coalquizque", "lat": 20.583865, "lng": -98.791389
},{
"label": "Jilotla", "lat": 20.549134, "lng": -98.747416
},{
"label": "Huiloco", "lat": 20.691957, "lng": -98.821575
},{
"label": "Apanco", "lat": 20.573196, "lng": -98.761716
},{
"label": "Cabeza de Toro", "lat": 20.483246, "lng": -98.774718
},{
"label": "Tierra Nueva", "lat": 20.590869, "lng": -98.906458
},{
"label": "San Pedro Ayotoxtla", "lat": 20.603333, "lng": -98.905556
},{
"label": "El Escobal", "lat": 20.543708, "lng": -98.89717
},{
"label": "Los Terreros", "lat": 20.54869, "lng": -98.858146
},{
"label": "Tepetlaco", "lat": 20.583076, "lng": -98.776662
},{
"label": "Alumbres", "lat": 20.668606, "lng": -98.690036
},{
"label": "Tlamaya", "lat": 20.505958, "lng": -98.841318
},{
"label": "Rincón Grande", "lat": 20.576361, "lng": -98.783859
},{
"label": "La Cumbre de Huistícola", "lat": 20.52468, "lng": -98.880434
},{
"label": "Loma Cuata (La Cumbre de Loma Cuata)", "lat": 20.474309, "lng": -98.772652
},{
"label": "La Trampa", "lat": 20.453809, "lng": -98.777973
},{
"label": "Tepecahuantla", "lat": 20.60918, "lng": -98.79089
},{
"label": "Zotoltepec", "lat": 20.603294, "lng": -98.705501
},{
"label": "Potrero de Camacho", "lat": 20.504356, "lng": -98.712701
},{
"label": "Ayacatzintla", "lat": 20.495337, "lng": -98.703677
},{
"label": "Atzingo", "lat": 20.6383, "lng": -98.808591
},{
"label": "Huayateno", "lat": 20.685007, "lng": -98.812705
},{
"label": "Pie de la Cuesta", "lat": 20.625793, "lng": -98.844043
},{
"label": "Tecruz de Anáhuac (Tecruz de Jihuico)", "lat": 20.534083, "lng": -98.726766
},{
"label": "Tlamaxa", "lat": 20.623595, "lng": -98.806149
},{
"label": "Jiliapa", "lat": 20.550257, "lng": -98.714739
},{
"label": "Rincón de Santa Cruz (Santa Cruz)", "lat": 20.630333, "lng": -98.808613
},{
"label": "El Pedregal de Zaragoza (El Pedregal)", "lat": 20.643651, "lng": -98.808531
},{
"label": "Zoquiteno", "lat": 20.613103, "lng": -98.689376
},{
"label": "La Rivera", "lat": 20.485669, "lng": -98.759731
},{
"label": "Barrio el Tepeyac", "lat": 20.594434, "lng": -98.757308
},{
"label": "El Dezdhá", "lat": 20.469868, "lng": -98.776099
},{
"label": "Los Cerritos", "lat": 20.445001, "lng": -98.73698
},{
"label": "Cerro Partido", "lat": 20.627332, "lng": -98.832361
},{
"label": "Rosa Blanca", "lat": 20.573294, "lng": -98.923981
},{
"label": "Coyometeco", "lat": 20.619149, "lng": -98.800841
},{
"label": "Tecruz Cozapa", "lat": 20.591101, "lng": -98.794038
},{
"label": "Loma Ancha", "lat": 20.470336, "lng": -98.759946
},{
"label": "Las Presas", "lat": 20.488726, "lng": -98.753457
},{
"label": "Pilas y Granadas", "lat": 20.469667, "lng": -98.681862
},{
"label": "Jihuico", "lat": 20.542695, "lng": -98.72652
},{
"label": "San Pablo Tetlapayac", "lat": 20.640136, "lng": -98.921147
},{
"label": "Higueras", "lat": 20.460332, "lng": -98.671353
},{
"label": "Joya de Analco", "lat": 20.551621, "lng": -98.767318
},{
"label": "El Carrizal", "lat": 20.499346, "lng": -98.69515
},{
"label": "Santa Mónica Autempa", "lat": 20.461784, "lng": -98.714748
},{
"label": "Puerto de las Pilas", "lat": 20.51, "lng": -98.745556
},{
"label": "Tlaxco Viejo", "lat": 20.691437, "lng": -98.811908
},{
"label": "Luisa Vargas Callejas", "lat": 20.533028, "lng": -98.871972
},{
"label": "Huistícola", "lat": 20.538554, "lng": -98.861908
},{
"label": "Itztayatla", "lat": 20.629673, "lng": -98.752454
},{
"label": "Macuila", "lat": 20.64639, "lng": -98.806243
},{
"label": "La Peña", "lat": 20.581393, "lng": -98.780147
},{
"label": "Cerro Blanco", "lat": 20.547926, "lng": -98.774808
},{
"label": "Estocuapa (La Colmena)", "lat": 20.550594, "lng": -98.731238
},{
"label": "El Güero", "lat": 20.593233, "lng": -98.713973
},{
"label": "Tres Cruces", "lat": 20.514283, "lng": -98.711232
},{
"label": "Zotola", "lat": 20.559855, "lng": -98.830035
},{
"label": "Itztazacuala", "lat": 20.584461, "lng": -98.841327
},{
"label": "Pontadhó", "lat": 20.491866, "lng": -98.903684
},{
"label": "El Banco (La Cumbre de Huistícola)", "lat": 20.528812, "lng": -98.865813
},{
"label": "La Cumbre Jagüey Seco (Jagüey Seco)", "lat": 20.439231, "lng": -98.889179
},{
"label": "Cerro Boludo", "lat": 20.531374, "lng": -98.893626
},{
"label": "El Meje", "lat": 20.559763, "lng": -98.931685
},{
"label": "Tepatetipa (San Agustín Tepatetipa)", "lat": 20.629447, "lng": -98.773238
},{
"label": "Barrio Coatlán", "lat": 20.595556, "lng": -98.768889
},{
"label": "La Laja", "lat": 20.550354, "lng": -98.868592
},{
"label": "El Potrerillo", "lat": 20.603773, "lng": -98.757173
},{
"label": "Tlazoquitipa", "lat": 20.566068, "lng": -98.760496
},{
"label": "Tochintla", "lat": 20.601901, "lng": -98.822726
},{
"label": "Tlatepexe", "lat": 20.605384, "lng": -98.783824
},{
"label": "La Gasera", "lat": 20.66362, "lng": -98.701482
}]