[{
"label": "Las Pilas", "lat": 20.830324, "lng": -99.170673
},{
"label": "El Dothu", "lat": 20.736314, "lng": -99.152889
},{
"label": "Barrio Alto", "lat": 20.766842, "lng": -99.147145
},{
"label": "La Laguna", "lat": 20.798131, "lng": -99.176057
},{
"label": "Pajiadhi", "lat": 20.79288, "lng": -99.167811
},{
"label": "Cerro Prieto", "lat": 20.794354, "lng": -99.20598
},{
"label": "La Bonanza", "lat": 20.715733, "lng": -99.245744
},{
"label": "Segundo Centro", "lat": 20.765451, "lng": -99.153154
},{
"label": "Chibirino", "lat": 20.757461, "lng": -99.163404
},{
"label": "Itatlaxco", "lat": 20.820579, "lng": -99.130166
},{
"label": "Villa Hermosa", "lat": 20.73087, "lng": -99.134503
},{
"label": "Villa Juárez", "lat": 20.860039, "lng": -99.19501
},{
"label": "Padapho", "lat": 20.783158, "lng": -99.131939
},{
"label": "Puerto de Higos", "lat": 20.803916, "lng": -99.157756
},{
"label": "Agua Limpia", "lat": 20.791588, "lng": -99.128059
},{
"label": "Jagüey", "lat": 20.798861, "lng": -99.228321
},{
"label": "Taxhay", "lat": 20.75204, "lng": -99.213976
},{
"label": "Zoyatal", "lat": 20.839401, "lng": -99.166336
},{
"label": "Iglesia Vieja", "lat": 20.722631, "lng": -99.14171
},{
"label": "Segundo Pilas", "lat": 20.816798, "lng": -99.176703
},{
"label": "El Molino", "lat": 20.885725, "lng": -99.183378
},{
"label": "Nicolás Flores", "lat": 20.767778, "lng": -99.150556
},{
"label": "Las Milpas", "lat": 20.845146, "lng": -99.203573
},{
"label": "Barrio del Tedra", "lat": 20.786317, "lng": -99.156109
},{
"label": "El Cobre", "lat": 20.884056, "lng": -99.176406
},{
"label": "Santo Domingo", "lat": 20.823749, "lng": -99.110587
},{
"label": "Cerro de la Cruz", "lat": 20.760554, "lng": -99.170326
},{
"label": "Puerto las Ánimas", "lat": 20.865796, "lng": -99.209356
},{
"label": "Piedra de Sal", "lat": 20.841786, "lng": -99.212491
},{
"label": "Tedra", "lat": 20.772374, "lng": -99.150925
},{
"label": "El Encinote", "lat": 20.8118, "lng": -99.215267
},{
"label": "Cruz de Piedra", "lat": 20.777132, "lng": -99.144939
},{
"label": "Puerto Menta", "lat": 20.791771, "lng": -99.230253
},{
"label": "Pijay", "lat": 20.775301, "lng": -99.182608
},{
"label": "Castadho", "lat": 20.795865, "lng": -99.176276
},{
"label": "El Aguacate", "lat": 20.852916, "lng": -99.151209
},{
"label": "Puerto de Piedra", "lat": 20.821255, "lng": -99.199974
},{
"label": "La Unión", "lat": 20.735351, "lng": -99.237448
},{
"label": "Segundo Santa Cruz", "lat": 20.748582, "lng": -99.13756
},{
"label": "Yudho", "lat": 20.77088, "lng": -99.145397
},{
"label": "Bocua", "lat": 20.722925, "lng": -99.165393
},{
"label": "Puerto Cangandho", "lat": 20.873816, "lng": -99.192083
},{
"label": "Texcadho", "lat": 20.725127, "lng": -99.185602
},{
"label": "Paso de Agua", "lat": 20.777119, "lng": -99.162206
},{
"label": "Santa Cruz", "lat": 20.757038, "lng": -99.15051
},{
"label": "Los Lirios", "lat": 20.805531, "lng": -99.209167
},{
"label": "El Tejocote", "lat": 20.885703, "lng": -99.193696
},{
"label": "La Ciénega", "lat": 20.799976, "lng": -99.129228
}]