[{
"label": "Loma de los Naranjos", "lat": 21.016312, "lng": -99.342651
},{
"label": "Jagüey Colorado", "lat": 20.910651, "lng": -99.28819
},{
"label": "La Mohonera", "lat": 20.891938, "lng": -99.315999
},{
"label": "Mixquiahuales", "lat": 21.010048, "lng": -99.361553
},{
"label": "Santa María Miraflores", "lat": 20.915387, "lng": -99.333036
},{
"label": "Río Camarones", "lat": 20.955179, "lng": -99.390362
},{
"label": "Lagunillas", "lat": 21.087118, "lng": -99.319412
},{
"label": "Barranca Seca", "lat": 21.041846, "lng": -99.267161
},{
"label": "El Devisadero", "lat": 20.900748, "lng": -99.341365
},{
"label": "Maguey Blanco", "lat": 20.919252, "lng": -99.273579
},{
"label": "La Calera", "lat": 20.998161, "lng": -99.316976
},{
"label": "El Fraile", "lat": 20.948904, "lng": -99.368061
},{
"label": "Tierras Coloradas", "lat": 21.023574, "lng": -99.338819
},{
"label": "La Hoya", "lat": 20.991944, "lng": -99.285556
},{
"label": "Licenciado Javier Rojo Gómez", "lat": 20.873766, "lng": -99.328734
},{
"label": "Los Corrales", "lat": 20.912323, "lng": -99.343026
},{
"label": "La Puerta", "lat": 20.985517, "lng": -99.30553
},{
"label": "Adjuntas", "lat": 20.947026, "lng": -99.281027
},{
"label": "Sajunta de las Minas", "lat": 20.906228, "lng": -99.278125
},{
"label": "Los Fresnos", "lat": 20.971663, "lng": -99.327974
},{
"label": "El Puerto de Jacala", "lat": 21.037445, "lng": -99.292158
},{
"label": "Saucillo", "lat": 20.952991, "lng": -99.332579
},{
"label": "Vicente Guerrero (Presidio)", "lat": 21.052212, "lng": -99.311331
},{
"label": "El Huizachal", "lat": 21.029573, "lng": -99.227701
},{
"label": "Canoas", "lat": 20.951873, "lng": -99.319528
},{
"label": "Milpas Viejas", "lat": 20.933961, "lng": -99.342514
},{
"label": "San Francisco", "lat": 20.978361, "lng": -99.358216
},{
"label": "Pacula", "lat": 21.050821, "lng": -99.296099
},{
"label": "El Mezquite", "lat": 20.894185, "lng": -99.288142
},{
"label": "El Aguacatito", "lat": 20.893168, "lng": -99.379013
},{
"label": "Potrerillos", "lat": 20.976224, "lng": -99.302135
},{
"label": "Puerto Grande", "lat": 20.90575, "lng": -99.328122
},{
"label": "El Baile", "lat": 20.923345, "lng": -99.384527
},{
"label": "La Mesa", "lat": 20.951713, "lng": -99.380123
},{
"label": "Mesa de San Antonio", "lat": 21.115839, "lng": -99.308383
},{
"label": "Mina la Negra", "lat": 20.96472, "lng": -99.346544
},{
"label": "Ojo de Agua", "lat": 21.098441, "lng": -99.307111
},{
"label": "Rancho Nuevo", "lat": 20.95686, "lng": -99.291894
},{
"label": "Jiliapan", "lat": 20.982538, "lng": -99.344523
}]