[{
"label": "Altepemila", "lat": 20.013611, "lng": -98.381944
},{
"label": "Rancho Colorado", "lat": 20.029378, "lng": -98.379636
},{
"label": "Las Lajas", "lat": 20.039247, "lng": -98.46558
},{
"label": "La Joya 2da. Sección", "lat": 20.03722, "lng": -98.376432
},{
"label": "El Salado", "lat": 20.025534, "lng": -98.351569
},{
"label": "San Miguel Huatengo", "lat": 20.047761, "lng": -98.383578
},{
"label": "Felipe Ángeles [Colonia]", "lat": 20.053748, "lng": -98.41824
},{
"label": "El Pedregal de San José", "lat": 20.06519, "lng": -98.411778
},{
"label": "Santiago Tulantepec", "lat": 20.039193, "lng": -98.357006
},{
"label": "Sayola", "lat": 20.052758, "lng": -98.366814
},{
"label": "San Pedro Huatengo", "lat": 20.05101, "lng": -98.40723
},{
"label": "El Mirador [Rancho]", "lat": 20.021483, "lng": -98.375978
},{
"label": "Santa Ana del Monte", "lat": 20.06032, "lng": -98.446901
},{
"label": "Agrícola Oriental", "lat": 20.04282, "lng": -98.346968
},{
"label": "Tilhuacán", "lat": 20.02033, "lng": -98.361449
},{
"label": "Emiliano Zapata", "lat": 20.075168, "lng": -98.405081
},{
"label": "La Joya", "lat": 20.041849, "lng": -98.378039
},{
"label": "Unidades Habitacionales", "lat": 20.063576, "lng": -98.419188
},{
"label": "Pedregal de San José [Fraccionamiento]", "lat": 20.057964, "lng": -98.404011
},{
"label": "Paxtepec", "lat": 20.052702, "lng": -98.431566
},{
"label": "Ventoquipa", "lat": 20.033614, "lng": -98.337708
},{
"label": "Los Romeros", "lat": 20.029564, "lng": -98.415217
},{
"label": "El Charco", "lat": 20.043578, "lng": -98.369039
},{
"label": "Sangre de Cristo", "lat": 20.051767, "lng": -98.456316
},{
"label": "Rinconada las Aves", "lat": 20.028136, "lng": -98.35479
},{
"label": "Palpa", "lat": 20.013371, "lng": -98.36712
},{
"label": "San Luis Buena Vista", "lat": 20.024975, "lng": -98.393392
},{
"label": "La Era", "lat": 20.041389, "lng": -98.362778
}]