[{
"label": "Los Gorriones", "lat": 19.937227, "lng": -98.470852
},{
"label": "Los Arbolitos", "lat": 19.978126, "lng": -98.551836
},{
"label": "Tepetongo", "lat": 20.022778, "lng": -98.516111
},{
"label": "Texcaltitla", "lat": 19.948218, "lng": -98.530893
},{
"label": "La Pradera", "lat": 19.952753, "lng": -98.508248
},{
"label": "Las Fuentes [Fraccionamiento]", "lat": 19.978489, "lng": -98.522029
},{
"label": "Alfajayucan", "lat": 20.034512, "lng": -98.522751
},{
"label": "Altamira", "lat": 19.969386, "lng": -98.509874
},{
"label": "El Paraíso", "lat": 19.989096, "lng": -98.521121
},{
"label": "La Estancia", "lat": 19.947486, "lng": -98.556613
},{
"label": "La Gloria", "lat": 19.928505, "lng": -98.495721
},{
"label": "Segundas Lajas", "lat": 20.049859, "lng": -98.471918
},{
"label": "La Era Grande", "lat": 20.018555, "lng": -98.611884
},{
"label": "Ex-Hacienda de Mirasoles", "lat": 19.99169, "lng": -98.491964
},{
"label": "Buenavista", "lat": 19.988687, "lng": -98.559167
},{
"label": "Ampliación Alfajayucan", "lat": 20.018418, "lng": -98.528286
},{
"label": "La Cueva (El Tezontle)", "lat": 19.965214, "lng": -98.53617
},{
"label": "La Joya", "lat": 20.06249, "lng": -98.563897
},{
"label": "Amolucan", "lat": 19.963056, "lng": -98.452049
},{
"label": "Los Patos [Colonia]", "lat": 19.953495, "lng": -98.373319
},{
"label": "El Chichimeco", "lat": 19.935733, "lng": -98.546449
},{
"label": "La Reforma (San Isidro)", "lat": 19.974698, "lng": -98.527851
},{
"label": "Las Trojes", "lat": 19.954747, "lng": -98.541667
},{
"label": "San Martín el Coyote", "lat": 19.978606, "lng": -98.56997
},{
"label": "Jagüey Alto", "lat": 19.944146, "lng": -98.469357
},{
"label": "Loma del Toro", "lat": 19.959564, "lng": -98.545644
},{
"label": "Santa Rosa", "lat": 19.970182, "lng": -98.580792
},{
"label": "La Palma", "lat": 19.963171, "lng": -98.553139
},{
"label": "Tlazala", "lat": 19.884917, "lng": -98.442717
},{
"label": "Plutarco Elías Calles", "lat": 19.944032, "lng": -98.391944
},{
"label": "El Encinal", "lat": 20.027379, "lng": -98.604954
},{
"label": "Rincón del Agua", "lat": 20.070493, "lng": -98.510718
},{
"label": "Jagüey Viejo", "lat": 20.056157, "lng": -98.589326
},{
"label": "La Ladrillera", "lat": 19.964167, "lng": -98.561638
},{
"label": "San Rafael Amolucan", "lat": 19.977816, "lng": -98.459487
},{
"label": "Las Palmas", "lat": 19.961187, "lng": -98.584222
},{
"label": "Los Ángeles (La Paila)", "lat": 19.993949, "lng": -98.452598
},{
"label": "La Gaspareña", "lat": 19.969659, "lng": -98.502782
},{
"label": "Mirasoles Parte Alta", "lat": 19.978253, "lng": -98.469439
},{
"label": "San Carlos", "lat": 20.060439, "lng": -98.57101
},{
"label": "La Peñuela", "lat": 20.065053, "lng": -98.573811
},{
"label": "Monte Quieto", "lat": 20.023927, "lng": -98.48339
},{
"label": "Los Negritos", "lat": 19.963937, "lng": -98.509827
},{
"label": "La Comunidad", "lat": 19.982933, "lng": -98.508875
},{
"label": "Cuatro Palos", "lat": 20.019232, "lng": -98.496022
},{
"label": "Poza Rica", "lat": 19.951606, "lng": -98.494387
},{
"label": "La Esmeralda", "lat": 19.958964, "lng": -98.518066
},{
"label": "San Rafael", "lat": 19.951667, "lng": -98.5725
},{
"label": "Techoapa", "lat": 19.996693, "lng": -98.576806
},{
"label": "Villas del Sol", "lat": 20.031383, "lng": -98.476904
},{
"label": "Minillas", "lat": 19.995205, "lng": -98.526157
},{
"label": "El Listón", "lat": 19.934053, "lng": -98.505728
},{
"label": "San Ignacio", "lat": 19.985668, "lng": -98.38365
},{
"label": "Francisco I. Madero (Colonia Agrícola) [Colonia]", "lat": 19.910934, "lng": -98.458521
},{
"label": "El Gallito [Rancho]", "lat": 20.026042, "lng": -98.481946
},{
"label": "El Tesoro", "lat": 20.062263, "lng": -98.490148
},{
"label": "La Conchita", "lat": 19.936298, "lng": -98.525608
},{
"label": "El Cordero", "lat": 20.004644, "lng": -98.585697
},{
"label": "San José", "lat": 19.979264, "lng": -98.498986
},{
"label": "Hacienda Alfajayucan", "lat": 20.024323, "lng": -98.546657
},{
"label": "Las Marianas", "lat": 20.035319, "lng": -98.485247
},{
"label": "San Joaquín", "lat": 20.003767, "lng": -98.515404
},{
"label": "La Raya", "lat": 19.947914, "lng": -98.415139
},{
"label": "Arboledas", "lat": 20.036245, "lng": -98.522431
},{
"label": "El Toronjil", "lat": 19.965212, "lng": -98.527491
},{
"label": "Somorriel", "lat": 19.981723, "lng": -98.540079
},{
"label": "El Nopalillo", "lat": 20.062441, "lng": -98.583615
},{
"label": "Tlalayote", "lat": 19.97797, "lng": -98.430928
},{
"label": "El Varal", "lat": 20.010421, "lng": -98.518384
},{
"label": "Santa Ana Chichicuautla", "lat": 19.927596, "lng": -98.394771
},{
"label": "La Colmena", "lat": 20.041518, "lng": -98.479261
},{
"label": "El Carmen [Rancho]", "lat": 20.027201, "lng": -98.454928
},{
"label": "La Lagunita", "lat": 20.079208, "lng": -98.486473
},{
"label": "Cuatro Vientos", "lat": 19.954834, "lng": -98.5575
},{
"label": "El Mirador", "lat": 20.044612, "lng": -98.535813
},{
"label": "Los Rosales", "lat": 19.973847, "lng": -98.532893
},{
"label": "La Conchita (La Cantera)", "lat": 19.936664, "lng": -98.509081
},{
"label": "Xuchipango", "lat": 20.030462, "lng": -98.575909
},{
"label": "Caraballo", "lat": 19.983287, "lng": -98.520946
},{
"label": "Las Canoas", "lat": 19.90285, "lng": -98.455459
},{
"label": "San Cayetano", "lat": 20.047222, "lng": -98.595
},{
"label": "Jalapilla", "lat": 20.014642, "lng": -98.595165
},{
"label": "Ampliación el Varal", "lat": 20.027308, "lng": -98.551437
},{
"label": "Aguayutla", "lat": 20.03341, "lng": -98.548747
},{
"label": "La Herradura", "lat": 20.008821, "lng": -98.549002
},{
"label": "El Campamento", "lat": 20.033115, "lng": -98.579972
},{
"label": "El Cebadal", "lat": 19.95921, "lng": -98.501329
},{
"label": "Tecanecapa", "lat": 19.939536, "lng": -98.517184
},{
"label": "Pedernales", "lat": 19.985366, "lng": -98.537158
},{
"label": "La Providencia", "lat": 19.969234, "lng": -98.542414
},{
"label": "Cerro Colorado", "lat": 19.97922, "lng": -98.581126
},{
"label": "La Estancia (La Mora)", "lat": 19.954154, "lng": -98.477899
},{
"label": "San Pedro", "lat": 19.970254, "lng": -98.551768
},{
"label": "El Sustito", "lat": 20.045894, "lng": -98.525758
},{
"label": "Las Galeras", "lat": 19.950818, "lng": -98.382795
},{
"label": "La Cuchilla", "lat": 20.021293, "lng": -98.564297
},{
"label": "Mirasoles", "lat": 19.997531, "lng": -98.496878
},{
"label": "Los Pinos", "lat": 19.958214, "lng": -98.50781
},{
"label": "Matías Rodríguez", "lat": 20.03582, "lng": -98.532817
},{
"label": "Singuilucan", "lat": 19.9675, "lng": -98.517222
},{
"label": "La Venta Colorada", "lat": 19.993361, "lng": -98.515107
},{
"label": "Las Cruces", "lat": 19.959265, "lng": -98.523518
},{
"label": "Las Palomas", "lat": 20.058206, "lng": -98.510975
},{
"label": "Totolquemetl", "lat": 19.948317, "lng": -98.498423
},{
"label": "El Sueño (Los Morales)", "lat": 19.955328, "lng": -98.517597
},{
"label": "San Francisco Londres", "lat": 19.914328, "lng": -98.480086
},{
"label": "La Peña", "lat": 20.039038, "lng": -98.540479
},{
"label": "Las Pintas", "lat": 19.946038, "lng": -98.426298
},{
"label": "La Mora", "lat": 20.026231, "lng": -98.588491
},{
"label": "Las Minas", "lat": 20.0067, "lng": -98.526276
},{
"label": "San Nicolás Tecoaco", "lat": 20.041027, "lng": -98.587929
},{
"label": "La Rosa", "lat": 20.057778, "lng": -98.487778
},{
"label": "San Cristóbal el Chico", "lat": 19.988776, "lng": -98.579095
},{
"label": "Bosques del Ángel", "lat": 20.029002, "lng": -98.478388
},{
"label": "Colonia del Bosque", "lat": 19.973293, "lng": -98.509638
},{
"label": "El Susto", "lat": 20.05866, "lng": -98.496167
},{
"label": "La Paila", "lat": 20.03054, "lng": -98.505073
},{
"label": "Sabanetas", "lat": 19.990656, "lng": -98.425879
},{
"label": "San Luis Xuchitepec (Rancho Colorado)", "lat": 19.964532, "lng": -98.574772
},{
"label": "El Jazmín", "lat": 19.987903, "lng": -98.526461
},{
"label": "Chapultepec", "lat": 19.971316, "lng": -98.563859
},{
"label": "Los Olvera", "lat": 19.923318, "lng": -98.465418
},{
"label": "Ampliación el Sustito", "lat": 20.044334, "lng": -98.51254
},{
"label": "Francisco I. Madero", "lat": 19.901428, "lng": -98.478784
},{
"label": "La Virgen", "lat": 19.935203, "lng": -98.453986
},{
"label": "Rincón del Puerto", "lat": 20.054099, "lng": -98.520659
},{
"label": "Estación San Vicente", "lat": 19.958865, "lng": -98.565796
},{
"label": "El Venado", "lat": 19.980306, "lng": -98.565364
}]