[{
"label": "Fuentes de Tizayuca", "lat": 19.865522, "lng": -98.971774
},{
"label": "El Carmen", "lat": 19.884685, "lng": -98.955733
},{
"label": "María Candelaria [Rancho]", "lat": 19.852621, "lng": -98.928327
},{
"label": "El Manantial", "lat": 19.851635, "lng": -98.938727
},{
"label": "Valle de Tizayuca", "lat": 19.8866, "lng": -98.966489
},{
"label": "Ciudad Natura", "lat": 19.859621, "lng": -98.998407
},{
"label": "Ampliación Nueva Italia [Fraccionamiento]", "lat": 19.882056, "lng": -98.938858
},{
"label": "San Rafael (Kilómetro 57) [Rancho]", "lat": 19.884111, "lng": -98.941471
},{
"label": "San Isidro [Rancho]", "lat": 19.850292, "lng": -98.994798
},{
"label": "Ignacio Zaragoza (Mogotes)", "lat": 19.86394, "lng": -98.909956
},{
"label": "Huitzila-Tepojaco [Corredor Industrial]", "lat": 19.832422, "lng": -98.938231
},{
"label": "El Pedregal", "lat": 19.851951, "lng": -98.989588
},{
"label": "Eduardo Hernández", "lat": 19.853596, "lng": -99.003409
},{
"label": "Emiliano Zapata", "lat": 19.859964, "lng": -98.957634
},{
"label": "Nueva Unión", "lat": 19.893586, "lng": -98.946622
},{
"label": "Los Fuertes", "lat": 19.846722, "lng": -98.96045
},{
"label": "Tepojaco", "lat": 19.841987, "lng": -98.946151
},{
"label": "Crucero del Carmen", "lat": 19.881414, "lng": -98.944611
},{
"label": "Reino Unido [Fraccionamiento]", "lat": 19.881281, "lng": -98.941211
},{
"label": "El Tejocote [Rancho]", "lat": 19.853369, "lng": -98.926554
},{
"label": "La Posta", "lat": 19.842778, "lng": -98.930278
},{
"label": "Colonia Peregrinos", "lat": 19.887324, "lng": -98.941146
},{
"label": "Lomas Verdes [Colonia]", "lat": 19.873667, "lng": -98.950278
},{
"label": "Las Plazas", "lat": 19.871053, "lng": -98.942816
},{
"label": "San Antonio", "lat": 19.812586, "lng": -98.941942
},{
"label": "Bicentenario", "lat": 19.891644, "lng": -98.950556
},{
"label": "La Pista de Tizayuca", "lat": 19.878494, "lng": -98.940546
},{
"label": "La Providencia", "lat": 19.826694, "lng": -98.941901
},{
"label": "Huitzila", "lat": 19.813272, "lng": -98.958511
},{
"label": "Don Antonio", "lat": 19.873324, "lng": -98.935699
},{
"label": "San Pedro", "lat": 19.824275, "lng": -98.998064
},{
"label": "Flamingos [Balneario]", "lat": 19.851065, "lng": -98.947833
},{
"label": "Los Héroes Tizayuca", "lat": 19.862056, "lng": -98.987517
},{
"label": "Hacienda de Guadalupe", "lat": 19.871389, "lng": -98.945591
},{
"label": "La Ilusión (La Casa del Manantial) [Rancho]", "lat": 19.84902, "lng": -98.931171
},{
"label": "Nueva Italia [Fraccionamiento]", "lat": 19.881417, "lng": -98.939883
},{
"label": "San José II", "lat": 19.887858, "lng": -98.970619
},{
"label": "Tizayuca", "lat": 19.841089, "lng": -98.981584
},{
"label": "El Cid", "lat": 19.866375, "lng": -98.926376
},{
"label": "Haciendas de Tizayuca", "lat": 19.874116, "lng": -98.959582
},{
"label": "El Chopo", "lat": 19.844438, "lng": -98.916621
},{
"label": "Olmos", "lat": 19.878745, "lng": -98.926899
}]