[{
"label": "La Concordia", "lat": 20.812685, "lng": -99.004297
},{
"label": "El Nenfi", "lat": 20.885735, "lng": -98.927701
},{
"label": "Chichicaxtla", "lat": 20.788779, "lng": -99.065033
},{
"label": "Nuevo Morelos", "lat": 20.884309, "lng": -98.902389
},{
"label": "Tlaxcantitla", "lat": 20.867086, "lng": -98.896996
},{
"label": "El Borbollón", "lat": 20.918351, "lng": -98.926983
},{
"label": "Buenavista", "lat": 20.991357, "lng": -98.97503
},{
"label": "Calderones", "lat": 20.91235, "lng": -98.909908
},{
"label": "Tierra Blanca", "lat": 20.91722, "lng": -98.940218
},{
"label": "Agua Grande", "lat": 20.909659, "lng": -98.90753
},{
"label": "Buena Vista", "lat": 20.906714, "lng": -98.906521
},{
"label": "Media Luna", "lat": 20.715631, "lng": -99.0085
},{
"label": "Nuevo Zacatlán (El Zacate)", "lat": 20.936025, "lng": -98.92482
},{
"label": "Tlahuiltepa", "lat": 20.923913, "lng": -98.950201
},{
"label": "El Somerial", "lat": 20.977594, "lng": -98.98845
},{
"label": "El Zancudo", "lat": 20.806268, "lng": -98.974821
},{
"label": "Majua", "lat": 20.969686, "lng": -98.926161
},{
"label": "Agua Tapada", "lat": 20.974614, "lng": -99.001296
},{
"label": "Cerro del Águila", "lat": 20.887933, "lng": -98.987519
},{
"label": "Santiago", "lat": 20.908591, "lng": -99.028569
},{
"label": "El Palmillar", "lat": 20.883574, "lng": -98.993656
},{
"label": "El Picacho", "lat": 20.970025, "lng": -98.982051
},{
"label": "La Escondida", "lat": 20.885761, "lng": -99.009327
},{
"label": "Tonchi", "lat": 20.868219, "lng": -99.015483
},{
"label": "Nemixi", "lat": 20.932806, "lng": -98.890375
},{
"label": "El Palmar", "lat": 20.751116, "lng": -99.011787
},{
"label": "Tierra Seca", "lat": 20.899293, "lng": -98.907785
},{
"label": "Palo Perdido", "lat": 20.936517, "lng": -98.997931
},{
"label": "San Jerónimo", "lat": 20.958103, "lng": -98.908523
},{
"label": "La Era", "lat": 20.838469, "lng": -98.918216
},{
"label": "El Álamo", "lat": 20.793903, "lng": -98.964149
},{
"label": "Guadalupe", "lat": 20.988499, "lng": -98.956154
},{
"label": "El Sarro", "lat": 21.006511, "lng": -98.970186
},{
"label": "Agua Fría (La Laguna)", "lat": 21.014007, "lng": -98.961961
},{
"label": "El Aviadero", "lat": 20.854606, "lng": -98.903323
},{
"label": "Agua Zarca", "lat": 20.838505, "lng": -98.91252
},{
"label": "Piedra Parada", "lat": 20.758838, "lng": -98.964491
},{
"label": "Tolantongo", "lat": 20.648844, "lng": -98.987788
},{
"label": "Cangui", "lat": 20.819601, "lng": -99.062327
},{
"label": "Las Canoas (Vado Hondo)", "lat": 20.959341, "lng": -99.042197
},{
"label": "Jilguero", "lat": 20.875226, "lng": -98.96869
},{
"label": "La Barranca", "lat": 20.886594, "lng": -98.879892
},{
"label": "Barrio de Guadalupe", "lat": 20.916421, "lng": -98.869965
},{
"label": "Lindavista", "lat": 20.917154, "lng": -98.946597
},{
"label": "El Boto", "lat": 20.982219, "lng": -99.037498
},{
"label": "El Puerto", "lat": 20.975851, "lng": -99.014572
},{
"label": "Dominí", "lat": 20.985093, "lng": -98.967085
},{
"label": "El Encinalito", "lat": 20.981421, "lng": -98.990993
},{
"label": "El Orégano", "lat": 20.832599, "lng": -98.922248
},{
"label": "El Roble", "lat": 20.761272, "lng": -99.062207
},{
"label": "El Bexu", "lat": 20.965179, "lng": -99.034119
},{
"label": "San Antonio", "lat": 20.947226, "lng": -98.884496
},{
"label": "El Magani", "lat": 20.942729, "lng": -98.970899
},{
"label": "Cerro Chato", "lat": 20.865296, "lng": -98.946177
},{
"label": "El Llano", "lat": 20.965837, "lng": -99.007679
},{
"label": "Los Tigres", "lat": 20.949367, "lng": -98.910666
},{
"label": "El Maguey", "lat": 20.931167, "lng": -98.909123
},{
"label": "Puerto el Paichle", "lat": 20.952557, "lng": -98.931266
},{
"label": "Rancho de la Loma", "lat": 20.805021, "lng": -99.083026
},{
"label": "El Embocadero", "lat": 20.957095, "lng": -98.942594
},{
"label": "Coyocala", "lat": 20.951626, "lng": -98.897846
},{
"label": "Tenango", "lat": 20.771696, "lng": -98.998609
},{
"label": "San Andrés Miraflores", "lat": 20.801061, "lng": -99.002516
},{
"label": "El Fresno", "lat": 20.928016, "lng": -99.038933
},{
"label": "La Mesa", "lat": 20.932039, "lng": -98.979365
},{
"label": "Nuevo Monterrey", "lat": 20.978699, "lng": -98.895297
},{
"label": "Naranjalito", "lat": 20.988464, "lng": -98.981211
},{
"label": "Boca de León", "lat": 20.990854, "lng": -98.995752
},{
"label": "Las Manzanas", "lat": 20.768961, "lng": -99.065714
},{
"label": "Las Pilas", "lat": 20.972285, "lng": -99.028062
},{
"label": "San Andresito", "lat": 20.819521, "lng": -99.011969
},{
"label": "La Ventana", "lat": 21.006854, "lng": -98.953863
},{
"label": "La Laguna", "lat": 20.776503, "lng": -98.985812
},{
"label": "Demañi", "lat": 20.928823, "lng": -98.991903
},{
"label": "Las Manzanitas", "lat": 20.928283, "lng": -98.982497
},{
"label": "La Barranca (El Somerial)", "lat": 20.958936, "lng": -99.033707
},{
"label": "Yerbabuena (El Puerto)", "lat": 20.826037, "lng": -98.994881
},{
"label": "La Nueva Reforma", "lat": 20.928023, "lng": -98.94978
},{
"label": "Agua Fría", "lat": 21.012223, "lng": -98.968737
},{
"label": "El Ocotal", "lat": 20.918664, "lng": -98.972511
},{
"label": "Agua Fría (El Guayabal)", "lat": 21.016565, "lng": -98.970934
},{
"label": "Agua del Capulín (El Capulín)", "lat": 20.839036, "lng": -98.903139
},{
"label": "Las Canoas", "lat": 20.972401, "lng": -98.98705
},{
"label": "Amajac (La Maroma)", "lat": 20.773986, "lng": -98.967242
},{
"label": "El Conizal", "lat": 20.968149, "lng": -98.999336
},{
"label": "Rancho Nuevo (Xiopa)", "lat": 20.816751, "lng": -99.073703
},{
"label": "Nuevo Reynosa (Cinco Palos)", "lat": 20.964418, "lng": -98.889033
},{
"label": "El Duraznito", "lat": 20.939387, "lng": -99.016648
},{
"label": "Camarones", "lat": 20.695383, "lng": -98.990924
},{
"label": "Xilitla", "lat": 20.791853, "lng": -98.941596
},{
"label": "Acapa (Santiago Acapa)", "lat": 20.902226, "lng": -98.901808
},{
"label": "Zaragoza", "lat": 20.908339, "lng": -98.913839
},{
"label": "Rancho Viejo (Rancho Nuevo)", "lat": 20.978818, "lng": -98.925483
},{
"label": "Cajete", "lat": 21.002933, "lng": -98.978258
},{
"label": "El Garabato", "lat": 20.787051, "lng": -98.96485
},{
"label": "La Nueva Era", "lat": 20.986596, "lng": -98.911888
},{
"label": "La Guayaba", "lat": 20.650489, "lng": -98.954466
},{
"label": "El Tejocote", "lat": 20.915644, "lng": -98.944386
},{
"label": "Itztamichapa", "lat": 20.803069, "lng": -98.957094
},{
"label": "Lázaro Cárdenas", "lat": 20.808911, "lng": -98.969596
},{
"label": "Cerro del León (El Cerrito)", "lat": 20.966004, "lng": -98.865172
},{
"label": "Rancho Viejo", "lat": 20.774311, "lng": -98.980161
},{
"label": "Barrio el Mirador (La Capilla)", "lat": 20.921416, "lng": -98.947754
},{
"label": "La Rinconada", "lat": 20.807474, "lng": -98.960216
},{
"label": "Manuel Cruz Barrera", "lat": 20.652366, "lng": -99.004449
},{
"label": "La Yesca", "lat": 20.830671, "lng": -98.917766
},{
"label": "Xuchiatipa", "lat": 21.01998, "lng": -98.951648
},{
"label": "Agua del Cuervo", "lat": 20.821992, "lng": -98.927831
},{
"label": "San Marcos", "lat": 20.802471, "lng": -98.928817
},{
"label": "Cerro Grande", "lat": 20.963235, "lng": -98.917218
},{
"label": "Santo Domingo", "lat": 20.940283, "lng": -98.860985
},{
"label": "Piedra Colorada", "lat": 20.811435, "lng": -98.949848
},{
"label": "Los Tigres (Antíoco Morales Velázquez)", "lat": 20.943458, "lng": -98.913178
},{
"label": "Xiopa", "lat": 20.801876, "lng": -99.049973
},{
"label": "El Ocote", "lat": 20.948774, "lng": -98.965205
},{
"label": "Catí", "lat": 20.929699, "lng": -98.882836
},{
"label": "La Ciruela", "lat": 20.989831, "lng": -98.989299
},{
"label": "Los Frijolares", "lat": 20.97825, "lng": -98.958292
},{
"label": "San Antonio (El Ojo de Agua)", "lat": 20.954334, "lng": -98.87992
},{
"label": "Agua del Ocote", "lat": 20.835653, "lng": -98.916607
},{
"label": "El Dominí", "lat": 20.909669, "lng": -98.891345
},{
"label": "San Francisco", "lat": 20.956289, "lng": -98.952779
},{
"label": "La Unión", "lat": 20.928692, "lng": -98.937263
},{
"label": "El Aguacate", "lat": 21.026684, "lng": -98.954774
},{
"label": "El Limoncito", "lat": 20.984291, "lng": -98.983121
},{
"label": "Profesor Raciel Salcedo Rangel (El Duraznito)", "lat": 20.989078, "lng": -98.940845
},{
"label": "Barranca del Cerro del Águila (Barranca Seca)", "lat": 20.825152, "lng": -98.940879
},{
"label": "La Soledad", "lat": 20.952906, "lng": -98.979662
},{
"label": "Xilocuatitla (El Puerto de Xilocuatitla)", "lat": 20.979912, "lng": -98.916939
},{
"label": "El Bordo (Manzana Chata)", "lat": 20.921197, "lng": -98.9959
},{
"label": "El Venado", "lat": 20.91464, "lng": -98.988467
}]