[{
"label": "Cerro el Gavilán", "lat": 20.132252, "lng": -99.191264
},{
"label": "Miravalle", "lat": 20.146111, "lng": -99.215556
},{
"label": "La Providencia", "lat": 20.139472, "lng": -99.215044
},{
"label": "El Sauz", "lat": 20.120321, "lng": -99.205529
},{
"label": "Colonia Cuauhtémoc", "lat": 20.140009, "lng": -99.240123
},{
"label": "La Media Luna", "lat": 20.133726, "lng": -99.236838
},{
"label": "El Gavillero", "lat": 20.124167, "lng": -99.249444
},{
"label": "Tlahuelilpan", "lat": 20.130627, "lng": -99.23468
},{
"label": "La Mercadela", "lat": 20.116663, "lng": -99.228732
},{
"label": "Dexhe", "lat": 20.121495, "lng": -99.232732
},{
"label": "San Gregorio", "lat": 20.121554, "lng": -99.219984
},{
"label": "El Monte", "lat": 20.104159, "lng": -99.269169
},{
"label": "Munitepec de Madero", "lat": 20.129035, "lng": -99.198743
},{
"label": "El Salitre", "lat": 20.126484, "lng": -99.235206
},{
"label": "Bugambilias [Rancho]", "lat": 20.140278, "lng": -99.225556
},{
"label": "Cerro de Gómez [Colonia]", "lat": 20.135653, "lng": -99.197365
},{
"label": "Guadalupe (Cerro del Tezontle) [Colonia]", "lat": 20.149221, "lng": -99.227283
},{
"label": "Cerro de la Cruz [Colonia]", "lat": 20.144564, "lng": -99.225194
}]