[{
"label": "El Reintegro", "lat": 26.888993, "lng": -105.34213
},{
"label": "Peñuelas", "lat": 26.679226, "lng": -105.297544
},{
"label": "Ninguno [Manuel Guillén]", "lat": 26.975161, "lng": -105.380597
},{
"label": "El Carmen", "lat": 27.205143, "lng": -105.044886
},{
"label": "Estación Adela (San Gregorio)", "lat": 27.023428, "lng": -105.497969
},{
"label": "Rancho Daraíto", "lat": 27.027093, "lng": -105.330663
},{
"label": "Talamantes", "lat": 26.91385, "lng": -105.435428
},{
"label": "Las Garzas", "lat": 26.789493, "lng": -105.269061
},{
"label": "Torreón de Mata", "lat": 26.846434, "lng": -105.364537
},{
"label": "Rancho Prieto", "lat": 26.937937, "lng": -105.406982
},{
"label": "Plan de Ayala", "lat": 27.312939, "lng": -105.191805
},{
"label": "El Dorado", "lat": 27.27284, "lng": -105.136921
},{
"label": "El Pozo [Jaime Ramos]", "lat": 27.233725, "lng": -105.038967
},{
"label": "El Rosario", "lat": 26.928338, "lng": -105.41369
},{
"label": "El Pozo", "lat": 26.92526, "lng": -105.283794
},{
"label": "La Viña de Talamantes de Arriba", "lat": 26.904327, "lng": -105.443923
},{
"label": "Los Conchos [Huerta]", "lat": 26.994086, "lng": -105.307272
},{
"label": "La Fe", "lat": 27.208484, "lng": -105.045908
},{
"label": "Guadalupe de Almolaya", "lat": 27.155106, "lng": -105.235814
},{
"label": "Estación Dorado", "lat": 27.125966, "lng": -105.348846
},{
"label": "Colonia Progreso (El Dorado)", "lat": 27.128238, "lng": -105.332516
},{
"label": "La Haciendita Fiereña", "lat": 26.99191, "lng": -105.312279
},{
"label": "Santa Ana de Prado", "lat": 26.974609, "lng": -105.312323
},{
"label": "San Isidro", "lat": 27.283595, "lng": -105.148431
},{
"label": "Santa Lucía", "lat": 27.348409, "lng": -105.15505
},{
"label": "La Joya", "lat": 26.950101, "lng": -105.366917
},{
"label": "Santa Martha", "lat": 26.952372, "lng": -105.361886
},{
"label": "La Tabla", "lat": 27.083934, "lng": -105.385297
},{
"label": "Santa Teresa", "lat": 27.284626, "lng": -105.137089
},{
"label": "El Hangar", "lat": 26.971214, "lng": -105.405797
},{
"label": "El Mimbre", "lat": 26.923231, "lng": -105.316681
},{
"label": "Ninguno [Benito Regalado]", "lat": 26.976286, "lng": -105.323422
},{
"label": "La Manzana", "lat": 27.296953, "lng": -105.176978
},{
"label": "Ojuelos", "lat": 27.139745, "lng": -105.512679
},{
"label": "San Antonio del Alto Corralejo", "lat": 27.086209, "lng": -105.393917
},{
"label": "La Marusa", "lat": 26.991116, "lng": -105.387239
},{
"label": "La Vara", "lat": 26.950467, "lng": -105.461621
},{
"label": "La Flor", "lat": 26.881578, "lng": -105.203281
},{
"label": "Ninguno", "lat": 26.949297, "lng": -105.378776
},{
"label": "Chupaderos", "lat": 26.974239, "lng": -105.498323
},{
"label": "El Cinco", "lat": 27.304701, "lng": -105.143013
},{
"label": "San Agustín", "lat": 27.161843, "lng": -105.171546
},{
"label": "La Cabaña", "lat": 26.974238, "lng": -105.471867
},{
"label": "El Uno", "lat": 27.315691, "lng": -105.174012
},{
"label": "El Tarahumara (Los Juncos)", "lat": 27.17766, "lng": -105.269553
},{
"label": "La Haciendita", "lat": 26.953517, "lng": -105.373403
},{
"label": "Ninguno [Huerta]", "lat": 26.9879, "lng": -105.308578
},{
"label": "Santa Rosa", "lat": 27.300292, "lng": -105.159929
},{
"label": "El Álamo", "lat": 27.012052, "lng": -105.462368
},{
"label": "La Palma", "lat": 26.854447, "lng": -105.283387
},{
"label": "Los Jacales", "lat": 26.997211, "lng": -105.300032
},{
"label": "El Verano", "lat": 27.078849, "lng": -105.386639
},{
"label": "Pénjamo", "lat": 26.832704, "lng": -105.188897
},{
"label": "Santa Mónica (El Seis)", "lat": 27.300369, "lng": -105.129529
},{
"label": "Ejido las Auras", "lat": 27.146838, "lng": -105.311101
},{
"label": "Ignacio Ramírez", "lat": 27.279882, "lng": -105.180926
},{
"label": "Ninguno [Efrén Hernández]", "lat": 26.999806, "lng": -105.282097
},{
"label": "La Espuela", "lat": 26.987846, "lng": -105.412031
},{
"label": "Don Trini [Huerta]", "lat": 26.974294, "lng": -105.301111
},{
"label": "Agua Fría (Barricada)", "lat": 27.213926, "lng": -105.240796
},{
"label": "Nogales (San José)", "lat": 27.314757, "lng": -105.144482
},{
"label": "El 4M [Huerta]", "lat": 26.940866, "lng": -105.37704
},{
"label": "La Magdalena", "lat": 26.85423, "lng": -105.295254
},{
"label": "Colonia Búfalo", "lat": 27.299502, "lng": -105.174255
},{
"label": "Patitos", "lat": 27.240725, "lng": -105.331427
},{
"label": "El Desierto", "lat": 26.845996, "lng": -105.332564
},{
"label": "El Edén", "lat": 27.112169, "lng": -105.440293
},{
"label": "La Parra", "lat": 27.276408, "lng": -105.038093
},{
"label": "Ninguno [Jesús Horacio Soto Armendáriz]", "lat": 26.916144, "lng": -105.265181
},{
"label": "General Felipe Ángeles", "lat": 27.279663, "lng": -105.206959
},{
"label": "San Antonio", "lat": 26.954218, "lng": -105.356726
},{
"label": "El Canelo", "lat": 27.333539, "lng": -105.213596
},{
"label": "San Florencio", "lat": 27.112693, "lng": -105.358112
},{
"label": "Rancho de Arriba", "lat": 26.962519, "lng": -105.481476
},{
"label": "Las Carolinas", "lat": 27.295078, "lng": -105.177973
},{
"label": "Punta de Agua", "lat": 27.266099, "lng": -105.207897
},{
"label": "San Rafael", "lat": 27.228133, "lng": -105.240486
},{
"label": "El Refugio", "lat": 26.777951, "lng": -105.302751
},{
"label": "La Aguja", "lat": 27.202124, "lng": -105.159766
},{
"label": "Molinares", "lat": 26.976409, "lng": -105.335081
},{
"label": "La Trinidad", "lat": 27.184206, "lng": -105.203646
},{
"label": "El Volcán", "lat": 27.340129, "lng": -105.155341
},{
"label": "Estación Morita", "lat": 27.05149, "lng": -105.455834
},{
"label": "El Ojo de Talamantes", "lat": 26.902164, "lng": -105.455083
},{
"label": "El Porvenir", "lat": 26.920789, "lng": -105.425699
},{
"label": "Los Arenales", "lat": 27.309969, "lng": -105.179223
},{
"label": "El Rincón del Ancón (Los Quiroz)", "lat": 26.926753, "lng": -105.42355
},{
"label": "Los Desmontes", "lat": 26.838901, "lng": -105.312751
},{
"label": "San Juan [Huerta]", "lat": 26.985652, "lng": -105.310896
},{
"label": "Ninguno [Guillermo Baca]", "lat": 26.989811, "lng": -105.283919
},{
"label": "Santa Ana", "lat": 26.971869, "lng": -105.310814
},{
"label": "Las Hilachas", "lat": 26.959652, "lng": -105.349324
},{
"label": "Troya", "lat": 27.142054, "lng": -105.195519
},{
"label": "El Tecolote", "lat": 27.340031, "lng": -105.220835
},{
"label": "Las Delicias", "lat": 26.865509, "lng": -105.254536
},{
"label": "La Aurora", "lat": 27.297382, "lng": -105.149378
},{
"label": "El Gato", "lat": 27.183301, "lng": -105.308293
},{
"label": "El Cuatro", "lat": 26.938505, "lng": -105.427459
},{
"label": "Las Margaritas", "lat": 26.931306, "lng": -105.409766
},{
"label": "San Miguel", "lat": 26.944369, "lng": -105.37973
},{
"label": "El Mirador", "lat": 26.950182, "lng": -105.378074
},{
"label": "San Gregorio", "lat": 27.00807, "lng": -105.493641
},{
"label": "Santa Prisca", "lat": 26.955327, "lng": -105.366536
},{
"label": "Rarámuri (La Manga)", "lat": 27.193496, "lng": -105.3387
},{
"label": "La Huanaja", "lat": 26.928444, "lng": -105.406117
},{
"label": "La Rosita", "lat": 26.934458, "lng": -105.406307
},{
"label": "Santa Eduviges", "lat": 27.301569, "lng": -105.165913
},{
"label": "La Y Griega", "lat": 26.957754, "lng": -105.404047
},{
"label": "Mesa las Hormigas (Los Alamitos)", "lat": 26.972348, "lng": -105.457733
},{
"label": "María Luisa", "lat": 27.311329, "lng": -105.135042
},{
"label": "Fracción la Porreña", "lat": 27.01078, "lng": -105.250398
},{
"label": "Rancho Julimes", "lat": 27.287165, "lng": -105.419874
},{
"label": "El Retiro de Mascareñas", "lat": 27.330739, "lng": -105.123381
},{
"label": "El Tigre", "lat": 26.917583, "lng": -105.434564
},{
"label": "Santa María", "lat": 26.910863, "lng": -105.445739
},{
"label": "Ampliación Felipe Ángeles", "lat": 27.298747, "lng": -105.191851
},{
"label": "El Triángulo", "lat": 26.981797, "lng": -105.428733
},{
"label": "Abel", "lat": 27.318152, "lng": -105.153389
},{
"label": "Ninguno [Manuel Cuevas]", "lat": 26.937811, "lng": -105.225542
},{
"label": "Los Estrada (Baca)", "lat": 27.141015, "lng": -105.299683
},{
"label": "Santa Cruz", "lat": 27.159552, "lng": -105.297447
},{
"label": "El Machete", "lat": 26.903738, "lng": -105.308364
},{
"label": "Las Joyitas de Santa Ana", "lat": 26.973728, "lng": -105.322897
},{
"label": "El Tres", "lat": 27.311241, "lng": -105.161717
},{
"label": "Agua Fría Alfareña", "lat": 27.194514, "lng": -105.263202
},{
"label": "El Ojito", "lat": 27.062123, "lng": -105.466644
},{
"label": "La Labor", "lat": 26.849301, "lng": -105.302107
},{
"label": "San Federico", "lat": 27.283386, "lng": -105.152899
},{
"label": "El Carmen y Anexos", "lat": 26.872881, "lng": -105.221489
},{
"label": "El Durazno", "lat": 26.906667, "lng": -105.473333
},{
"label": "Rancho Blanco", "lat": 26.993132, "lng": -105.264528
},{
"label": "Valle de Ignacio Allende", "lat": 26.939426, "lng": -105.395077
},{
"label": "Santa Isabel", "lat": 26.968071, "lng": -105.354071
},{
"label": "San Ángel", "lat": 26.812275, "lng": -105.249599
},{
"label": "Los Milagros", "lat": 27.08294, "lng": -105.40412
},{
"label": "San Abel", "lat": 26.999881, "lng": -105.317627
},{
"label": "Rosas", "lat": 27.323786, "lng": -105.166536
},{
"label": "Rancho de Enmedio (El Carmen)", "lat": 26.882046, "lng": -105.176877
},{
"label": "Temporales", "lat": 27.352449, "lng": -105.192934
},{
"label": "Ojo de Almoloya", "lat": 27.128491, "lng": -105.217749
},{
"label": "Almoloya", "lat": 27.150088, "lng": -105.185431
},{
"label": "El Amparo", "lat": 26.859114, "lng": -105.251423
},{
"label": "Los Montes (Jerusalén)", "lat": 26.956881, "lng": -105.37083
},{
"label": "El Milagro", "lat": 27.293216, "lng": -105.163002
},{
"label": "La Casita", "lat": 26.741941, "lng": -105.243117
},{
"label": "El Santorini", "lat": 26.978632, "lng": -105.411033
},{
"label": "La Esperanza", "lat": 26.959511, "lng": -105.363864
},{
"label": "El Presón de Esmeralda", "lat": 27.134897, "lng": -105.312572
},{
"label": "Pueblito de Allende", "lat": 26.987778, "lng": -105.325278
},{
"label": "El Dos", "lat": 27.313964, "lng": -105.169642
},{
"label": "San Francisco", "lat": 26.977492, "lng": -105.304906
},{
"label": "San Francisco de Almoloya", "lat": 27.125512, "lng": -105.265112
},{
"label": "La Concepción", "lat": 26.813106, "lng": -105.228371
},{
"label": "La Josefina", "lat": 27.029399, "lng": -105.329313
},{
"label": "San José de los Medina", "lat": 26.851554, "lng": -105.278969
},{
"label": "Rancho Walterio", "lat": 27.062931, "lng": -105.439465
},{
"label": "San Juan de Allende", "lat": 27.005104, "lng": -105.283771
},{
"label": "Los Temporales", "lat": 26.978133, "lng": -105.392175
},{
"label": "El Bosque", "lat": 26.789102, "lng": -105.289498
},{
"label": "Crucero el Dorado", "lat": 27.01839, "lng": -105.294685
},{
"label": "Los Girasoles", "lat": 26.976903, "lng": -105.399326
}]