[{
"label": "Granja Río Conchos", "lat": 28.087329, "lng": -105.318238
},{
"label": "Lagunetas", "lat": 28.047424, "lng": -104.973147
},{
"label": "El Pajarito", "lat": 28.145972, "lng": -105.196531
},{
"label": "El Colibrí", "lat": 28.202713, "lng": -105.30967
},{
"label": "Tacubaya II", "lat": 28.0832, "lng": -105.34627
},{
"label": "Granja Carlos Loya", "lat": 28.025766, "lng": -105.308793
},{
"label": "Rosalío Hernández", "lat": 27.969605, "lng": -105.264691
},{
"label": "La Rosetilla", "lat": 28.255729, "lng": -105.298444
},{
"label": "Ronquillo", "lat": 28.026734, "lng": -104.905777
},{
"label": "Altamira", "lat": 28.19862, "lng": -105.354321
},{
"label": "Matías Bejarano", "lat": 28.04824, "lng": -105.321545
},{
"label": "Rancho la Pollera (Cuatro Hermanos)", "lat": 28.040293, "lng": -105.277794
},{
"label": "El Chimino", "lat": 28.04959, "lng": -105.185392
},{
"label": "Tres Veintidós", "lat": 28.144036, "lng": -105.361431
},{
"label": "Grupo los Sesenta y Siete [Asociación de Granjeros]", "lat": 28.043207, "lng": -105.342991
},{
"label": "Las Cuchillas", "lat": 27.863919, "lng": -105.314601
},{
"label": "Socorro Molina [Rancho]", "lat": 28.247605, "lng": -105.354933
},{
"label": "La Azteca", "lat": 27.906771, "lng": -105.697454
},{
"label": "No Me Olvides", "lat": 28.045195, "lng": -105.310225
},{
"label": "La Tortuga", "lat": 27.947686, "lng": -105.209731
},{
"label": "Rancho San Juan", "lat": 28.180872, "lng": -105.346294
},{
"label": "Tres Marías", "lat": 28.041763, "lng": -105.330855
},{
"label": "La Curva", "lat": 27.86799, "lng": -105.47879
},{
"label": "El Gomeño", "lat": 28.080834, "lng": -105.314653
},{
"label": "María de los Ángeles Martínez", "lat": 28.082878, "lng": -105.330924
},{
"label": "Salgadeño", "lat": 28.266025, "lng": -105.219876
},{
"label": "El Once", "lat": 27.961844, "lng": -105.254462
},{
"label": "La Adelita", "lat": 28.064958, "lng": -105.312875
},{
"label": "Santa Martha", "lat": 28.252375, "lng": -105.034188
},{
"label": "Roberto Burrola", "lat": 27.968268, "lng": -105.258234
},{
"label": "El Soldado", "lat": 27.748143, "lng": -105.47155
},{
"label": "San José de los Pozos", "lat": 28.101796, "lng": -105.031388
},{
"label": "San Francisco del Mezquital", "lat": 27.996707, "lng": -105.276376
},{
"label": "El Gato Negro (Veintiuno de Junio)", "lat": 28.087659, "lng": -105.335723
},{
"label": "San José de Colomo", "lat": 28.247027, "lng": -105.102916
},{
"label": "Cuadra los García", "lat": 28.188193, "lng": -105.335636
},{
"label": "El Mimbre", "lat": 27.81005, "lng": -105.323521
},{
"label": "Rancho la Quinta", "lat": 27.970261, "lng": -105.240386
},{
"label": "Guadalupe Martínez", "lat": 28.018806, "lng": -105.294318
},{
"label": "Las Julietas", "lat": 28.218484, "lng": -105.20137
},{
"label": "Ancón de Carros", "lat": 27.991724, "lng": -105.237408
},{
"label": "Nuevo Saucillo", "lat": 28.028043, "lng": -105.344632
},{
"label": "Rancho Ramón Aragón Chávez", "lat": 27.999288, "lng": -105.278504
},{
"label": "José Ahued", "lat": 28.162342, "lng": -105.361413
},{
"label": "René Cadena", "lat": 28.041386, "lng": -105.435192
},{
"label": "Las Potrancas [Rancho]", "lat": 28.240761, "lng": -105.350466
},{
"label": "La Floreña", "lat": 28.113126, "lng": -105.340118
},{
"label": "Ninguno", "lat": 28.041314, "lng": -105.280985
},{
"label": "Trincheras", "lat": 28.226018, "lng": -105.360571
},{
"label": "Rancho Salcido", "lat": 27.943127, "lng": -105.271578
},{
"label": "Trinidad Hernández", "lat": 28.045089, "lng": -105.321243
},{
"label": "Rancho Baeza", "lat": 28.110336, "lng": -105.323653
},{
"label": "Granja Río Grande", "lat": 28.018983, "lng": -105.32295
},{
"label": "Los Salas", "lat": 28.068357, "lng": -105.340625
},{
"label": "El Uno", "lat": 28.054167, "lng": -105.325653
},{
"label": "Sucirio", "lat": 28.003103, "lng": -105.258648
},{
"label": "La Palma", "lat": 28.028374, "lng": -105.331251
},{
"label": "Guadalupe", "lat": 28.069551, "lng": -105.338468
},{
"label": "Contrayerbas (Rancho de los Cueto)", "lat": 28.108086, "lng": -105.338226
},{
"label": "Los Huizaches", "lat": 28.011073, "lng": -105.282694
},{
"label": "Mi Ranchito (Los Acosta)", "lat": 28.056127, "lng": -105.325638
},{
"label": "La Venada", "lat": 28.006776, "lng": -104.837151
},{
"label": "Valparaíso", "lat": 28.189179, "lng": -105.356186
},{
"label": "Rancho la Otra", "lat": 27.960717, "lng": -105.281224
},{
"label": "Granja María Elena", "lat": 28.029516, "lng": -105.317117
},{
"label": "Pueblo Quieto", "lat": 28.23278, "lng": -105.350648
},{
"label": "Rancho de Jesús Gallegos", "lat": 28.1868, "lng": -105.336268
},{
"label": "Santa Ofelia", "lat": 27.942136, "lng": -105.255735
},{
"label": "La Cuadra", "lat": 28.069162, "lng": -105.311069
},{
"label": "Los Tres Sietes", "lat": 28.172318, "lng": -105.346178
},{
"label": "Ampliación Colonia Altamirano", "lat": 28.125661, "lng": -105.358698
},{
"label": "Rancho San Luis", "lat": 28.079536, "lng": -105.315356
},{
"label": "El Retiro", "lat": 28.104897, "lng": -105.300417
},{
"label": "Rancho Carrasco", "lat": 28.062318, "lng": -105.309564
},{
"label": "La Remonta", "lat": 27.971876, "lng": -105.505182
},{
"label": "Los Baeza", "lat": 28.021911, "lng": -105.32214
},{
"label": "La Chaveña", "lat": 28.055885, "lng": -105.341255
},{
"label": "Los Martínez II", "lat": 27.979192, "lng": -105.234988
},{
"label": "San Carlos", "lat": 28.044538, "lng": -105.310432
},{
"label": "Colonia Vicente Guerrero", "lat": 28.034713, "lng": -105.31575
},{
"label": "El Cozón", "lat": 28.045384, "lng": -105.285151
},{
"label": "La Venadita", "lat": 28.051469, "lng": -105.447923
},{
"label": "La Pedrera", "lat": 28.014614, "lng": -105.300147
},{
"label": "El Torito", "lat": 28.23323, "lng": -105.345336
},{
"label": "El Socorro", "lat": 28.175966, "lng": -105.068277
},{
"label": "El Delfín [Club de Pesca]", "lat": 28.197649, "lng": -105.310196
},{
"label": "El Sesenta", "lat": 27.984409, "lng": -105.275414
},{
"label": "Rancho Nogales", "lat": 28.010481, "lng": -105.312366
},{
"label": "Santa Ofelia (Charco Azul) [Corrales]", "lat": 27.932215, "lng": -105.262384
},{
"label": "Colonia Altamirano (Loma Grande)", "lat": 28.129422, "lng": -105.350417
},{
"label": "Laguna Seca", "lat": 27.952006, "lng": -105.345758
},{
"label": "Palma Sola", "lat": 28.065339, "lng": -105.325647
},{
"label": "El Cueteño", "lat": 28.191556, "lng": -105.339434
},{
"label": "El Refugio [Viveros]", "lat": 27.980338, "lng": -105.261305
},{
"label": "El Cadillo", "lat": 28.004378, "lng": -105.285181
},{
"label": "Tres Hermanos", "lat": 28.22382, "lng": -105.349171
},{
"label": "El Parreño", "lat": 28.042029, "lng": -105.266179
},{
"label": "El Rincón", "lat": 27.906044, "lng": -105.500458
},{
"label": "Puerto del Toro", "lat": 27.964771, "lng": -105.231975
},{
"label": "El Ciento Veintinueve", "lat": 28.11133, "lng": -105.354473
},{
"label": "Rancho el Socorro", "lat": 28.020836, "lng": -105.285243
},{
"label": "La Viña", "lat": 28.076763, "lng": -105.359736
},{
"label": "Los Alvarado", "lat": 28.039326, "lng": -105.318086
},{
"label": "Rancho de Madero", "lat": 28.116452, "lng": -105.311793
},{
"label": "Cerro Solo", "lat": 27.733988, "lng": -105.577039
},{
"label": "Rancho Guerrero Hernández", "lat": 27.965511, "lng": -105.249441
},{
"label": "Granja Molina", "lat": 28.120833, "lng": -105.343056
},{
"label": "La Aurora", "lat": 28.001671, "lng": -105.278948
},{
"label": "Los Llorones", "lat": 28.026044, "lng": -105.308515
},{
"label": "Santo Tomás", "lat": 28.109874, "lng": -105.339536
},{
"label": "El Gavilán (La Presa)", "lat": 27.941407, "lng": -105.202473
},{
"label": "Las Carboneras", "lat": 28.309306, "lng": -105.260121
},{
"label": "La Presita", "lat": 28.039472, "lng": -105.277572
},{
"label": "El Jacalito", "lat": 28.072309, "lng": -105.311394
},{
"label": "Margaritas", "lat": 28.239793, "lng": -105.352389
},{
"label": "Jesús Faudoa", "lat": 28.01568, "lng": -105.326478
},{
"label": "Huerta Aurora", "lat": 28.052305, "lng": -105.302145
},{
"label": "Santa Eduviges", "lat": 27.976933, "lng": -105.246076
},{
"label": "El Membrillo", "lat": 28.150756, "lng": -105.352026
},{
"label": "Las Alvareñas", "lat": 28.126815, "lng": -105.339363
},{
"label": "La Rabona", "lat": 28.284763, "lng": -105.163636
},{
"label": "Rancho Santa Librada", "lat": 28.005767, "lng": -105.300199
},{
"label": "Ninguno [Luis Carlos Martínez Amparan]", "lat": 28.178016, "lng": -105.345824
},{
"label": "Fátima", "lat": 28.052308, "lng": -105.346016
},{
"label": "Granja Santa Mónica", "lat": 28.140833, "lng": -105.341315
},{
"label": "Granja Bunsow", "lat": 28.179131, "lng": -105.354094
},{
"label": "La Famosa División del Norte (Tortuguillas)", "lat": 27.934377, "lng": -105.381888
},{
"label": "Las Helenas", "lat": 28.156161, "lng": -105.361115
},{
"label": "San Martín [Granja]", "lat": 28.02183, "lng": -105.325632
},{
"label": "Aguirreño", "lat": 28.142959, "lng": -105.339792
},{
"label": "Picacho de Abajo (Urruteño)", "lat": 27.86877, "lng": -105.338668
},{
"label": "Santa María", "lat": 28.040753, "lng": -105.310045
},{
"label": "Parritas", "lat": 27.989606, "lng": -105.233359
},{
"label": "María", "lat": 28.105701, "lng": -105.35065
},{
"label": "Don Pedro [Granja]", "lat": 28.10569, "lng": -105.331038
},{
"label": "Dos de Mayo", "lat": 28.1205, "lng": -105.112983
},{
"label": "Los Pinos", "lat": 28.050975, "lng": -105.473208
},{
"label": "Los Cano (San Felipe de Jesús)", "lat": 27.962961, "lng": -105.274837
},{
"label": "Los Martínez", "lat": 27.974535, "lng": -105.269395
},{
"label": "Orranteño", "lat": 28.181852, "lng": -105.337201
},{
"label": "Dos Álamos", "lat": 28.076855, "lng": -105.330754
},{
"label": "Miguel Ronquillo", "lat": 28.083153, "lng": -105.356187
},{
"label": "Rancho Nueve de Enero", "lat": 28.082457, "lng": -105.316912
},{
"label": "Claudia", "lat": 27.978904, "lng": -105.279813
},{
"label": "David Armendáriz", "lat": 27.976901, "lng": -105.234538
},{
"label": "Los Nogales", "lat": 28.134941, "lng": -105.340296
},{
"label": "El Mimbre (El Reborujo)", "lat": 28.172261, "lng": -105.319436
},{
"label": "El Milagro (Contrayerbas)", "lat": 28.104353, "lng": -105.336864
},{
"label": "Rancho San Carlos", "lat": 28.178676, "lng": -105.347454
},{
"label": "Nogales Okinawa", "lat": 28.179014, "lng": -105.352003
},{
"label": "Ricardo Flores Magón (Colonia Magisterial) [Escuela Normal Rural]", "lat": 28.049293, "lng": -105.302265
},{
"label": "La Rinconada", "lat": 27.994487, "lng": -105.311512
},{
"label": "Las Tres Palmas", "lat": 27.979438, "lng": -105.26941
},{
"label": "San Martín", "lat": 28.057285, "lng": -105.320623
},{
"label": "San Judas Tadeo", "lat": 28.08771, "lng": -105.336334
},{
"label": "Las Palomas", "lat": 28.192698, "lng": -105.3067
},{
"label": "Los Apodaca", "lat": 28.045579, "lng": -105.338483
},{
"label": "El Vergel", "lat": 27.89049, "lng": -105.444901
},{
"label": "Las Flores", "lat": 28.168318, "lng": -105.357425
},{
"label": "La Frontera", "lat": 28.038981, "lng": -105.272671
},{
"label": "La Milagrosa", "lat": 28.162711, "lng": -105.312628
},{
"label": "Los Ramos", "lat": 28.038163, "lng": -105.310343
},{
"label": "Rubén López", "lat": 27.971119, "lng": -105.257515
},{
"label": "El Sacrificio", "lat": 28.154703, "lng": -105.312308
},{
"label": "Dagoberto Licón", "lat": 28.082606, "lng": -105.331684
},{
"label": "Arturo Rodríguez", "lat": 28.027155, "lng": -105.308237
},{
"label": "Granja Núñez", "lat": 28.06756, "lng": -105.34873
},{
"label": "Los Limas", "lat": 27.964618, "lng": -105.279704
},{
"label": "Rancho San José", "lat": 28.108131, "lng": -105.338566
},{
"label": "Los Fresnos", "lat": 28.118818, "lng": -105.361453
},{
"label": "Loma Chica", "lat": 28.115841, "lng": -105.342626
},{
"label": "Plan de Álamos", "lat": 28.097041, "lng": -105.345615
},{
"label": "Ampliación las Mercedes", "lat": 28.244672, "lng": -105.351021
},{
"label": "Mario Reyes", "lat": 27.966108, "lng": -105.249963
},{
"label": "Gonzaleñas", "lat": 28.064688, "lng": -105.308928
},{
"label": "San Francisco", "lat": 28.002067, "lng": -105.247896
},{
"label": "El Aturdido", "lat": 28.036548, "lng": -105.275452
},{
"label": "El Minero", "lat": 28.286996, "lng": -104.954445
},{
"label": "Granja la Llave", "lat": 28.03316, "lng": -105.312604
},{
"label": "Rancho de Gómez", "lat": 28.152281, "lng": -105.344797
},{
"label": "Rancho los Maltos", "lat": 28.061919, "lng": -105.330889
},{
"label": "San Carlos (Carlos Bario)", "lat": 27.992434, "lng": -105.253513
},{
"label": "Estación Conchos", "lat": 27.976814, "lng": -105.286847
},{
"label": "La Soledad", "lat": 27.988103, "lng": -105.221504
},{
"label": "El Siete", "lat": 28.052172, "lng": -105.429829
},{
"label": "Los Ramírez", "lat": 27.965768, "lng": -105.269346
},{
"label": "Jacinto Magallanes", "lat": 28.101051, "lng": -105.331358
},{
"label": "Granja Tres Hermanos", "lat": 28.047691, "lng": -105.305961
},{
"label": "Colonia Rodrigo M. Quevedo", "lat": 28.055379, "lng": -105.332774
},{
"label": "El Recuerdo", "lat": 28.102936, "lng": -105.353982
},{
"label": "Rancho Rocío", "lat": 28.023716, "lng": -105.329333
},{
"label": "María Vargas", "lat": 28.03365, "lng": -105.33074
},{
"label": "Ejido Conchos", "lat": 27.962162, "lng": -105.300621
},{
"label": "El Paraíso", "lat": 28.110564, "lng": -105.337684
},{
"label": "Estación Saucillo", "lat": 28.026343, "lng": -105.318046
},{
"label": "Aurelia", "lat": 28.062221, "lng": -105.332696
},{
"label": "Los Herrera", "lat": 28.083514, "lng": -105.330496
},{
"label": "El Pino", "lat": 28.068412, "lng": -105.331764
},{
"label": "La Fe", "lat": 28.048218, "lng": -105.3102
},{
"label": "Colonia Santa Rosa", "lat": 28.178635, "lng": -105.35473
},{
"label": "La Gloria", "lat": 28.085328, "lng": -105.283692
},{
"label": "Los Salazar", "lat": 27.969977, "lng": -105.257342
},{
"label": "Ninguno [José Luis Acosta]", "lat": 27.996596, "lng": -105.294792
},{
"label": "Granja Marcos", "lat": 28.133243, "lng": -105.342332
},{
"label": "El Criollo", "lat": 28.042053, "lng": -105.285397
},{
"label": "Piedra de Lumbre", "lat": 28.054114, "lng": -105.302693
},{
"label": "La Ramona [Rancho]", "lat": 28.108941, "lng": -105.332432
},{
"label": "Conchos [Corrales]", "lat": 27.957298, "lng": -105.279803
},{
"label": "San Isidro", "lat": 27.965131, "lng": -105.255398
},{
"label": "El Dragón", "lat": 28.212241, "lng": -105.358062
},{
"label": "La Escondida [Corrales]", "lat": 27.993337, "lng": -105.282511
},{
"label": "Rancho Zambrano", "lat": 28.019258, "lng": -105.324794
},{
"label": "Tortuguillas", "lat": 27.888285, "lng": -105.361003
},{
"label": "Rancho Veintiuno de Marzo", "lat": 28.185073, "lng": -105.334434
},{
"label": "El Hangar", "lat": 28.030248, "lng": -105.313532
},{
"label": "El Regreso", "lat": 28.1028, "lng": -105.331296
},{
"label": "Santa Teresa", "lat": 27.971276, "lng": -105.25439
},{
"label": "Pepe Payán", "lat": 27.97049, "lng": -105.275457
},{
"label": "El Indio", "lat": 28.089782, "lng": -105.320314
},{
"label": "San Juanito", "lat": 28.205802, "lng": -105.349644
},{
"label": "Lote Ciento Siete Dos", "lat": 28.050124, "lng": -105.307948
},{
"label": "Soliceñas", "lat": 28.058688, "lng": -105.306024
},{
"label": "Rancho Dos Hermanos (Hermanos Cárdenas)", "lat": 28.112066, "lng": -105.310825
},{
"label": "Cuerno Hueco", "lat": 27.849352, "lng": -105.458824
},{
"label": "Colonia Francisco I. Madero (El Gato Negro)", "lat": 28.083354, "lng": -105.344337
},{
"label": "La Campeña", "lat": 28.049193, "lng": -105.281969
},{
"label": "Veintitrés", "lat": 27.976089, "lng": -105.270194
},{
"label": "El Compadre", "lat": 27.953212, "lng": -105.264084
},{
"label": "La Escondida", "lat": 27.98748, "lng": -105.26349
},{
"label": "Rancho Nueve de Abril", "lat": 27.959383, "lng": -105.286433
},{
"label": "La Loma de Lara", "lat": 28.001827, "lng": -105.293644
},{
"label": "Hermanos Mendoza", "lat": 28.083376, "lng": -105.337573
},{
"label": "El Ojo", "lat": 27.749127, "lng": -105.749549
},{
"label": "Colonia Benito Juárez", "lat": 28.213717, "lng": -105.346423
},{
"label": "Santa Rosa", "lat": 28.013059, "lng": -105.283699
},{
"label": "Gandarilla", "lat": 28.055721, "lng": -105.310006
},{
"label": "El Malabar", "lat": 28.179194, "lng": -105.360882
},{
"label": "Ramón Gallegos", "lat": 28.067742, "lng": -105.353249
},{
"label": "Saucillo [Quesería]", "lat": 28.029125, "lng": -105.310873
},{
"label": "El Salvador (El Porvenir)", "lat": 28.108925, "lng": -105.153539
},{
"label": "Rancho el Canal", "lat": 28.022245, "lng": -105.323464
},{
"label": "Mi Ranchito", "lat": 28.0704, "lng": -105.315309
},{
"label": "Rancho de Carrillo", "lat": 28.132329, "lng": -105.351389
},{
"label": "Jericó", "lat": 28.071821, "lng": -105.311789
},{
"label": "2 de Agosto", "lat": 27.836232, "lng": -105.307354
},{
"label": "Colonia Carlos A. Madrazo (Kilómetro Cincuenta y Nueve)", "lat": 28.065278, "lng": -105.351111
},{
"label": "El Tocayo", "lat": 28.154108, "lng": -105.361541
},{
"label": "Rancho el Huevo", "lat": 27.974217, "lng": -105.274493
},{
"label": "Granja la Providencia", "lat": 28.06395, "lng": -105.311758
},{
"label": "El Nogal", "lat": 28.111722, "lng": -105.340361
},{
"label": "Las Palmeras", "lat": 28.086453, "lng": -105.321077
},{
"label": "Santa Rita", "lat": 28.183213, "lng": -105.181884
},{
"label": "Santo Niño", "lat": 28.184844, "lng": -105.341324
},{
"label": "Los Sánchez", "lat": 28.038037, "lng": -105.311364
},{
"label": "El Palomar", "lat": 28.147304, "lng": -105.346084
},{
"label": "Ramón Meléndez", "lat": 28.092431, "lng": -105.327406
},{
"label": "El Cuarenta y Cuatro (El Magnum)", "lat": 28.193168, "lng": -105.336805
},{
"label": "San Antonio", "lat": 28.094864, "lng": -105.361161
},{
"label": "El Quelite", "lat": 28.042648, "lng": -105.331247
},{
"label": "Espíritu Santo", "lat": 28.084354, "lng": -105.323249
},{
"label": "Granja Gandarilla", "lat": 28.056769, "lng": -105.311446
},{
"label": "La Esmeralda", "lat": 28.019394, "lng": -105.283551
},{
"label": "El Chumale", "lat": 27.968617, "lng": -105.282353
},{
"label": "Los Álvarez", "lat": 27.975096, "lng": -105.27253
},{
"label": "Tacubaya", "lat": 28.088444, "lng": -105.356029
},{
"label": "San Judas Tadeo (El Gringo)", "lat": 28.076012, "lng": -105.317678
},{
"label": "El Tepopote", "lat": 28.19739, "lng": -105.334763
},{
"label": "Los Ocón", "lat": 28.066791, "lng": -105.326504
},{
"label": "Colonia Bellavista", "lat": 28.215431, "lng": -105.358257
},{
"label": "La Aurora (Los Márquez)", "lat": 28.042154, "lng": -105.336293
},{
"label": "General Joaquín Amaro", "lat": 27.967146, "lng": -105.597176
},{
"label": "El Porvenir", "lat": 28.045278, "lng": -105.298432
},{
"label": "Rancho Nuevo", "lat": 27.91299, "lng": -105.376845
},{
"label": "Ampliación de las Varas", "lat": 28.153877, "lng": -105.346181
},{
"label": "Loma de Chavarría (Santa Rita)", "lat": 28.057682, "lng": -105.306859
},{
"label": "San Bernardino [Corrales]", "lat": 28.044085, "lng": -105.317561
},{
"label": "El Mezquite [Rancho]", "lat": 28.018044, "lng": -105.295008
},{
"label": "San José", "lat": 27.964747, "lng": -105.254894
},{
"label": "Jesús Rivera", "lat": 28.030766, "lng": -105.308793
},{
"label": "Los Faudoa", "lat": 28.038662, "lng": -105.319264
},{
"label": "Cerro Prieto", "lat": 28.021083, "lng": -105.325601
},{
"label": "Salsipuedes", "lat": 27.962591, "lng": -105.275972
},{
"label": "San Andrés", "lat": 28.051823, "lng": -105.305313
},{
"label": "El Tecolote", "lat": 27.997695, "lng": -105.316701
},{
"label": "Las Margaritas", "lat": 27.98609, "lng": -105.263904
},{
"label": "El Mirador", "lat": 28.075901, "lng": -105.321746
},{
"label": "La Cajuela", "lat": 28.200699, "lng": -105.361455
},{
"label": "Granja Familia Carrillo", "lat": 28.134337, "lng": -105.340306
},{
"label": "Los Álamos", "lat": 28.189572, "lng": -105.349053
},{
"label": "Rancho ARZ (El Acuerdo)", "lat": 28.099798, "lng": -105.295231
},{
"label": "El Porvenir (El Tepetongo)", "lat": 28.205164, "lng": -105.360726
},{
"label": "Las Yolandas", "lat": 28.072162, "lng": -105.327455
},{
"label": "Las Hortensias", "lat": 27.979887, "lng": -105.273901
},{
"label": "El Brújulo", "lat": 28.026253, "lng": -105.491774
},{
"label": "Los Cardenales", "lat": 28.041019, "lng": -105.261699
},{
"label": "Santa Gertrudis (La Hacienda)", "lat": 27.777676, "lng": -105.730004
},{
"label": "La Pedrera (Los Mendoza)", "lat": 28.00243, "lng": -105.30528
},{
"label": "Palos Parados", "lat": 27.995002, "lng": -105.218306
},{
"label": "Los Lara", "lat": 28.199423, "lng": -105.33602
},{
"label": "Las Alicias", "lat": 28.029613, "lng": -105.302736
},{
"label": "Rancho Grande", "lat": 28.093546, "lng": -105.289455
},{
"label": "La Providencia", "lat": 28.096486, "lng": -105.335906
},{
"label": "La Bandera", "lat": 27.923019, "lng": -105.271281
},{
"label": "Naica", "lat": 27.855944, "lng": -105.492699
},{
"label": "El Gato Negro", "lat": 28.087784, "lng": -105.347932
},{
"label": "Granja de la Gringa", "lat": 28.117912, "lng": -105.334709
},{
"label": "San Ignacio [Corrales]", "lat": 27.994035, "lng": -105.238209
},{
"label": "Los Sepúlveda", "lat": 27.953444, "lng": -105.259826
},{
"label": "Los Rey", "lat": 27.966101, "lng": -105.237118
},{
"label": "La Vaqueña", "lat": 28.017989, "lng": -105.283236
},{
"label": "Ejido Carboneras", "lat": 28.053623, "lng": -105.266825
},{
"label": "Rancho de Aarón Delgado", "lat": 28.189398, "lng": -105.334763
},{
"label": "Santa Elena", "lat": 28.069041, "lng": -105.342611
},{
"label": "Rancho Rubén Ontiveros", "lat": 27.992468, "lng": -105.242681
},{
"label": "José Urrutia", "lat": 28.14595, "lng": -105.340742
},{
"label": "La Cuadra [Establo]", "lat": 28.073775, "lng": -105.307134
},{
"label": "Las Varas", "lat": 28.155191, "lng": -105.340944
},{
"label": "San Vicente", "lat": 28.069723, "lng": -105.320683
},{
"label": "Subida Alta", "lat": 28.082338, "lng": -105.286553
},{
"label": "Los Prieto", "lat": 27.97459, "lng": -105.278356
},{
"label": "La Tórtola", "lat": 28.159614, "lng": -105.207021
},{
"label": "Rancho la Mora", "lat": 27.980795, "lng": -105.242494
},{
"label": "Tres Pinos", "lat": 28.06399, "lng": -105.327163
},{
"label": "Los Tarango", "lat": 28.04482, "lng": -105.318034
},{
"label": "Los Rodríguez", "lat": 28.038506, "lng": -105.325655
},{
"label": "Ninguno [Campo de Golf]", "lat": 27.863681, "lng": -105.486711
},{
"label": "Armando López", "lat": 27.997434, "lng": -105.26268
},{
"label": "Tomás Cueto", "lat": 28.189553, "lng": -105.345276
},{
"label": "El Cárcamo [Granja]", "lat": 28.047878, "lng": -105.348081
},{
"label": "Los Laureles", "lat": 28.046613, "lng": -105.457499
},{
"label": "Prospereño", "lat": 28.103921, "lng": -105.328498
},{
"label": "El Castillo", "lat": 28.304912, "lng": -105.253626
},{
"label": "San Lorenzo [Cocedores]", "lat": 27.9236, "lng": -105.255709
},{
"label": "Rancho la Piedra", "lat": 28.195561, "lng": -105.323436
},{
"label": "Rancho de Robles", "lat": 28.117995, "lng": -105.31642
},{
"label": "Eleazar Mata", "lat": 28.03783, "lng": -105.318635
},{
"label": "San José (La Escondida)", "lat": 28.076334, "lng": -104.982584
},{
"label": "El Río", "lat": 27.951602, "lng": -105.215733
},{
"label": "Arrieta (El Edén)", "lat": 28.043124, "lng": -105.327618
},{
"label": "Salamanca [Rancho]", "lat": 28.090547, "lng": -105.323115
},{
"label": "San Marcos", "lat": 28.097759, "lng": -105.324718
},{
"label": "Kilómetro 101 [Rancho]", "lat": 27.951618, "lng": -105.275058
},{
"label": "Cuernavaca", "lat": 28.236002, "lng": -104.933977
},{
"label": "La Loma", "lat": 28.232069, "lng": -105.342586
},{
"label": "La Terraceña", "lat": 28.017734, "lng": -105.281501
},{
"label": "Corral de Barranco", "lat": 28.176167, "lng": -105.335833
},{
"label": "El Milagro", "lat": 28.24676, "lng": -105.356961
},{
"label": "Los Lamentos (Los Reyes)", "lat": 28.141332, "lng": -105.360517
},{
"label": "Saucillo", "lat": 28.032674, "lng": -105.288032
},{
"label": "La Esperanza", "lat": 28.189071, "lng": -105.335685
},{
"label": "Luis Flores", "lat": 28.030394, "lng": -105.346524
},{
"label": "El Edén [Establo]", "lat": 28.195821, "lng": -105.348885
},{
"label": "La Luz", "lat": 28.137143, "lng": -105.338215
},{
"label": "Hermanos Medina [Lienzo Charro]", "lat": 28.034404, "lng": -105.312696
},{
"label": "El Mezquite", "lat": 28.026161, "lng": -105.326209
},{
"label": "Kilómetro Cincuenta y Nueve", "lat": 28.069913, "lng": -105.353166
},{
"label": "Las Mercedes", "lat": 28.103026, "lng": -105.298605
},{
"label": "San Esteban", "lat": 28.196029, "lng": -105.023927
},{
"label": "La Virgen", "lat": 27.998333, "lng": -105.238254
},{
"label": "Lote Ciento Quince Tres (El Embudo)", "lat": 28.04632, "lng": -105.306438
},{
"label": "Los Bernal", "lat": 28.13654, "lng": -105.360922
},{
"label": "Ranchito Don Trini González", "lat": 28.187623, "lng": -105.336784
},{
"label": "Los Pozos", "lat": 27.915991, "lng": -105.39419
},{
"label": "El Chutis", "lat": 28.038059, "lng": -105.443356
},{
"label": "Palos Clavados", "lat": 27.999652, "lng": -105.24187
},{
"label": "Rancho los Tres Octavios", "lat": 28.207558, "lng": -105.342334
},{
"label": "Kilómetro Treinta y Nueve", "lat": 27.954552, "lng": -105.25437
},{
"label": "Cipriano Licón (San Rafael)", "lat": 28.05155, "lng": -105.34812
}]