[{
"label": "Rancho Alfonso Catalán", "lat": 17.129427, "lng": -99.845003
},{
"label": "Ejido Nuevo", "lat": 16.974159, "lng": -99.736781
},{
"label": "La Casa de Barro", "lat": 17.138595, "lng": -99.807226
},{
"label": "El Chorro (La Cascada)", "lat": 17.151987, "lng": -99.625042
},{
"label": "José Francisco Martínez Clark", "lat": 16.897598, "lng": -99.80912
},{
"label": "El Vado", "lat": 17.084158, "lng": -99.553615
},{
"label": "El Salto", "lat": 16.864754, "lng": -99.765391
},{
"label": "Las Chanecas", "lat": 16.821129, "lng": -99.688139
},{
"label": "El Carrizo", "lat": 16.871017, "lng": -99.62
},{
"label": "Teniente José Azueta (Río Papagayo)", "lat": 16.776208, "lng": -99.605997
},{
"label": "Kilómetro Treinta y Cinco", "lat": 17.030561, "lng": -99.797357
},{
"label": "Carabalí", "lat": 16.897827, "lng": -99.879101
},{
"label": "Los Limones", "lat": 16.880382, "lng": -99.754359
},{
"label": "Las Cruces de Cacahuatepec", "lat": 16.847448, "lng": -99.616492
},{
"label": "Pueblo Nuevo", "lat": 16.889721, "lng": -99.913411
},{
"label": "El Salitre", "lat": 17.137864, "lng": -99.641541
},{
"label": "Los Órganos de Juan R. Escudero", "lat": 16.941929, "lng": -99.80962
},{
"label": "Laguna del Quemado", "lat": 16.757055, "lng": -99.660947
},{
"label": "Kilómetro Treinta y Tres", "lat": 17.019839, "lng": -99.78974
},{
"label": "Ramón Pedroza", "lat": 16.948072, "lng": -99.856621
},{
"label": "Barra Vieja", "lat": 16.691687, "lng": -99.626383
},{
"label": "Campanario", "lat": 16.835103, "lng": -99.571434
},{
"label": "Colonia Vista Hermosa de las Flores", "lat": 16.831213, "lng": -99.762541
},{
"label": "Cacahuate", "lat": 16.72412, "lng": -99.704344
},{
"label": "El Metlapil", "lat": 16.842466, "lng": -99.749334
},{
"label": "Paraje de la Zorra", "lat": 17.129969, "lng": -99.651199
},{
"label": "Arroyo el Ejido", "lat": 16.993584, "lng": -99.696244
},{
"label": "El Pelillo", "lat": 16.992576, "lng": -99.869681
},{
"label": "Huerta Medardo Olea Gerardo", "lat": 16.870758, "lng": -99.789028
},{
"label": "Lomas del Aire", "lat": 16.956581, "lng": -99.866179
},{
"label": "San José Cacahuatepec", "lat": 16.930094, "lng": -99.685832
},{
"label": "El Ranchito (Las Palmitas)", "lat": 16.828835, "lng": -99.650905
},{
"label": "El Arenal", "lat": 16.790048, "lng": -99.712131
},{
"label": "Granjas de Campo Rojo", "lat": 17.121468, "lng": -99.825536
},{
"label": "Los Órganos de San Agustín (El Quemado)", "lat": 16.934858, "lng": -99.823603
},{
"label": "Pueblo Madero (El Playón)", "lat": 17.125993, "lng": -99.672562
},{
"label": "Huerta Ubaldo Murillo Balanzar", "lat": 16.869431, "lng": -99.792758
},{
"label": "Casa Blanca", "lat": 16.982805, "lng": -99.844087
},{
"label": "Marcelino Ocampo [Colonia]", "lat": 16.874449, "lng": -99.789891
},{
"label": "Lomas de San Juan", "lat": 16.984746, "lng": -99.803879
},{
"label": "Huerta Margarito Jiménez J.", "lat": 16.871389, "lng": -99.790278
},{
"label": "Rancho el Tamarindillo", "lat": 16.796554, "lng": -99.573905
},{
"label": "Pochotlaxco", "lat": 16.947418, "lng": -99.640447
},{
"label": "Loma de Chivería", "lat": 16.915805, "lng": -99.858533
},{
"label": "La Ceibita", "lat": 17.170819, "lng": -99.660883
},{
"label": "Aguas Calientes", "lat": 16.8425, "lng": -99.640556
},{
"label": "Maguey Uno", "lat": 16.865055, "lng": -99.788077
},{
"label": "Texca", "lat": 17.01154, "lng": -99.826012
},{
"label": "El Maguey", "lat": 16.853451, "lng": -99.779867
},{
"label": "Hacienda Renacer (El Albergue)", "lat": 16.938988, "lng": -99.831853
},{
"label": "Punta de Casa", "lat": 16.74434, "lng": -99.656753
},{
"label": "La Testaruda", "lat": 16.888578, "lng": -99.785063
},{
"label": "Barranca Lima", "lat": 17.132654, "lng": -99.713054
},{
"label": "El Mogollón", "lat": 17.035562, "lng": -99.761411
},{
"label": "Joyas de San Agustín", "lat": 16.926144, "lng": -99.844554
},{
"label": "Huerta Gilberto Zequeida Viviano", "lat": 16.879309, "lng": -99.809986
},{
"label": "Huamuchitos", "lat": 16.894237, "lng": -99.579788
},{
"label": "Huerta Eusebio Sequeida", "lat": 16.887487, "lng": -99.801926
},{
"label": "Los Coyotes", "lat": 16.903372, "lng": -99.762432
},{
"label": "Nueva Frontera", "lat": 16.888039, "lng": -99.815961
},{
"label": "Barrio Nuevo de los Muertos", "lat": 16.893009, "lng": -99.545013
},{
"label": "El Limón", "lat": 17.139098, "lng": -99.64881
},{
"label": "El Rincón", "lat": 16.863907, "lng": -99.643329
},{
"label": "Isla la Roqueta", "lat": 16.822468, "lng": -99.906119
},{
"label": "Kilómetro Treinta y Dos (Colonia la Unión)", "lat": 17.008965, "lng": -99.781178
},{
"label": "Huerta Mario Salazar", "lat": 16.872589, "lng": -99.790338
},{
"label": "Colonia Guerrero (Los Guajes)", "lat": 17.040839, "lng": -99.613404
},{
"label": "Villa Guerrero", "lat": 16.928666, "lng": -99.825632
},{
"label": "Colonia Dieciséis de Noviembre", "lat": 16.888968, "lng": -99.808889
},{
"label": "La Calera", "lat": 17.048047, "lng": -99.688642
},{
"label": "Lomas de la Autopista", "lat": 16.925989, "lng": -99.802707
},{
"label": "Colonia Donaciano Rivera", "lat": 16.891618, "lng": -99.816286
},{
"label": "Cerro Cumbre [Antenas]", "lat": 16.827737, "lng": -99.831561
},{
"label": "Terreno de Florentino Comino Cruz", "lat": 16.832765, "lng": -99.784977
},{
"label": "Piedra Rajada", "lat": 17.106375, "lng": -99.733058
},{
"label": "Huerta Marcial Contreras", "lat": 16.893036, "lng": -99.807202
},{
"label": "Loma Larga", "lat": 17.004531, "lng": -99.868498
},{
"label": "Laguna la Testaruda", "lat": 16.891603, "lng": -99.79495
},{
"label": "Cacahuatepec", "lat": 16.886361, "lng": -99.612127
},{
"label": "Agua del Perro", "lat": 17.095929, "lng": -99.564901
},{
"label": "El Zapote", "lat": 16.990488, "lng": -99.849527
},{
"label": "Parada los Charros", "lat": 16.923793, "lng": -99.879111
},{
"label": "Alto del Camarón", "lat": 17.051399, "lng": -99.581889
},{
"label": "Jesús Hernández", "lat": 16.886023, "lng": -99.791184
},{
"label": "Fraccionamiento Campestre de la Laguna", "lat": 16.796111, "lng": -99.783611
},{
"label": "Paso Texca", "lat": 16.979551, "lng": -99.813433
},{
"label": "El Progreso de Cacahuatepec", "lat": 16.806837, "lng": -99.54528
},{
"label": "Las Parotas", "lat": 16.911674, "lng": -99.625073
},{
"label": "Pablo Galeana (Coacoyular)", "lat": 17.142829, "lng": -99.697498
},{
"label": "Arroyo Muerto", "lat": 17.079797, "lng": -99.797655
},{
"label": "La Sierrita", "lat": 17.056933, "lng": -99.739734
},{
"label": "Vista Hermosa", "lat": 16.85979, "lng": -99.83381
},{
"label": "Amado Martínez Hernández [Huerta]", "lat": 16.832506, "lng": -99.783005
},{
"label": "Huerta Gilberto Luna", "lat": 16.881884, "lng": -99.796251
},{
"label": "Amatepec", "lat": 16.980268, "lng": -99.508477
},{
"label": "El Mamey", "lat": 16.979933, "lng": -99.839613
},{
"label": "Colonia Seis de Agosto", "lat": 16.901789, "lng": -99.577407
},{
"label": "Granja Camaronera", "lat": 17.16255, "lng": -99.623311
},{
"label": "Paseo de la Laguna", "lat": 16.895545, "lng": -99.802093
},{
"label": "La Lomita [Restaurante]", "lat": 16.843971, "lng": -99.784911
},{
"label": "Rancho Viejo", "lat": 16.877132, "lng": -99.79843
},{
"label": "El Mango Solo (Las Tranquillas)", "lat": 17.086376, "lng": -99.700556
},{
"label": "Los Atascaderos", "lat": 17.119899, "lng": -99.787539
},{
"label": "Jorge Campos [Campo de Fut-Bol]", "lat": 16.734691, "lng": -99.733501
},{
"label": "La Casa del Anciano", "lat": 16.813627, "lng": -99.721659
},{
"label": "Agua Salada [Estación Hidrométrica]", "lat": 17.178155, "lng": -99.630205
},{
"label": "Los Ilamos", "lat": 16.896332, "lng": -99.621775
},{
"label": "Las Cieneguitas Cuatas", "lat": 17.095885, "lng": -99.798129
},{
"label": "Kilómetro 42 (Juan N. Álvarez)", "lat": 17.055287, "lng": -99.759821
},{
"label": "Huerta Jesús Pillano Mejía", "lat": 16.877047, "lng": -99.809287
},{
"label": "Dos Arroyos", "lat": 17.020868, "lng": -99.650277
},{
"label": "La Arena", "lat": 16.762366, "lng": -99.587437
},{
"label": "Rancho el Capricho", "lat": 17.121697, "lng": -99.836924
},{
"label": "La Calera Dos", "lat": 16.996679, "lng": -99.768354
},{
"label": "Los Triángulos [Granjas]", "lat": 17.102724, "lng": -99.806182
},{
"label": "Huerta Ubaldo Muñoz", "lat": 16.880874, "lng": -99.808539
},{
"label": "La Vista Alegre", "lat": 16.815699, "lng": -99.623677
},{
"label": "San Pedro las Playas", "lat": 16.822515, "lng": -99.730138
},{
"label": "Las Marcelas", "lat": 16.876985, "lng": -99.76345
},{
"label": "Cabeza de Tigre", "lat": 16.855261, "lng": -99.584951
},{
"label": "La Concepción", "lat": 16.877188, "lng": -99.651603
},{
"label": "Las Tortolitas", "lat": 17.117366, "lng": -99.702741
},{
"label": "Huerta Ignacio Cuevas", "lat": 16.873607, "lng": -99.791513
},{
"label": "Barranca Honda", "lat": 17.149699, "lng": -99.788197
},{
"label": "10 de Abril", "lat": 16.829087, "lng": -99.740852
},{
"label": "Colonia Monte Sinaí", "lat": 16.817412, "lng": -99.678716
},{
"label": "Colonia San Isidro del Progreso", "lat": 16.815734, "lng": -99.709047
},{
"label": "Huerta Darío Orbe (La India)", "lat": 16.87236, "lng": -99.802301
},{
"label": "Acapulco de Juárez", "lat": 16.861867, "lng": -99.886558
},{
"label": "Kilómetro 40", "lat": 17.049554, "lng": -99.770511
},{
"label": "Cerro Pelón", "lat": 17.111991, "lng": -99.740474
},{
"label": "Kilómetro 45", "lat": 17.070928, "lng": -99.750674
},{
"label": "La Palmita", "lat": 16.990493, "lng": -99.860013
},{
"label": "Huerta Ricardo Mendoza", "lat": 16.889459, "lng": -99.807058
},{
"label": "El Libramiento (La Gasera)", "lat": 16.982882, "lng": -99.832377
},{
"label": "Agua Zarca de la Peña", "lat": 16.968322, "lng": -99.604039
},{
"label": "El Paraíso", "lat": 16.884084, "lng": -99.808731
},{
"label": "El Cantón", "lat": 16.893893, "lng": -99.597641
},{
"label": "Huerta Marcelino Flores Bailón", "lat": 16.830573, "lng": -99.787339
},{
"label": "Candelilla (Las Palmitas)", "lat": 16.783193, "lng": -99.707233
},{
"label": "Arroyo Verde", "lat": 16.930286, "lng": -99.672296
},{
"label": "Rascasola", "lat": 16.99744, "lng": -99.773681
},{
"label": "El Zapote (Kilómetro Trece)", "lat": 16.962246, "lng": -99.736967
},{
"label": "El Cerrito (Colonia el Cerrito)", "lat": 16.898476, "lng": -99.547065
},{
"label": "El Embarcadero (Las Totolas)", "lat": 16.851353, "lng": -99.649573
},{
"label": "Fabián Calixto", "lat": 16.887061, "lng": -99.792139
},{
"label": "Juana Martínez Morales [Huerta]", "lat": 16.8342, "lng": -99.783982
},{
"label": "Ángel Castro", "lat": 16.944267, "lng": -99.84421
},{
"label": "Las Ollitas (Las Joyitas)", "lat": 16.905858, "lng": -99.717916
},{
"label": "Kilómetro 30", "lat": 16.998319, "lng": -99.78276
},{
"label": "Colonia Alborada", "lat": 16.880614, "lng": -99.814485
},{
"label": "Huerta Patricia Sánchez Rivera", "lat": 16.878125, "lng": -99.802403
},{
"label": "Josefina de la O", "lat": 16.886066, "lng": -99.791888
},{
"label": "Kilómetro 34", "lat": 17.025325, "lng": -99.793758
},{
"label": "Varadero del Plan de los Amates", "lat": 16.751186, "lng": -99.722359
},{
"label": "Rancho Eusebio Sequeida Ozuna", "lat": 16.880054, "lng": -99.810173
},{
"label": "La Hacienda (La Hacienda de Papagayo)", "lat": 16.744879, "lng": -99.626041
},{
"label": "Rancho Don Arnulfo", "lat": 16.882047, "lng": -99.811409
},{
"label": "Oaxaquillas", "lat": 16.822974, "lng": -99.65795
},{
"label": "Huerta los Reyes", "lat": 16.743532, "lng": -99.737944
},{
"label": "Las Joyas", "lat": 17.015222, "lng": -99.743893
},{
"label": "Colonia Loma Larga (El Basurero)", "lat": 16.898661, "lng": -99.863338
},{
"label": "Kilómetro 39", "lat": 17.044959, "lng": -99.778531
},{
"label": "Colonia la Frontera Aguacatillo", "lat": 16.956467, "lng": -99.802272
},{
"label": "Huerta Francisca Dimayuga Mendoza", "lat": 16.878761, "lng": -99.811127
},{
"label": "Las Plazuelas", "lat": 16.875096, "lng": -99.785626
},{
"label": "Rancho Santo Domingo", "lat": 16.739847, "lng": -99.733291
},{
"label": "Rancho la Esperanza", "lat": 17.097222, "lng": -99.801389
},{
"label": "Kilómetro Cuarenta y Ocho", "lat": 17.083991, "lng": -99.7294
},{
"label": "El Salto [Parque Industrial de Guerrero]", "lat": 16.848016, "lng": -99.78197
},{
"label": "Campo Rojo", "lat": 17.105493, "lng": -99.809539
},{
"label": "Kilómetro 21", "lat": 16.952554, "lng": -99.803418
},{
"label": "El Calahue (Rancho San Antonio)", "lat": 16.945451, "lng": -99.826776
},{
"label": "Plan del Pollo", "lat": 17.142763, "lng": -99.719728
},{
"label": "Kilómetro 22", "lat": 16.96342, "lng": -99.807531
},{
"label": "Las Mariquitas (Atascadero)", "lat": 17.146009, "lng": -99.799336
},{
"label": "Tres Palos", "lat": 16.830545, "lng": -99.778856
},{
"label": "Colonia la Esperanza", "lat": 16.879511, "lng": -99.80315
},{
"label": "Rancho María Angelina Carmona", "lat": 16.818563, "lng": -99.715039
},{
"label": "El Uno [Huerta]", "lat": 16.818449, "lng": -99.71857
},{
"label": "El Jícaro", "lat": 16.991816, "lng": -99.85927
},{
"label": "Poza Verde (Pozo Verde)", "lat": 16.883873, "lng": -99.810924
},{
"label": "Colonia Ángel Heladio Aguirre Rivero", "lat": 16.884217, "lng": -99.800043
},{
"label": "Colonia Nueva de San Rafael", "lat": 16.7082, "lng": -99.616704
},{
"label": "Lucio Cabañas [Campamento Popular]", "lat": 16.928739, "lng": -99.802625
},{
"label": "Huerta la Bugambilia", "lat": 16.874444, "lng": -99.788333
},{
"label": "El Cajelito", "lat": 16.950432, "lng": -99.863381
},{
"label": "Colonia Nueva Generación", "lat": 16.885258, "lng": -99.817358
},{
"label": "San José Tasajeras", "lat": 17.065203, "lng": -99.854188
},{
"label": "El Ranchito", "lat": 16.914554, "lng": -99.782622
},{
"label": "Colonia Nueva Luz", "lat": 16.896043, "lng": -99.868156
},{
"label": "Huerta David Jiménez", "lat": 16.872544, "lng": -99.79152
},{
"label": "Colonia Miguel Terrazas Rivera", "lat": 16.886544, "lng": -99.812878
},{
"label": "Residencial Paraíso Diamante", "lat": 16.825934, "lng": -99.744394
},{
"label": "Las Marías", "lat": 17.059326, "lng": -99.681187
},{
"label": "Huerta Benigno Mendoza", "lat": 16.885929, "lng": -99.801181
},{
"label": "Huerta Carmela Rivera Terrazas", "lat": 16.893667, "lng": -99.814542
},{
"label": "Las Calderas", "lat": 17.149722, "lng": -99.721667
},{
"label": "San Antonio", "lat": 16.80126, "lng": -99.657295
},{
"label": "Huerta de Alejandro Alarcón", "lat": 17.136151, "lng": -99.709711
},{
"label": "Agua Viva", "lat": 17.09, "lng": -99.803889
},{
"label": "El Manglito", "lat": 16.713837, "lng": -99.68554
},{
"label": "Lomas de Chapultepec", "lat": 16.715118, "lng": -99.609768
},{
"label": "Loma Larga Tres", "lat": 16.866187, "lng": -99.557513
},{
"label": "Bella Vista Papagayo", "lat": 16.774017, "lng": -99.600886
},{
"label": "Huerta Marcial Muñoz Silva", "lat": 16.87716, "lng": -99.803408
},{
"label": "Providencia Mágica", "lat": 17.100849, "lng": -99.811396
},{
"label": "El Veladero (Veladero Morelos)", "lat": 16.929867, "lng": -99.884695
},{
"label": "Kilómetro Treinta y Seis", "lat": 17.03467, "lng": -99.784168
},{
"label": "Ciénega del Cuastololote", "lat": 17.11283, "lng": -99.789028
},{
"label": "Garrapatas", "lat": 16.921534, "lng": -99.661698
},{
"label": "Colonia Independencia", "lat": 16.891287, "lng": -99.809102
},{
"label": "Colonia Guadalupe", "lat": 16.881361, "lng": -99.811201
},{
"label": "Apanhuac (Apanguaque)", "lat": 16.913387, "lng": -99.589066
},{
"label": "Rancho Domingo Villanueva", "lat": 16.816, "lng": -99.720539
},{
"label": "Puente de Fierro", "lat": 17.121016, "lng": -99.694154
},{
"label": "Paraíso de la Laguna", "lat": 16.805814, "lng": -99.715644
},{
"label": "Colonia Mangos (El Quemado)", "lat": 16.928392, "lng": -99.820908
},{
"label": "San José", "lat": 17.083909, "lng": -99.711103
},{
"label": "Colonia Manuel Añorve Baños", "lat": 16.887314, "lng": -99.796284
},{
"label": "Sabanillas", "lat": 16.999749, "lng": -99.70322
},{
"label": "Rancho Jesús Espinoza Palma", "lat": 16.866276, "lng": -99.80369
},{
"label": "Salsipuedes", "lat": 16.835776, "lng": -99.630619
},{
"label": "Convento Monte San Alfonso", "lat": 16.911905, "lng": -99.944935
},{
"label": "Granja de los Godínez (Las Granjas)", "lat": 16.819442, "lng": -99.676845
},{
"label": "La Huerta", "lat": 16.875278, "lng": -99.788611
},{
"label": "Tuncingo", "lat": 16.851131, "lng": -99.791371
},{
"label": "Colonia Acapulco Dos Mil", "lat": 16.892819, "lng": -99.810943
},{
"label": "Rancho Félix Lorenzo Martínez", "lat": 16.87475, "lng": -99.804146
},{
"label": "Rancho la Guadalupana", "lat": 17.054973, "lng": -99.694778
},{
"label": "Los Mayos", "lat": 16.952776, "lng": -99.614642
},{
"label": "San Martín el Jovero", "lat": 17.104138, "lng": -99.593363
},{
"label": "Los Campos Manzo", "lat": 16.880371, "lng": -99.811809
},{
"label": "Colonia Mariano Molina", "lat": 16.878841, "lng": -99.8024
},{
"label": "La Herradura", "lat": 16.885383, "lng": -99.796934
},{
"label": "Colonia Ladrillera (La Pilastra)", "lat": 16.882218, "lng": -99.814291
},{
"label": "Colonia Praderas de Guadalupe", "lat": 16.89198, "lng": -99.864153
},{
"label": "Colonia Tabiquera", "lat": 16.882436, "lng": -99.806402
},{
"label": "Amatillo", "lat": 16.818894, "lng": -99.667549
},{
"label": "El Puente (Los Tepetates)", "lat": 16.914364, "lng": -99.784313
},{
"label": "La Providencia", "lat": 17.094628, "lng": -99.815648
},{
"label": "San Pedro Cacahuatepec (Vereda de Amatillo)", "lat": 16.81482, "lng": -99.668277
},{
"label": "Los Planes", "lat": 16.935379, "lng": -99.771374
},{
"label": "El Podrido", "lat": 16.707183, "lng": -99.671928
},{
"label": "Chivería [Granja]", "lat": 16.918959, "lng": -99.863506
},{
"label": "Piedra Imán", "lat": 17.07718, "lng": -99.783767
},{
"label": "El Zoyamichal", "lat": 17.194858, "lng": -99.686445
},{
"label": "Venta Vieja", "lat": 17.099943, "lng": -99.562819
},{
"label": "Colonia Rubén Figueroa Alcocer", "lat": 16.889095, "lng": -99.810814
},{
"label": "Zoyamiche", "lat": 16.799858, "lng": -99.589465
},{
"label": "Cerro de Piedra", "lat": 16.776137, "lng": -99.629341
},{
"label": "Santa Elena", "lat": 17.118717, "lng": -99.809559
},{
"label": "Rancho la Luna", "lat": 16.876418, "lng": -99.805606
},{
"label": "Xolapa", "lat": 17.160556, "lng": -99.614167
},{
"label": "Rancho las Marías", "lat": 16.908865, "lng": -99.627407
},{
"label": "Lomas del Pedregal", "lat": 16.993319, "lng": -99.795836
},{
"label": "El Potrero", "lat": 17.086569, "lng": -99.67082
},{
"label": "El Ocotillo", "lat": 17.096098, "lng": -99.701391
},{
"label": "El Bejuco", "lat": 16.82486, "lng": -99.706376
},{
"label": "San Isidro Gallinero (El Gallinero)", "lat": 16.881389, "lng": -99.714167
},{
"label": "Tunzingo [Unidad Habitacional]", "lat": 16.838714, "lng": -99.78261
},{
"label": "Las Bugambilias", "lat": 16.881541, "lng": -99.809622
},{
"label": "Parotillas", "lat": 16.876523, "lng": -99.619458
},{
"label": "Agropecuaria", "lat": 16.887036, "lng": -99.7918
},{
"label": "Varadero de Tres Palos", "lat": 16.809927, "lng": -99.75934
},{
"label": "Espinalillo", "lat": 16.898953, "lng": -99.59007
},{
"label": "Nicolás Bravo (Zanja del Teniente)", "lat": 16.834516, "lng": -99.745998
},{
"label": "Palo Blanco (Los Sutter)", "lat": 16.94236, "lng": -99.829506
},{
"label": "San Andrés Playa Encantada (El Podrido)", "lat": 16.692127, "lng": -99.633827
},{
"label": "Pilita [Huerta]", "lat": 16.819463, "lng": -99.710911
},{
"label": "Huajintepec", "lat": 16.973894, "lng": -99.520736
},{
"label": "Colonia el Puente de Texca", "lat": 16.98522, "lng": -99.820416
},{
"label": "Paso de la Canastilla", "lat": 16.916916, "lng": -99.623549
},{
"label": "Rancho Juan Muñoz", "lat": 16.879784, "lng": -99.808976
},{
"label": "Mirita de los Reyes", "lat": 16.879733, "lng": -99.806147
},{
"label": "Rancho Campo Rojo", "lat": 17.110556, "lng": -99.813229
},{
"label": "Tasajeras", "lat": 16.810461, "lng": -99.617171
},{
"label": "Colonia Alvarado", "lat": 16.93291, "lng": -99.794178
},{
"label": "Banco de Oro", "lat": 16.888024, "lng": -99.796303
},{
"label": "Xaltianguis", "lat": 17.099553, "lng": -99.714381
},{
"label": "Playones de San Isidro", "lat": 16.895538, "lng": -99.75954
},{
"label": "La Cámara", "lat": 16.890173, "lng": -99.801509
},{
"label": "La Estación", "lat": 16.767795, "lng": -99.666098
},{
"label": "Colonia Democrática", "lat": 16.890882, "lng": -99.812466
},{
"label": "Apalani", "lat": 16.852981, "lng": -99.590019
}]