[{
"label": "El Rincón", "lat": 18.017654, "lng": -100.021524
},{
"label": "Tecuantlatzala", "lat": 18.206505, "lng": -100.051607
},{
"label": "Tlatzala", "lat": 18.060527, "lng": -99.896107
},{
"label": "Ocuila", "lat": 18.104079, "lng": -99.951649
},{
"label": "Tecolhuixtle", "lat": 18.075942, "lng": -99.902987
},{
"label": "Trapichal", "lat": 18.012519, "lng": -100.06609
},{
"label": "Las Garzas", "lat": 17.971667, "lng": -100.061954
},{
"label": "Colonia Puesta del Sol", "lat": 18.136153, "lng": -99.942436
},{
"label": "Chilapilla", "lat": 18.125443, "lng": -99.873506
},{
"label": "La Peña Chiquita", "lat": 18.057653, "lng": -100.068006
},{
"label": "La Lagunita", "lat": 17.968983, "lng": -99.915158
},{
"label": "Iglesia Vieja", "lat": 18.112461, "lng": -99.889874
},{
"label": "Los Limones", "lat": 18.196941, "lng": -100.09184
},{
"label": "Zacapostepec", "lat": 18.020928, "lng": -99.961633
},{
"label": "Pata de Burro", "lat": 18.216751, "lng": -100.073524
},{
"label": "El Salitre", "lat": 18.028512, "lng": -100.006852
},{
"label": "El Remolino", "lat": 17.968427, "lng": -100.047902
},{
"label": "Alceseca", "lat": 18.174882, "lng": -100.050677
},{
"label": "Palapa (Las Parotas)", "lat": 18.100326, "lng": -99.935163
},{
"label": "Liberaltepec", "lat": 18.1916, "lng": -100.033983
},{
"label": "El Naranjo", "lat": 17.959599, "lng": -100.018973
},{
"label": "Chantepec", "lat": 18.094696, "lng": -100.037899
},{
"label": "San Pedro", "lat": 18.210576, "lng": -100.073923
},{
"label": "Ciudad Apaxtla de Castrejón", "lat": 18.130078, "lng": -99.932314
},{
"label": "Xochitepec", "lat": 18.098209, "lng": -100.091539
},{
"label": "El Querengue", "lat": 17.992689, "lng": -99.90411
},{
"label": "El Muñeco", "lat": 18.124376, "lng": -99.922916
},{
"label": "Ojo de Agua", "lat": 18.011184, "lng": -100.023966
},{
"label": "Laguna del Tigre", "lat": 18.16526, "lng": -99.916471
},{
"label": "El Cascalote", "lat": 18.013564, "lng": -100.016159
},{
"label": "Trincheras (Rancho las Trincheras)", "lat": 18.204377, "lng": -100.046816
},{
"label": "Colonia Emiliano Zapata II (Cuadrilla Nueva)", "lat": 18.216299, "lng": -99.918736
},{
"label": "El Potrero", "lat": 18.104144, "lng": -100.036378
},{
"label": "La Papaya", "lat": 18.002986, "lng": -100.022326
},{
"label": "Plataforma Yetla Dos [Hotel]", "lat": 17.960641, "lng": -100.028697
},{
"label": "Las Juntas", "lat": 17.988768, "lng": -100.071225
},{
"label": "San Gaspar", "lat": 18.054395, "lng": -100.062549
},{
"label": "El Pochote", "lat": 18.12448, "lng": -99.938555
},{
"label": "Tepoxtepec (Tepoztepec)", "lat": 18.149095, "lng": -99.889474
},{
"label": "Petlacala", "lat": 18.187243, "lng": -99.882466
},{
"label": "Los Amates", "lat": 17.988816, "lng": -99.98419
},{
"label": "El Ciruelo", "lat": 17.979924, "lng": -100.053379
},{
"label": "San Marcos", "lat": 17.97689, "lng": -100.023254
},{
"label": "Yetla Dos", "lat": 17.959044, "lng": -100.03055
},{
"label": "Nejapa", "lat": 18.182455, "lng": -99.904474
},{
"label": "Rancho las Escaleras", "lat": 18.039598, "lng": -100.002799
},{
"label": "Los Britales", "lat": 17.991881, "lng": -100.087022
},{
"label": "Los Torres", "lat": 18.206482, "lng": -100.027408
},{
"label": "Cacalotepec", "lat": 18.047393, "lng": -100.008967
},{
"label": "Corral Grande", "lat": 17.96624, "lng": -99.903721
},{
"label": "El Aguacate", "lat": 18.036618, "lng": -100.030881
},{
"label": "Xochipala", "lat": 18.226738, "lng": -99.989474
},{
"label": "El Frío", "lat": 18.017018, "lng": -100.011584
},{
"label": "San Felipe del Ocote (San Felipe)", "lat": 18.174581, "lng": -100.065982
},{
"label": "Las Presitas", "lat": 17.971794, "lng": -100.017074
},{
"label": "Ixtlahuaca", "lat": 18.136524, "lng": -100.043546
},{
"label": "Texocotla", "lat": 18.021947, "lng": -99.919569
},{
"label": "El Calguaje", "lat": 18.056076, "lng": -100.086837
},{
"label": "Pueblo Nuevo Santa María", "lat": 17.98395, "lng": -99.872187
}]