[{
"label": "Michapa", "lat": 18.002295, "lng": -99.867816
},{
"label": "Molonial", "lat": 18.216583, "lng": -99.89067
},{
"label": "Tomixtlahuac치n", "lat": 18.057643, "lng": -99.819808
},{
"label": "San Francisco Lagunita", "lat": 18.176764, "lng": -99.766969
},{
"label": "Limontitl치n", "lat": 18.039395, "lng": -99.806988
},{
"label": "San Gaspar", "lat": 18.247795, "lng": -99.742388
},{
"label": "Cuaxilotla", "lat": 18.171297, "lng": -99.852258
},{
"label": "Lim칩n Real", "lat": 17.939839, "lng": -99.846464
},{
"label": "El Pitayo [Rancho]", "lat": 18.24202, "lng": -99.761535
},{
"label": "Cuadrilla Nueva", "lat": 17.944763, "lng": -99.815441
},{
"label": "La Parota", "lat": 17.971893, "lng": -99.837349
},{
"label": "El Rodeo", "lat": 18.071128, "lng": -99.827576
},{
"label": "El Mango", "lat": 18.048006, "lng": -99.858656
},{
"label": "Ahuaxotitla", "lat": 18.146422, "lng": -99.781596
},{
"label": "Tlaquilpa", "lat": 18.176983, "lng": -99.760625
},{
"label": "El Paso", "lat": 18.139444, "lng": -99.836111
},{
"label": "Tlacaquipa", "lat": 18.227298, "lng": -99.872822
},{
"label": "San Luis", "lat": 18.064241, "lng": -99.797689
},{
"label": "Tianquizolco", "lat": 18.223664, "lng": -99.754563
},{
"label": "Agua del Tepetate", "lat": 18.127722, "lng": -99.838513
},{
"label": "Apetlanca", "lat": 18.207724, "lng": -99.789252
},{
"label": "El Querengue", "lat": 18.031895, "lng": -99.847544
},{
"label": "Zompantitl치n", "lat": 18.127221, "lng": -99.808687
},{
"label": "Ojo de Agua", "lat": 18.084816, "lng": -99.799773
},{
"label": "Cuetzala del Progreso", "lat": 18.134141, "lng": -99.831486
},{
"label": "Chilacachapa", "lat": 18.273259, "lng": -99.76093
}]