[{
"label": "Tzicapotzaltzi", "lat": 17.866525, "lng": -98.656577
},{
"label": "Santa Cruz Lomalapa (Lomalapa)", "lat": 17.915467, "lng": -98.671582
},{
"label": "Tecuanatlaco", "lat": 17.766103, "lng": -98.730964
},{
"label": "Tlaxco", "lat": 17.839703, "lng": -98.700571
},{
"label": "Temolzingo", "lat": 17.940956, "lng": -98.715667
},{
"label": "La Escondida (El Bordo)", "lat": 17.92723, "lng": -98.745684
},{
"label": "El Carrizo", "lat": 17.88085, "lng": -98.824136
},{
"label": "Zompepelco Uno (Rancho Viejo)", "lat": 17.865153, "lng": -98.817264
},{
"label": "Los Hornos", "lat": 17.771443, "lng": -98.716016
},{
"label": "Ocotitlán", "lat": 17.826206, "lng": -98.755297
},{
"label": "Rancho Llano Grande", "lat": 17.817064, "lng": -98.680948
},{
"label": "Campanario", "lat": 17.877648, "lng": -98.635591
},{
"label": "Cozahuate", "lat": 17.954649, "lng": -98.739486
},{
"label": "Dos Cruces", "lat": 17.808346, "lng": -98.760916
},{
"label": "Loma del Pitayo", "lat": 17.818127, "lng": -98.726734
},{
"label": "Huilotlán", "lat": 17.961923, "lng": -98.810612
},{
"label": "Cuamanalpan", "lat": 17.918442, "lng": -98.691993
},{
"label": "Agua Zarca (Zompepeltzin)", "lat": 17.875741, "lng": -98.817989
},{
"label": "Zacamolica", "lat": 17.973999, "lng": -98.734264
},{
"label": "La Libertad", "lat": 17.746091, "lng": -98.738358
},{
"label": "Tlahuitzingo", "lat": 17.907666, "lng": -98.705361
},{
"label": "Barranca de Tío Julián (Rancho Don Alberto)", "lat": 17.986596, "lng": -98.754766
},{
"label": "Loma Larga (El Lambedero)", "lat": 17.883826, "lng": -98.882001
},{
"label": "Ahuacatlán", "lat": 17.912209, "lng": -98.71924
},{
"label": "El Ahuaje del Amate Amarillo", "lat": 17.997673, "lng": -98.868731
},{
"label": "Teticic", "lat": 17.867411, "lng": -98.848168
},{
"label": "Xalatzingo", "lat": 17.904186, "lng": -98.642908
},{
"label": "Rancho Bacilides Carrasco", "lat": 17.966011, "lng": -98.756813
},{
"label": "Los Atopules", "lat": 17.762902, "lng": -98.738916
},{
"label": "La Encinera (Los Terreros)", "lat": 17.855959, "lng": -98.754954
},{
"label": "Rancho Manuel González", "lat": 17.839383, "lng": -98.781282
},{
"label": "El Costeño", "lat": 17.878198, "lng": -98.869835
},{
"label": "Cerro de Quiautepec", "lat": 17.729126, "lng": -98.738614
},{
"label": "Linda Vista", "lat": 17.750682, "lng": -98.738125
},{
"label": "Tenexcalco", "lat": 17.935115, "lng": -98.764804
},{
"label": "El Zopilote (Rancho Emilio Guevara)", "lat": 17.882379, "lng": -98.804324
},{
"label": "Paso de las Culebras", "lat": 17.80715, "lng": -98.765155
},{
"label": "Tres Luces", "lat": 17.906666, "lng": -98.704026
},{
"label": "Tecolhuitzo", "lat": 17.866061, "lng": -98.635279
},{
"label": "El Progreso (Chupandillo)", "lat": 17.81048, "lng": -98.711639
},{
"label": "Tenantzingo (Rancho Constantino Rodríguez)", "lat": 17.792245, "lng": -98.770306
},{
"label": "Barranca el Tanque", "lat": 17.849953, "lng": -98.828898
},{
"label": "Tlanitzingo", "lat": 17.902182, "lng": -98.807565
},{
"label": "Cerro de Ahuacatlán", "lat": 17.888178, "lng": -98.694809
},{
"label": "Rancho Miguel Diego", "lat": 17.783016, "lng": -98.780129
},{
"label": "Rancho Miguel Amaro", "lat": 17.849165, "lng": -98.716063
},{
"label": "Amatlicha", "lat": 17.827281, "lng": -98.803659
},{
"label": "Rancho Buena Vista", "lat": 17.836884, "lng": -98.727809
},{
"label": "Metlatijca", "lat": 17.860341, "lng": -98.69361
},{
"label": "Rancho los Aguacates", "lat": 17.831909, "lng": -98.721228
},{
"label": "El Portezuelo", "lat": 17.866325, "lng": -98.66409
},{
"label": "Lomas de Tecojcoyunca", "lat": 17.923808, "lng": -98.704049
},{
"label": "Las Pilas", "lat": 17.899752, "lng": -98.837927
},{
"label": "Amatitlán", "lat": 17.951732, "lng": -98.757774
},{
"label": "Tecalquillo", "lat": 17.982497, "lng": -98.842163
},{
"label": "Rancho el Mirador", "lat": 17.870435, "lng": -98.657068
},{
"label": "La Presa", "lat": 17.833603, "lng": -98.670535
},{
"label": "San Lázaro (Tecojcosco)", "lat": 17.892839, "lng": -98.704834
},{
"label": "Las Minas (Tlalchichiltipan)", "lat": 17.907387, "lng": -98.663583
},{
"label": "Cuatecomatitlán", "lat": 17.885311, "lng": -98.655279
},{
"label": "Rancho Julián Alonso", "lat": 17.893005, "lng": -98.757506
},{
"label": "Temalacatzingo", "lat": 17.885183, "lng": -98.680433
},{
"label": "Coyomitla", "lat": 17.812616, "lng": -98.720514
},{
"label": "Tlaltenango", "lat": 17.830622, "lng": -98.827198
},{
"label": "Rancho de la Pila", "lat": 17.902589, "lng": -98.837304
},{
"label": "Tecusiapa", "lat": 17.827599, "lng": -98.684271
},{
"label": "Los Laureles (El Cuauayote)", "lat": 17.995515, "lng": -98.815271
},{
"label": "Axoxuca", "lat": 17.80836, "lng": -98.725625
},{
"label": "La Parota", "lat": 17.92738, "lng": -98.809346
},{
"label": "Xixila", "lat": 17.944931, "lng": -98.851295
},{
"label": "Prent-Zaá", "lat": 17.840885, "lng": -98.65659
},{
"label": "El Crucero Tecosajca", "lat": 17.830273, "lng": -98.855557
},{
"label": "Rancho el Capadero", "lat": 17.79821, "lng": -98.745248
},{
"label": "El Zapote", "lat": 17.741153, "lng": -98.742061
},{
"label": "Mextiopam (Mextiopa)", "lat": 17.825709, "lng": -98.719123
},{
"label": "Tecorrales", "lat": 17.898389, "lng": -98.653957
},{
"label": "Rancho Daniel Reyes II", "lat": 17.883283, "lng": -98.755839
},{
"label": "Vista Hermosa", "lat": 17.771674, "lng": -98.76968
},{
"label": "Cozahuatitlán", "lat": 17.849976, "lng": -98.681579
},{
"label": "La Ciénega", "lat": 17.850839, "lng": -98.703027
},{
"label": "Rancho los Laureles", "lat": 17.835952, "lng": -98.71528
},{
"label": "El Tecorral", "lat": 17.958153, "lng": -98.848511
},{
"label": "El Tejón", "lat": 17.886223, "lng": -98.876505
},{
"label": "El Alcanfor", "lat": 17.749348, "lng": -98.733124
},{
"label": "Rancho Viejo", "lat": 17.926864, "lng": -98.788064
},{
"label": "Paraje Chilpancingo", "lat": 17.884179, "lng": -98.665549
},{
"label": "Rancho los Joselitos", "lat": 17.799956, "lng": -98.765229
},{
"label": "Las Juntas", "lat": 17.801606, "lng": -98.821321
},{
"label": "Colonia Altamirano", "lat": 17.903584, "lng": -98.687097
},{
"label": "Colonia Bugambilias", "lat": 17.873539, "lng": -98.688488
},{
"label": "Rancho Escolástico Mondragón", "lat": 17.756486, "lng": -98.742016
},{
"label": "Las Anonas", "lat": 17.858098, "lng": -98.887803
},{
"label": "El Organito (Rancho Hermelindo Patrón)", "lat": 17.914944, "lng": -98.816735
},{
"label": "Rancho Zoilo Franco", "lat": 17.959453, "lng": -98.758623
},{
"label": "Palito Redondo (Hijiotepec)", "lat": 17.747006, "lng": -98.77357
},{
"label": "El Huauxi (Rancho Ramiro Andrew)", "lat": 17.976066, "lng": -98.774728
},{
"label": "El Totole (Rancho Rómulo Andrew)", "lat": 17.9619, "lng": -98.783212
},{
"label": "La Escalera", "lat": 17.882753, "lng": -98.706525
},{
"label": "La Guamuchilera", "lat": 17.954651, "lng": -98.801671
},{
"label": "Tecojcoyunca", "lat": 17.939668, "lng": -98.695558
},{
"label": "Colonia San Felipe", "lat": 17.86178, "lng": -98.67341
},{
"label": "La Cueva del Chochosco", "lat": 17.788316, "lng": -98.729584
},{
"label": "Rancho Juan Rodríguez Mancilla", "lat": 17.818126, "lng": -98.758053
},{
"label": "Rancho los Nachitos", "lat": 17.845842, "lng": -98.835449
},{
"label": "Iyocingo (Ventanas Iyocingo)", "lat": 17.943857, "lng": -98.742173
},{
"label": "Chilatlajco", "lat": 17.881543, "lng": -98.654393
},{
"label": "Rancho Carmelo Alonso", "lat": 17.897171, "lng": -98.751673
},{
"label": "Coyú", "lat": 17.95907, "lng": -98.789949
},{
"label": "San Diego", "lat": 17.963252, "lng": -98.819842
},{
"label": "Tepozonalco", "lat": 17.872583, "lng": -98.669627
},{
"label": "Rancho Hermelindo Patrón", "lat": 17.790636, "lng": -98.756634
},{
"label": "Zontecomatlán", "lat": 17.872941, "lng": -98.644788
},{
"label": "San Felipe Amatitlán (Amatitlán)", "lat": 17.843202, "lng": -98.694442
},{
"label": "Rancho Leopoldo Apresa", "lat": 17.950686, "lng": -98.753424
},{
"label": "Zolapa", "lat": 17.887289, "lng": -98.817905
},{
"label": "Tlahuancatepec", "lat": 17.896368, "lng": -98.700088
},{
"label": "La Coronilla", "lat": 17.963484, "lng": -98.835384
},{
"label": "La Estancia (Rancho de los Franco)", "lat": 17.814603, "lng": -98.737944
},{
"label": "Rufino Abarca", "lat": 17.73996, "lng": -98.707504
},{
"label": "Santa Gertrudis (La Colonia)", "lat": 17.992245, "lng": -98.785043
},{
"label": "La Pastoría", "lat": 17.960219, "lng": -98.771889
},{
"label": "Lomas de Euxila", "lat": 17.860489, "lng": -98.724998
},{
"label": "Rancho los Rosendo", "lat": 17.777675, "lng": -98.761359
},{
"label": "Atiopan", "lat": 17.955779, "lng": -98.725564
},{
"label": "Palos Blancos", "lat": 17.875209, "lng": -98.878085
},{
"label": "Colonia Lázaro Cárdenas", "lat": 17.856366, "lng": -98.683548
},{
"label": "Cuachichinolco", "lat": 17.850523, "lng": -98.666369
},{
"label": "Lomas de Cocoyoc", "lat": 17.862311, "lng": -98.71883
},{
"label": "Rancho los Dionicio (Rancho la Parota)", "lat": 17.761008, "lng": -98.762798
},{
"label": "Tecoyahuatlán", "lat": 17.917794, "lng": -98.884581
},{
"label": "La Guadalupita", "lat": 17.876525, "lng": -98.718575
},{
"label": "Rancho Antonino García", "lat": 17.897897, "lng": -98.925528
},{
"label": "El Zopilote (Rancho Rogelio Andrew)", "lat": 17.977949, "lng": -98.778541
},{
"label": "Duraznotitlán", "lat": 17.876104, "lng": -98.732084
},{
"label": "Colonia Benito Juárez", "lat": 17.859365, "lng": -98.674047
},{
"label": "San José Amoltepec (Amoltepec)", "lat": 17.906703, "lng": -98.698604
},{
"label": "Loma de Mazatepec (Mazatepec)", "lat": 17.877058, "lng": -98.712629
},{
"label": "Colonia Nazareth", "lat": 17.840548, "lng": -98.639928
},{
"label": "Rancho Victorino Pantaleón", "lat": 17.772254, "lng": -98.719775
},{
"label": "El Alcanfor (Rancho Alfonso Apresa)", "lat": 17.892652, "lng": -98.76451
},{
"label": "Rancho Ismael Patrón", "lat": 17.741818, "lng": -98.729407
},{
"label": "Rincón de Zompepelco (Zilpozotitlán)", "lat": 17.869612, "lng": -98.809769
},{
"label": "Xochimilco", "lat": 17.769787, "lng": -98.710392
},{
"label": "San Antonio Coyahuacán", "lat": 17.861902, "lng": -98.680177
},{
"label": "Tetlate", "lat": 17.857844, "lng": -98.643807
},{
"label": "Tepetlacingo", "lat": 17.920673, "lng": -98.762923
},{
"label": "Hijiutepec", "lat": 17.743571, "lng": -98.782785
},{
"label": "Rancho el Limón", "lat": 17.778115, "lng": -98.775943
},{
"label": "Los Mangos", "lat": 17.743989, "lng": -98.739395
},{
"label": "San Nicolás", "lat": 17.929229, "lng": -98.771943
},{
"label": "Tierra Colorada", "lat": 17.775907, "lng": -98.759009
},{
"label": "Tecuzijapan", "lat": 17.836346, "lng": -98.687499
},{
"label": "Tepexi Blanco", "lat": 17.758008, "lng": -98.727059
},{
"label": "Rancho Daniel Reyes", "lat": 17.895227, "lng": -98.746672
},{
"label": "Los Terrerillos", "lat": 17.79632, "lng": -98.722949
},{
"label": "La Cumbre", "lat": 17.861716, "lng": -98.631282
},{
"label": "Las Dos Cruces", "lat": 17.871416, "lng": -98.707436
},{
"label": "Cruz Quemada", "lat": 17.942497, "lng": -98.757222
},{
"label": "El Refugio", "lat": 17.904709, "lng": -98.909197
},{
"label": "Xochipalapa", "lat": 17.833889, "lng": -98.661389
},{
"label": "Rancho Antonio Alonso Apresa", "lat": 17.931124, "lng": -98.812238
},{
"label": "Tuxtlán (Barranca del Tigre)", "lat": 17.955459, "lng": -98.698329
},{
"label": "Xotla", "lat": 17.889385, "lng": -98.906695
},{
"label": "Pazintla", "lat": 17.843525, "lng": -98.636469
},{
"label": "Paraje de las Palomas", "lat": 17.988954, "lng": -98.847061
},{
"label": "Rancho Leonides", "lat": 17.897449, "lng": -98.74945
},{
"label": "Tepetitlán", "lat": 17.840776, "lng": -98.84569
},{
"label": "El Amate del Letrero", "lat": 17.824398, "lng": -98.694726
},{
"label": "Tepeoleolco", "lat": 17.886013, "lng": -98.79298
},{
"label": "Zicatlán", "lat": 17.858374, "lng": -98.671697
},{
"label": "Las Manzanitas", "lat": 17.873154, "lng": -98.72087
},{
"label": "San Andrés", "lat": 17.807845, "lng": -98.718069
},{
"label": "Chachiltepec (Casas Blancas)", "lat": 17.923343, "lng": -98.672733
},{
"label": "Limontitlán", "lat": 17.803634, "lng": -98.711688
},{
"label": "Rancho Edilberto García Moreno", "lat": 17.828251, "lng": -98.729012
},{
"label": "Tecolapa", "lat": 17.972391, "lng": -98.76374
},{
"label": "El Papayo", "lat": 17.963563, "lng": -98.725417
},{
"label": "Viacrucis", "lat": 17.866807, "lng": -98.648133
},{
"label": "Tlaxicalteyo", "lat": 17.916936, "lng": -98.786479
},{
"label": "Tehuaxtitlán", "lat": 17.757579, "lng": -98.796463
},{
"label": "Shitepec", "lat": 17.914333, "lng": -98.653151
},{
"label": "Huixotitlán (Rancho Pablo Martínez)", "lat": 17.747055, "lng": -98.789077
},{
"label": "Ahuitlapilco", "lat": 17.914948, "lng": -98.770284
},{
"label": "Rancho el Coyotomate", "lat": 17.862187, "lng": -98.829161
},{
"label": "La Lobera", "lat": 17.857114, "lng": -98.709491
},{
"label": "Olinalá", "lat": 17.778332, "lng": -98.741256
},{
"label": "Ahuachichilco", "lat": 17.76718, "lng": -98.715838
},{
"label": "Zumpango", "lat": 17.933721, "lng": -98.682823
},{
"label": "Chichicastitlán", "lat": 17.85387, "lng": -98.797002
},{
"label": "Tecorrales de las Minas", "lat": 17.886251, "lng": -98.863094
},{
"label": "Teapan", "lat": 17.906746, "lng": -98.656145
},{
"label": "Cuahulotitlán", "lat": 17.866861, "lng": -98.620323
},{
"label": "Chautipa", "lat": 17.859515, "lng": -98.873703
},{
"label": "Rancho Bonito", "lat": 17.857729, "lng": -98.853458
},{
"label": "El Paraje (Rancho Saúl Acevedo)", "lat": 17.84916, "lng": -98.854496
},{
"label": "La Loma Larga", "lat": 17.758298, "lng": -98.721621
},{
"label": "Teohuaxtitlán (Tepehuaje)", "lat": 17.860882, "lng": -98.667496
},{
"label": "Zacango", "lat": 17.797789, "lng": -98.776963
},{
"label": "Tehuixtla", "lat": 17.87055, "lng": -98.897718
},{
"label": "Rancho Justino García", "lat": 17.783688, "lng": -98.792278
},{
"label": "Nantzinyo", "lat": 17.880694, "lng": -98.643533
},{
"label": "San José Tecomulco", "lat": 17.867751, "lng": -98.715554
},{
"label": "Huixcolotitlán", "lat": 17.980026, "lng": -98.741916
},{
"label": "Rancho el Consuelo (Eliseo de los Santos)", "lat": 17.774209, "lng": -98.725754
},{
"label": "Rancho Pablo Vázquez", "lat": 17.837002, "lng": -98.718872
},{
"label": "Rancho la Esperanza (El Crucero de Teticic)", "lat": 17.857384, "lng": -98.859521
},{
"label": "El Reparo", "lat": 17.967364, "lng": -98.793817
},{
"label": "Colonia San Pedro", "lat": 17.895287, "lng": -98.664669
},{
"label": "Cerro de las Campanas", "lat": 17.826214, "lng": -98.667598
},{
"label": "El Tenanyo", "lat": 17.864481, "lng": -98.698466
},{
"label": "Tomatepec", "lat": 17.90738, "lng": -98.832034
},{
"label": "Huixcuautla", "lat": 17.782808, "lng": -98.763024
},{
"label": "Las Casitas", "lat": 17.801324, "lng": -98.78848
},{
"label": "Zacachautipa", "lat": 17.76989, "lng": -98.811643
},{
"label": "La Huamuchilera", "lat": 17.911571, "lng": -98.766719
},{
"label": "El Cuajilote", "lat": 17.909881, "lng": -98.939017
},{
"label": "Rancho Julio Franco", "lat": 17.758205, "lng": -98.732053
},{
"label": "Tetelcingo", "lat": 17.793096, "lng": -98.793838
},{
"label": "Los Tecorrales (Rancho Viejo)", "lat": 17.823396, "lng": -98.771077
},{
"label": "Everardo Torres Patrón", "lat": 17.910782, "lng": -98.769451
},{
"label": "San Gabriel", "lat": 17.874505, "lng": -98.734353
},{
"label": "Rancho Francisco Estrada", "lat": 17.889394, "lng": -98.751117
},{
"label": "El Terrero", "lat": 17.929606, "lng": -98.82425
},{
"label": "Rancho Limón", "lat": 17.853193, "lng": -98.657378
},{
"label": "Rancho Rodrigo Gonzaga", "lat": 17.77115, "lng": -98.721004
},{
"label": "Llano Grande", "lat": 17.776992, "lng": -98.799439
},{
"label": "La Cañada", "lat": 17.987555, "lng": -98.815291
},{
"label": "El Aguacate", "lat": 17.939444, "lng": -98.805223
},{
"label": "Colotiopa", "lat": 17.870031, "lng": -98.77445
},{
"label": "Loma Bonita", "lat": 17.804838, "lng": -98.807733
},{
"label": "Los Cajones", "lat": 17.754114, "lng": -98.747634
},{
"label": "Zompepelco", "lat": 17.863308, "lng": -98.826047
}]