[{
"label": "Atotongo", "lat": 18.545255, "lng": -99.798634
},{
"label": "Puerto Hondo", "lat": 18.521144, "lng": -99.912957
},{
"label": "Camino a Tepatulco", "lat": 18.517551, "lng": -99.89135
},{
"label": "Los Sauces", "lat": 18.553774, "lng": -99.781426
},{
"label": "Yahualtengo", "lat": 18.542443, "lng": -99.875648
},{
"label": "El Puente Colorado", "lat": 18.528121, "lng": -99.813395
},{
"label": "Cuahuazalpa", "lat": 18.538384, "lng": -99.832263
},{
"label": "El Manguito", "lat": 18.53073, "lng": -99.885267
},{
"label": "Puerto del Coyote", "lat": 18.538844, "lng": -99.828257
},{
"label": "Ayahualco", "lat": 18.576502, "lng": -99.797844
},{
"label": "Ixcapaneca", "lat": 18.498535, "lng": -99.924316
},{
"label": "Agua Colorada", "lat": 18.442129, "lng": -99.952783
},{
"label": "Cuajinicuila", "lat": 18.523015, "lng": -99.93444
},{
"label": "El Tecolote", "lat": 18.591557, "lng": -99.814821
},{
"label": "La Aurora", "lat": 18.571431, "lng": -99.846563
},{
"label": "Tepatulco", "lat": 18.535379, "lng": -99.906893
},{
"label": "La Tecama", "lat": 18.495695, "lng": -99.892181
},{
"label": "Agua Fría", "lat": 18.561331, "lng": -99.860649
},{
"label": "Teacalco", "lat": 18.567423, "lng": -99.908386
},{
"label": "Llanos de Ixcapaneca", "lat": 18.510122, "lng": -99.957602
},{
"label": "Puente Delgado (El Puente)", "lat": 18.518022, "lng": -99.820564
},{
"label": "Santa Lucía", "lat": 18.537011, "lng": -99.809253
},{
"label": "Cerro de Zacahuixtepec", "lat": 18.504662, "lng": -99.866304
},{
"label": "Tecolotlipa", "lat": 18.527344, "lng": -99.910513
},{
"label": "La Legua", "lat": 18.481958, "lng": -99.894593
},{
"label": "Acatla", "lat": 18.553557, "lng": -99.909971
},{
"label": "Santiago Salinas", "lat": 18.571288, "lng": -99.87046
},{
"label": "El Copal", "lat": 18.58895, "lng": -99.869124
},{
"label": "Puerto de la Marcela", "lat": 18.536483, "lng": -99.858859
},{
"label": "Pata de Res", "lat": 18.480485, "lng": -99.913254
},{
"label": "La Camila (Puente de Dios)", "lat": 18.460548, "lng": -99.917881
},{
"label": "Peña del Chivo", "lat": 18.577506, "lng": -99.934526
},{
"label": "Cañada de Tepoxonal", "lat": 18.577754, "lng": -99.772878
},{
"label": "Piedra Colgada", "lat": 18.553815, "lng": -99.952476
},{
"label": "Rincón de Jumapa", "lat": 18.437394, "lng": -99.951692
},{
"label": "Santa María Sinoquila", "lat": 18.618179, "lng": -99.806324
},{
"label": "Tecamachalco", "lat": 18.497686, "lng": -99.878821
},{
"label": "Pericones", "lat": 18.601468, "lng": -99.890773
},{
"label": "Tulatengo", "lat": 18.543656, "lng": -99.949609
},{
"label": "Zalquitzaya", "lat": 18.606454, "lng": -99.790844
},{
"label": "Amate Amarillo", "lat": 18.490454, "lng": -99.843525
},{
"label": "Zacatlán Grande", "lat": 18.512424, "lng": -99.847565
},{
"label": "Azuláquez", "lat": 18.57955, "lng": -99.808331
},{
"label": "Metlixtapa", "lat": 18.547432, "lng": -99.84698
},{
"label": "La Castrejona", "lat": 18.578107, "lng": -99.875281
},{
"label": "El Manto", "lat": 18.60044, "lng": -99.864324
},{
"label": "Ahuehuetitla", "lat": 18.576303, "lng": -99.885685
},{
"label": "Cirián Grande", "lat": 18.584711, "lng": -99.93043
},{
"label": "Rancho Viejo", "lat": 18.477209, "lng": -99.862368
},{
"label": "Potrero del Huizache", "lat": 18.565448, "lng": -99.828008
},{
"label": "San Pablo", "lat": 18.608781, "lng": -99.778229
},{
"label": "La Gavia", "lat": 18.532036, "lng": -99.859389
},{
"label": "Los Cuatlix", "lat": 18.487698, "lng": -99.902821
},{
"label": "Chicahuaca", "lat": 18.524808, "lng": -99.828121
},{
"label": "Tlanilpa", "lat": 18.597981, "lng": -99.850933
},{
"label": "Tejocotes", "lat": 18.607967, "lng": -99.798707
},{
"label": "San Pedro Atengo", "lat": 18.554889, "lng": -99.762454
},{
"label": "La Reforma", "lat": 18.443067, "lng": -99.933306
},{
"label": "Puerto del Muerto", "lat": 18.536138, "lng": -99.915284
},{
"label": "La Campana", "lat": 18.612356, "lng": -99.878233
},{
"label": "Tierra Colorada", "lat": 18.496929, "lng": -99.854848
},{
"label": "Plan del Escorpión", "lat": 18.605635, "lng": -99.862237
},{
"label": "Cuadrilla Nueva", "lat": 18.504944, "lng": -99.908594
},{
"label": "Amate de la Piedra", "lat": 18.489484, "lng": -99.877963
},{
"label": "Cruz Alta", "lat": 18.635928, "lng": -99.784133
},{
"label": "Atotonilco", "lat": 18.559354, "lng": -99.916367
},{
"label": "Cerro Grande", "lat": 18.496291, "lng": -99.836114
},{
"label": "Capulines", "lat": 18.587823, "lng": -99.787777
},{
"label": "Momuxtle", "lat": 18.552872, "lng": -99.891897
},{
"label": "El Cuahuilote", "lat": 18.577966, "lng": -99.858202
},{
"label": "Puerto Oscuro", "lat": 18.627577, "lng": -99.795274
},{
"label": "Los Fresnos", "lat": 18.548887, "lng": -99.871173
},{
"label": "Huerta Vieja", "lat": 18.5554, "lng": -99.860087
},{
"label": "Ixcapuzalco", "lat": 18.512364, "lng": -99.887018
},{
"label": "Llano de la Merced", "lat": 18.498083, "lng": -99.9007
},{
"label": "Nopala", "lat": 18.549844, "lng": -99.929302
},{
"label": "Salitre Chiquito", "lat": 18.567613, "lng": -99.818648
},{
"label": "Salitre Grande (El Salitre)", "lat": 18.584949, "lng": -99.81209
},{
"label": "Huixpa", "lat": 18.5788, "lng": -99.788094
},{
"label": "El Molonial", "lat": 18.472663, "lng": -99.938756
},{
"label": "Chitosto", "lat": 18.618859, "lng": -99.773369
},{
"label": "Agua del Monte", "lat": 18.605711, "lng": -99.781204
},{
"label": "Otates", "lat": 18.603943, "lng": -99.882322
},{
"label": "Piedra Grande", "lat": 18.560171, "lng": -99.943273
},{
"label": "Xochipisca", "lat": 18.593887, "lng": -99.774105
},{
"label": "El Paraje", "lat": 18.562659, "lng": -99.795965
},{
"label": "Ixtlahuacatengo", "lat": 18.487221, "lng": -99.93527
},{
"label": "Rancho Nuevo", "lat": 18.550643, "lng": -99.812953
},{
"label": "El Limón", "lat": 18.609242, "lng": -99.887137
}]