[{
"label": "Llano Grande de San Miguel (Arroyo del Muerto)", "lat": 18.741135, "lng": -99.666846
},{
"label": "Rancho la Loma", "lat": 18.757582, "lng": -99.670697
},{
"label": "Los Sauces", "lat": 18.696035, "lng": -99.673855
},{
"label": "Amatitlán", "lat": 18.670782, "lng": -99.611833
},{
"label": "La Quinta", "lat": 18.744462, "lng": -99.660217
},{
"label": "El Nepantle", "lat": 18.670012, "lng": -99.591297
},{
"label": "Nombre de Dios", "lat": 18.736992, "lng": -99.725511
},{
"label": "Cuitlapa", "lat": 18.694773, "lng": -99.624351
},{
"label": "Piedras Negras", "lat": 18.717956, "lng": -99.606236
},{
"label": "Cacahuamilpa", "lat": 18.682681, "lng": -99.506602
},{
"label": "Cuernavaquita", "lat": 18.719369, "lng": -99.494524
},{
"label": "El Sauz", "lat": 18.728477, "lng": -99.713316
},{
"label": "Chichila", "lat": 18.712841, "lng": -99.651421
},{
"label": "El Transformador", "lat": 18.672582, "lng": -99.488894
},{
"label": "Poza Larga (Puente Cristo)", "lat": 18.756546, "lng": -99.671948
},{
"label": "El Refugio (Paraje el Refugio)", "lat": 18.709556, "lng": -99.678791
},{
"label": "Los Puentes", "lat": 18.716703, "lng": -99.671548
},{
"label": "San Andrés Uno", "lat": 18.749732, "lng": -99.681961
},{
"label": "Crucero de Grutas (Grutas de Cacahuamilpa)", "lat": 18.672187, "lng": -99.510623
},{
"label": "La Joya", "lat": 18.677019, "lng": -99.587636
},{
"label": "El Jaral", "lat": 18.660168, "lng": -99.587325
},{
"label": "Chimaltitlán", "lat": 18.668679, "lng": -99.616485
},{
"label": "Santa Teresa", "lat": 18.692336, "lng": -99.485704
},{
"label": "San Juan Dos (La Alberca)", "lat": 18.74374, "lng": -99.679436
},{
"label": "El Platanar", "lat": 18.713856, "lng": -99.68792
},{
"label": "Pilcaya", "lat": 18.747584, "lng": -99.676175
},{
"label": "El Uvalar", "lat": 18.683671, "lng": -99.603412
},{
"label": "El Colorín", "lat": 18.726784, "lng": -99.661377
},{
"label": "La Poza (El Puente)", "lat": 18.68044, "lng": -99.484761
},{
"label": "Tecuanipa", "lat": 18.688276, "lng": -99.606241
},{
"label": "La Concepción (La Concha)", "lat": 18.767209, "lng": -99.69221
},{
"label": "Llano Chiquito", "lat": 18.751654, "lng": -99.665841
},{
"label": "Santa María", "lat": 18.683529, "lng": -99.660244
},{
"label": "Ninguno", "lat": 18.761925, "lng": -99.681577
},{
"label": "Juchimilpa", "lat": 18.711432, "lng": -99.700797
},{
"label": "Tlalapanca", "lat": 18.702973, "lng": -99.636921
},{
"label": "Los Cerritos", "lat": 18.712131, "lng": -99.499362
},{
"label": "Rancho Tezcayahuco (Rancho Adolfo González)", "lat": 18.744467, "lng": -99.669041
},{
"label": "El Izote", "lat": 18.668659, "lng": -99.603433
},{
"label": "El Bosque", "lat": 18.705644, "lng": -99.690338
},{
"label": "El Mogote", "lat": 18.682804, "lng": -99.564737
},{
"label": "Los Llanitos", "lat": 18.677911, "lng": -99.60329
},{
"label": "San Juan Uno", "lat": 18.746691, "lng": -99.680158
},{
"label": "Rancho Yehualica", "lat": 18.745075, "lng": -99.652065
}]