[{
"label": "San Juan de Dios (Naranjas de Dios)", "lat": 18.549854, "lng": -99.555112
},{
"label": "Plaza de Gallos (El Cucharillo)", "lat": 18.535844, "lng": -99.719929
},{
"label": "Rancho Romerito", "lat": 18.579354, "lng": -99.668368
},{
"label": "Texcaltitla", "lat": 18.58084, "lng": -99.486836
},{
"label": "San Pedro Chichila", "lat": 18.539972, "lng": -99.672474
},{
"label": "Huitzotla", "lat": 18.532567, "lng": -99.684833
},{
"label": "Piedras Altas (Agua Hedionda)", "lat": 18.605454, "lng": -99.44522
},{
"label": "Tejitlán (Trituradora de Piedra Huajojutla)", "lat": 18.589075, "lng": -99.546157
},{
"label": "San Miguel y Huerta", "lat": 18.607751, "lng": -99.724608
},{
"label": "Teacalco", "lat": 18.618375, "lng": -99.462732
},{
"label": "Los Pajaritos", "lat": 18.561023, "lng": -99.742538
},{
"label": "Barrio Santiago Dos", "lat": 18.503149, "lng": -99.505721
},{
"label": "El Fraile", "lat": 18.536889, "lng": -99.638256
},{
"label": "Zapoapa", "lat": 18.435678, "lng": -99.662927
},{
"label": "Cerro Gordo", "lat": 18.513871, "lng": -99.599545
},{
"label": "La Llamarada", "lat": 18.496859, "lng": -99.599202
},{
"label": "Martelas", "lat": 18.564218, "lng": -99.587333
},{
"label": "Tecalpulco", "lat": 18.489031, "lng": -99.602978
},{
"label": "El Zompantle", "lat": 18.541015, "lng": -99.710121
},{
"label": "Colonia el Arenal", "lat": 18.576787, "lng": -99.608214
},{
"label": "Puente Campuzano", "lat": 18.450631, "lng": -99.587921
},{
"label": "Rancho Agua Bendita", "lat": 18.465971, "lng": -99.579893
},{
"label": "El Ejido (Ejido Guerrero)", "lat": 18.503675, "lng": -99.603693
},{
"label": "La Cascada", "lat": 18.55502, "lng": -99.659222
},{
"label": "Corralejo", "lat": 18.632926, "lng": -99.508833
},{
"label": "El Cucharillo (Plaza de Gallos)", "lat": 18.541346, "lng": -99.721064
},{
"label": "Las Joyas", "lat": 18.600903, "lng": -99.558538
},{
"label": "Tehuilotepec", "lat": 18.551874, "lng": -99.581331
},{
"label": "La Cruz de Venado", "lat": 18.58482, "lng": -99.712498
},{
"label": "Las Crucecitas", "lat": 18.610404, "lng": -99.695022
},{
"label": "El Espejo", "lat": 18.575588, "lng": -99.605395
},{
"label": "Los Membrillos", "lat": 18.594915, "lng": -99.732986
},{
"label": "Santa Rosa", "lat": 18.524566, "lng": -99.626982
},{
"label": "Agua Escondida", "lat": 18.582255, "lng": -99.648334
},{
"label": "Barrio Molina", "lat": 18.559432, "lng": -99.624223
},{
"label": "Angolilla", "lat": 18.546363, "lng": -99.71313
},{
"label": "Paintla", "lat": 18.503396, "lng": -99.655273
},{
"label": "Aquiapa", "lat": 18.512905, "lng": -99.6759
},{
"label": "Los Texcalitos", "lat": 18.610741, "lng": -99.727814
},{
"label": "La Alberca (Rancho Spratung Silver)", "lat": 18.468364, "lng": -99.579396
},{
"label": "Atzala (Atzala de la Asunción)", "lat": 18.513386, "lng": -99.66162
},{
"label": "Xochimilco", "lat": 18.50757, "lng": -99.660338
},{
"label": "Palo del Muerto", "lat": 18.5967, "lng": -99.679331
},{
"label": "El Huixteco", "lat": 18.600534, "lng": -99.612824
},{
"label": "El Ancón", "lat": 18.533323, "lng": -99.741073
},{
"label": "Taxco de Alarcón", "lat": 18.557382, "lng": -99.604595
},{
"label": "San Miguel Guerrero (San Miguel)", "lat": 18.499948, "lng": -99.709809
},{
"label": "Chichila", "lat": 18.550654, "lng": -99.70117
},{
"label": "El Nogal", "lat": 18.593243, "lng": -99.76226
},{
"label": "La Galera", "lat": 18.612648, "lng": -99.470256
},{
"label": "El Ojo de Agua", "lat": 18.479689, "lng": -99.66012
},{
"label": "Rancho la Trinidad", "lat": 18.563091, "lng": -99.590674
},{
"label": "La Güera", "lat": 18.501441, "lng": -99.475525
},{
"label": "Coronillas", "lat": 18.614338, "lng": -99.711241
},{
"label": "Xochula", "lat": 18.524752, "lng": -99.586139
},{
"label": "San Felipe de Jesús Chichila", "lat": 18.538631, "lng": -99.690122
},{
"label": "La Quebradora", "lat": 18.567546, "lng": -99.569674
},{
"label": "San Juan del Monte", "lat": 18.581793, "lng": -99.745908
},{
"label": "Huajojutla (El Azul)", "lat": 18.57895, "lng": -99.572831
},{
"label": "San Juan Tenería", "lat": 18.593382, "lng": -99.691373
},{
"label": "Tezoquipa", "lat": 18.620063, "lng": -99.507266
},{
"label": "Tepetates (Jumilar)", "lat": 18.572389, "lng": -99.695801
},{
"label": "Cuatlapanaloya", "lat": 18.518991, "lng": -99.561976
},{
"label": "Hueymatla", "lat": 18.511837, "lng": -99.584413
},{
"label": "Las Joyas del Progreso", "lat": 18.517146, "lng": -99.609384
},{
"label": "El Horconcito", "lat": 18.545058, "lng": -99.728952
},{
"label": "El Aguacatito", "lat": 18.558768, "lng": -99.644182
},{
"label": "San Juan Unión", "lat": 18.433654, "lng": -99.62851
},{
"label": "Totoapa", "lat": 18.38788, "lng": -99.669019
},{
"label": "La Calavera", "lat": 18.583966, "lng": -99.601213
},{
"label": "Santiago Temixco", "lat": 18.485528, "lng": -99.642756
},{
"label": "Agua Bendita", "lat": 18.435811, "lng": -99.567108
},{
"label": "Los Capulines", "lat": 18.601179, "lng": -99.695405
},{
"label": "Axixintla", "lat": 18.602455, "lng": -99.517075
},{
"label": "Tlamacazapa", "lat": 18.496191, "lng": -99.502808
},{
"label": "Loma del Fresno", "lat": 18.598071, "lng": -99.689544
},{
"label": "La Presa", "lat": 18.399125, "lng": -99.670988
},{
"label": "Los Naranjos", "lat": 18.544816, "lng": -99.750792
},{
"label": "Tecuiciapa", "lat": 18.442735, "lng": -99.602494
},{
"label": "El Mirador", "lat": 18.607363, "lng": -99.499678
},{
"label": "El Gavilán", "lat": 18.600386, "lng": -99.555308
},{
"label": "Huitzotitla", "lat": 18.608588, "lng": -99.754584
},{
"label": "El Cedrito", "lat": 18.558826, "lng": -99.574296
},{
"label": "San Sebastián", "lat": 18.513866, "lng": -99.580827
},{
"label": "Acamixtla", "lat": 18.564674, "lng": -99.564534
},{
"label": "Huixtac", "lat": 18.460015, "lng": -99.658526
},{
"label": "Rancho el Coyote (La Carrera del Coyote)", "lat": 18.580524, "lng": -99.618175
},{
"label": "Icatepec", "lat": 18.402618, "lng": -99.609673
},{
"label": "La Barranca de Castontla", "lat": 18.561738, "lng": -99.629846
},{
"label": "Xochipizca", "lat": 18.600054, "lng": -99.762452
},{
"label": "Coamazac", "lat": 18.600729, "lng": -99.480409
},{
"label": "Rancho Reyes (El Aserradero)", "lat": 18.585384, "lng": -99.671745
},{
"label": "Cajones", "lat": 18.580831, "lng": -99.642366
},{
"label": "Temaxcalapa", "lat": 18.427403, "lng": -99.687838
},{
"label": "El Capulín", "lat": 18.587724, "lng": -99.720321
},{
"label": "El Portezuelo (Las Granjas)", "lat": 18.437675, "lng": -99.579455
},{
"label": "Mexcaltepec", "lat": 18.419189, "lng": -99.545438
},{
"label": "La W", "lat": 18.541579, "lng": -99.713922
},{
"label": "Cerro del Tepatule", "lat": 18.557466, "lng": -99.721344
},{
"label": "Cerrito del Cristo", "lat": 18.555494, "lng": -99.566846
},{
"label": "Xochitiopa", "lat": 18.49227, "lng": -99.486258
},{
"label": "La Ocotera de Landa", "lat": 18.562382, "lng": -99.632449
},{
"label": "San José el Potrero", "lat": 18.646724, "lng": -99.473756
},{
"label": "Papala", "lat": 18.613681, "lng": -99.538349
},{
"label": "Rancho de Colores", "lat": 18.52036, "lng": -99.599566
},{
"label": "El Tejocote", "lat": 18.595987, "lng": -99.672457
},{
"label": "El Tejocote (El Tejocote Redondo)", "lat": 18.61963, "lng": -99.753092
},{
"label": "La Ciénega", "lat": 18.574356, "lng": -99.745871
},{
"label": "Dolores", "lat": 18.516373, "lng": -99.61716
},{
"label": "Rancho Viejo", "lat": 18.585703, "lng": -99.563073
},{
"label": "El Potrero", "lat": 18.57796, "lng": -99.602465
},{
"label": "Taxco el Viejo", "lat": 18.48526, "lng": -99.584599
},{
"label": "Zacatecolotla", "lat": 18.589254, "lng": -99.565564
},{
"label": "El Vergel", "lat": 18.547525, "lng": -99.688699
},{
"label": "Los Yautles", "lat": 18.619271, "lng": -99.694011
},{
"label": "La Mora", "lat": 18.552699, "lng": -99.712469
},{
"label": "La Rosa", "lat": 18.604209, "lng": -99.720682
},{
"label": "Santo Domingo", "lat": 18.566359, "lng": -99.746768
},{
"label": "El Boliche", "lat": 18.548786, "lng": -99.56449
},{
"label": "Cholcingo", "lat": 18.597514, "lng": -99.532949
},{
"label": "Rancho Guadalupe (La Curva)", "lat": 18.605822, "lng": -99.709409
},{
"label": "Los Ocotes", "lat": 18.557093, "lng": -99.732495
},{
"label": "Acuitlapán", "lat": 18.601587, "lng": -99.543545
},{
"label": "Casino de la Unión (Kilómetro 136)", "lat": 18.607288, "lng": -99.48704
},{
"label": "Puerto la Trampa (El Puerto)", "lat": 18.563818, "lng": -99.721646
},{
"label": "Huahuaxtla", "lat": 18.416346, "lng": -99.629512
},{
"label": "Apopalco", "lat": 18.484022, "lng": -99.645181
},{
"label": "San Francisco", "lat": 18.589001, "lng": -99.662993
},{
"label": "El Aguacate", "lat": 18.580216, "lng": -99.723417
},{
"label": "Kilómetro Ciento Nueve (Agua Bendita)", "lat": 18.434244, "lng": -99.561763
},{
"label": "San Esteban", "lat": 18.53181, "lng": -99.707002
},{
"label": "La Virgen", "lat": 18.562272, "lng": -99.545188
},{
"label": "Chitosto", "lat": 18.607505, "lng": -99.762809
},{
"label": "Landa Uno", "lat": 18.561511, "lng": -99.624435
},{
"label": "Minas Viejas", "lat": 18.528248, "lng": -99.608435
},{
"label": "Cacalotenango", "lat": 18.546489, "lng": -99.643792
},{
"label": "Ixtlahuaca", "lat": 18.58787, "lng": -99.702014
},{
"label": "Ex-Hacienda San Francisco Cuadra", "lat": 18.550138, "lng": -99.629537
},{
"label": "Juliantla", "lat": 18.540231, "lng": -99.554902
}]