[{
"label": "Piedra Escalera", "lat": 17.303971, "lng": -98.755802
},{
"label": "Plan Jacaranda", "lat": 17.216342, "lng": -98.812458
},{
"label": "Sabana", "lat": 17.327071, "lng": -98.722936
},{
"label": "Metlapilapa", "lat": 17.088163, "lng": -98.841755
},{
"label": "Llano Verde", "lat": 17.212299, "lng": -98.789001
},{
"label": "Totomixtlahuaca", "lat": 17.157838, "lng": -98.802754
},{
"label": "Tlacoapa Centro Dos", "lat": 17.26275, "lng": -98.750631
},{
"label": "Cerro Ometepec", "lat": 17.22726, "lng": -98.809532
},{
"label": "El Mirador", "lat": 17.221208, "lng": -98.763226
},{
"label": "Cerro Guadalupe", "lat": 17.301379, "lng": -98.727058
},{
"label": "Llano San Francisco", "lat": 17.293713, "lng": -98.716899
},{
"label": "Sabino de Guadalupe", "lat": 17.217647, "lng": -98.788828
},{
"label": "Llano del Tejocote", "lat": 17.293045, "lng": -98.776669
},{
"label": "Buena Vista", "lat": 17.214591, "lng": -98.833231
},{
"label": "San Miguel Buenavista", "lat": 17.297603, "lng": -98.726583
},{
"label": "Tlacoapa Centro Uno", "lat": 17.268371, "lng": -98.752228
},{
"label": "Barranca Zorro (Rancho Manuel Galeana)", "lat": 17.207278, "lng": -98.802379
},{
"label": "Cuatro Caminos (Tierra Colorada)", "lat": 17.313212, "lng": -98.725743
},{
"label": "Chirimoyo", "lat": 17.260011, "lng": -98.712405
},{
"label": "El Capulín", "lat": 17.314322, "lng": -98.69654
},{
"label": "Plan de Guadalupe", "lat": 17.245413, "lng": -98.729537
},{
"label": "Cerro Viejo", "lat": 17.282396, "lng": -98.782403
},{
"label": "Barranca Perico", "lat": 17.274482, "lng": -98.774921
},{
"label": "Llano Chiquito", "lat": 17.300364, "lng": -98.772041
},{
"label": "Barranca Cangrejo", "lat": 17.243831, "lng": -98.744358
},{
"label": "Loma Linda Vista", "lat": 17.214416, "lng": -98.795541
},{
"label": "Tlacoapa Centro Tres", "lat": 17.266608, "lng": -98.746449
},{
"label": "Ninguno", "lat": 17.185016, "lng": -98.783023
},{
"label": "27 de Septiembre", "lat": 17.261151, "lng": -98.746512
},{
"label": "Vista Hermosa", "lat": 17.216333, "lng": -98.816638
},{
"label": "Los Mangos (Cuadrilla los Mangos)", "lat": 17.139366, "lng": -98.832389
},{
"label": "Majahuac de Toro", "lat": 17.270825, "lng": -98.784459
},{
"label": "Piedra de Lodo", "lat": 17.30647, "lng": -98.759292
},{
"label": "El Campanario", "lat": 17.225467, "lng": -98.744845
},{
"label": "Tecolutla", "lat": 17.315439, "lng": -98.736284
},{
"label": "Xonacatepec", "lat": 17.260521, "lng": -98.795788
},{
"label": "Xochistlahuaca", "lat": 17.13949, "lng": -98.848169
},{
"label": "El Carrizal", "lat": 17.157624, "lng": -98.832488
},{
"label": "Agua Zarca", "lat": 17.171396, "lng": -98.810655
},{
"label": "Colonia San José", "lat": 17.263826, "lng": -98.799774
},{
"label": "Tlacoapa", "lat": 17.259948, "lng": -98.748211
},{
"label": "Llano Zopilote", "lat": 17.28865, "lng": -98.738398
},{
"label": "Potrero Ciénega", "lat": 17.147648, "lng": -98.822368
},{
"label": "Tenamazapa", "lat": 17.215732, "lng": -98.825882
},{
"label": "Juquilita", "lat": 17.204948, "lng": -98.816418
},{
"label": "Kilómetro Doce", "lat": 17.248509, "lng": -98.768891
},{
"label": "Xocoapa", "lat": 17.216481, "lng": -98.776567
},{
"label": "Mata Ñua Ji", "lat": 17.306504, "lng": -98.768292
},{
"label": "Barranca Nopalera", "lat": 17.263399, "lng": -98.758338
},{
"label": "San Marcos", "lat": 17.275998, "lng": -98.710623
},{
"label": "Tepetates", "lat": 17.325814, "lng": -98.734934
},{
"label": "San Miguel Tenamazapa (San Miguelito)", "lat": 17.200622, "lng": -98.805588
},{
"label": "Tierra Colorada de los Nachi", "lat": 17.186916, "lng": -98.802318
},{
"label": "Tlacotepec", "lat": 17.246961, "lng": -98.765371
},{
"label": "Xonacatlán", "lat": 17.264463, "lng": -98.790868
},{
"label": "Ahuejuyos Asaltados (El Ahuejuyo)", "lat": 17.130866, "lng": -98.814211
},{
"label": "Ahuehuete", "lat": 17.276965, "lng": -98.759434
},{
"label": "Cruz de Gallo", "lat": 17.263803, "lng": -98.731225
},{
"label": "Tlacoapa Centro Cuatro", "lat": 17.269435, "lng": -98.745556
},{
"label": "El Duraznal", "lat": 17.263333, "lng": -98.719167
},{
"label": "La Magueyera", "lat": 17.293962, "lng": -98.695246
},{
"label": "Colonia Lindavista (Colonia Renacimiento)", "lat": 17.253988, "lng": -98.752167
},{
"label": "Los Candelario (Barranca los Viejitos)", "lat": 17.30884, "lng": -98.706286
}]