[{
"label": "El Tanque", "lat": 18.266891, "lng": -100.477114
},{
"label": "La Huerta [Restaurante]", "lat": 18.291727, "lng": -100.319178
},{
"label": "Santo Niño (Santo Niño de Atocha)", "lat": 18.287504, "lng": -100.32432
},{
"label": "Colonia Juárez (El Jabalí)", "lat": 18.282391, "lng": -100.462006
},{
"label": "Morelita", "lat": 18.269042, "lng": -100.564664
},{
"label": "San José Poliutla", "lat": 18.274677, "lng": -100.391868
},{
"label": "Nuevo Guerrero", "lat": 18.227871, "lng": -100.52652
},{
"label": "Agua Colorada", "lat": 18.295602, "lng": -100.453015
},{
"label": "La Shurera (Barranca de las Piñas)", "lat": 18.281256, "lng": -100.391137
},{
"label": "El Ejido de Nuevo Guerrero", "lat": 18.220377, "lng": -100.524125
},{
"label": "Agua Fría", "lat": 18.274929, "lng": -100.35805
},{
"label": "Las Fraguas", "lat": 18.261134, "lng": -100.491269
},{
"label": "La Vuelta", "lat": 18.26407, "lng": -100.502158
},{
"label": "La Hacienda de Coquío (Hacienda San José)", "lat": 18.254069, "lng": -100.548479
},{
"label": "Las Agujas", "lat": 18.292798, "lng": -100.333959
},{
"label": "Nueva Filadelfia (Huerta Vieja)", "lat": 18.290166, "lng": -100.492854
},{
"label": "Crucero del Gallo", "lat": 18.253627, "lng": -100.511794
},{
"label": "El Perdón", "lat": 18.307991, "lng": -100.341442
},{
"label": "La Parota", "lat": 18.272722, "lng": -100.539431
},{
"label": "San Juan Mina", "lat": 18.236896, "lng": -100.526034
},{
"label": "Vista Hermosa (Puerto Agua Fría)", "lat": 18.284292, "lng": -100.34084
},{
"label": "El Platanal", "lat": 18.281111, "lng": -100.397778
},{
"label": "Tlapehuala", "lat": 18.23976, "lng": -100.541574
},{
"label": "Rancho la Peña (Rancho Rodríguez)", "lat": 18.276881, "lng": -100.451165
},{
"label": "El Oasis", "lat": 18.269549, "lng": -100.365006
},{
"label": "La Rosillera", "lat": 18.285618, "lng": -100.329854
},{
"label": "Rincón del Gallo (San José Guadalupe)", "lat": 18.274994, "lng": -100.509127
},{
"label": "El Puente (La Saiba)", "lat": 18.278505, "lng": -100.392159
},{
"label": "San Antonio de las Huertas", "lat": 18.2824, "lng": -100.518408
},{
"label": "Rancho el Sol Naciente", "lat": 18.296344, "lng": -100.447048
},{
"label": "Tozunte", "lat": 18.284994, "lng": -100.50188
},{
"label": "El Cuacuyul", "lat": 18.248834, "lng": -100.478441
},{
"label": "El Limón de Guadalupe", "lat": 18.232406, "lng": -100.516547
},{
"label": "El Tinoco", "lat": 18.32274, "lng": -100.550763
},{
"label": "La Cañada", "lat": 18.268734, "lng": -100.418054
},{
"label": "Rancho Nacho Rojas", "lat": 18.249166, "lng": -100.527833
},{
"label": "Hacienda Nueva", "lat": 18.316596, "lng": -100.330747
},{
"label": "Empacadora de Melón Poliutla", "lat": 18.264121, "lng": -100.37996
},{
"label": "Tiringueo", "lat": 18.267241, "lng": -100.559571
},{
"label": "El Guayabal", "lat": 18.290102, "lng": -100.49603
},{
"label": "El Realito", "lat": 18.23639, "lng": -100.504969
},{
"label": "El Zopilote", "lat": 18.286472, "lng": -100.334519
}]