[{
"label": "Moisés Ceballos", "lat": 19.334444, "lng": -103.581667
},{
"label": "Acuaranch [Balneario]", "lat": 19.251719, "lng": -103.6582
},{
"label": "La Meca", "lat": 19.338555, "lng": -103.561062
},{
"label": "La Joya [Los Alcaraz]", "lat": 19.439204, "lng": -103.650639
},{
"label": "Las Cañas", "lat": 19.290993, "lng": -103.652914
},{
"label": "La Noria", "lat": 19.396635, "lng": -103.618467
},{
"label": "Francisco Silva", "lat": 19.321667, "lng": -103.558333
},{
"label": "El Pedregal", "lat": 19.339735, "lng": -103.6736
},{
"label": "Montitlán", "lat": 19.401389, "lng": -103.620833
},{
"label": "Cuauhtémoc", "lat": 19.328774, "lng": -103.601861
},{
"label": "El Charapillo", "lat": 19.225278, "lng": -103.528333
},{
"label": "Las Canalejas", "lat": 19.394977, "lng": -103.61446
},{
"label": "Ninguno [Hotel Zaar]", "lat": 19.274437, "lng": -103.669799
},{
"label": "El Mango Solo", "lat": 19.355386, "lng": -103.627796
},{
"label": "Torrecillas", "lat": 19.3415, "lng": -103.683386
},{
"label": "Cañadas del Río [Fraccionamiento]", "lat": 19.334089, "lng": -103.671
},{
"label": "Rodeo", "lat": 19.278516, "lng": -103.667548
},{
"label": "Salomé Rocha", "lat": 19.347363, "lng": -103.54538
},{
"label": "Primitivo Tapia", "lat": 19.414186, "lng": -103.585936
},{
"label": "Ninguno [Comercial Eloro S. A.]", "lat": 19.279444, "lng": -103.666389
},{
"label": "Ninguno", "lat": 19.348333, "lng": -103.556111
},{
"label": "José Méndez", "lat": 19.405982, "lng": -103.602805
},{
"label": "Ninguno [Subestación]", "lat": 19.353218, "lng": -103.558931
},{
"label": "Rogelio Zizumbo Villareal", "lat": 19.280278, "lng": -103.668889
},{
"label": "El Guayabal", "lat": 19.318889, "lng": -103.652778
},{
"label": "Las Helenas [Fraccionamiento]", "lat": 19.339851, "lng": -103.681293
},{
"label": "La Palma", "lat": 19.289722, "lng": -103.631667
},{
"label": "El Recreo", "lat": 19.29225, "lng": -103.662417
},{
"label": "Roberto Vallejo", "lat": 19.436006, "lng": -103.620858
},{
"label": "Ultrapapaína", "lat": 19.300248, "lng": -103.660769
},{
"label": "Papá Pancho", "lat": 19.251549, "lng": -103.600114
},{
"label": "Colinas de San Miguel [Restaurante]", "lat": 19.330753, "lng": -103.643922
},{
"label": "El Astillero", "lat": 19.373736, "lng": -103.621094
},{
"label": "San Gerónimo [Arrocera]", "lat": 19.26045, "lng": -103.604669
},{
"label": "La Eriza [Bodega]", "lat": 19.274722, "lng": -103.511944
},{
"label": "El Oasis [Héctor Verduzco]", "lat": 19.226219, "lng": -103.637956
},{
"label": "Agua del Gallo", "lat": 19.282222, "lng": -103.548056
},{
"label": "Máximo Valencia", "lat": 19.35, "lng": -103.58
},{
"label": "Rodolfo Valdovinos", "lat": 19.306561, "lng": -103.601061
},{
"label": "Las Codornices", "lat": 19.390356, "lng": -103.672006
},{
"label": "Los Pepes", "lat": 19.323611, "lng": -103.621667
},{
"label": "Rosa Abelia Aguirre", "lat": 19.355278, "lng": -103.576667
},{
"label": "Ninguno [Fruconsa]", "lat": 19.272222, "lng": -103.541389
},{
"label": "Ninguno [Caseta de Máquinas]", "lat": 19.354167, "lng": -103.559167
},{
"label": "El Chicote", "lat": 19.391813, "lng": -103.606362
},{
"label": "La Golondrina", "lat": 19.379857, "lng": -103.548753
},{
"label": "Rancho María Luisa", "lat": 19.336389, "lng": -103.589167
},{
"label": "El Solito", "lat": 19.349819, "lng": -103.562027
},{
"label": "Armando Velasco", "lat": 19.386581, "lng": -103.590706
},{
"label": "Monte Grande [Charo Aguirre]", "lat": 19.433486, "lng": -103.617892
},{
"label": "Pedro Silva", "lat": 19.223333, "lng": -103.530278
},{
"label": "Miguel Esqueda", "lat": 19.258553, "lng": -103.585861
},{
"label": "San Miguel", "lat": 19.358729, "lng": -103.564138
},{
"label": "Invernadero los Sauces", "lat": 19.4055, "lng": -103.638897
},{
"label": "Agustín Facio", "lat": 19.399167, "lng": -103.570556
},{
"label": "Rancho Ochún", "lat": 19.390173, "lng": -103.596333
},{
"label": "José Luis Venegas", "lat": 19.224514, "lng": -103.640944
},{
"label": "José María Vázquez Lara", "lat": 19.380904, "lng": -103.676261
},{
"label": "La Playita", "lat": 19.282222, "lng": -103.658056
},{
"label": "Carlos Flores", "lat": 19.281667, "lng": -103.64
},{
"label": "El Gallero", "lat": 19.308333, "lng": -103.609444
},{
"label": "Ninguno [Kilómetro 6.5]", "lat": 19.334618, "lng": -103.66828
},{
"label": "Enrique Verduzco", "lat": 19.251617, "lng": -103.59574
},{
"label": "La Aguacatera [Antonio Yáñez]", "lat": 19.402383, "lng": -103.590667
},{
"label": "Potrero Chiquito", "lat": 19.366667, "lng": -103.529444
},{
"label": "Ramón Mora", "lat": 19.256414, "lng": -103.567201
},{
"label": "Juan Romero", "lat": 19.245516, "lng": -103.661499
},{
"label": "Jorge Vizcaíno", "lat": 19.265833, "lng": -103.596111
},{
"label": "Calixto Preciado", "lat": 19.320879, "lng": -103.539547
},{
"label": "Alfredo Heredia", "lat": 19.33499, "lng": -103.577209
},{
"label": "Rancho García", "lat": 19.380355, "lng": -103.67409
},{
"label": "El Tabaquito", "lat": 19.42774, "lng": -103.605579
},{
"label": "La Curvita", "lat": 19.333714, "lng": -103.661636
},{
"label": "Santa María", "lat": 19.315735, "lng": -103.630455
},{
"label": "El Bolitario", "lat": 19.359722, "lng": -103.583611
},{
"label": "Los Pinos", "lat": 19.34531, "lng": -103.639982
},{
"label": "Bordo la Cruz", "lat": 19.398774, "lng": -103.577501
},{
"label": "Antonio Yáñez", "lat": 19.396093, "lng": -103.610972
},{
"label": "El Jardín de la Hacienda", "lat": 19.272558, "lng": -103.660189
},{
"label": "Gabriel de la Mora", "lat": 19.269869, "lng": -103.66037
},{
"label": "La Mulata [Francisco Arámbula]", "lat": 19.396628, "lng": -103.606931
},{
"label": "Balleza", "lat": 19.427542, "lng": -103.621481
},{
"label": "Rincón de Tacho", "lat": 19.333518, "lng": -103.66913
},{
"label": "Puerta Pesada", "lat": 19.266697, "lng": -103.68183
},{
"label": "Monte Real [Restaurante]", "lat": 19.39376, "lng": -103.602572
},{
"label": "El Rincón Largo", "lat": 19.43961, "lng": -103.625365
},{
"label": "El Vergel", "lat": 19.329014, "lng": -103.615968
},{
"label": "El Establo", "lat": 19.291667, "lng": -103.598333
},{
"label": "Alberto Herrera", "lat": 19.306667, "lng": -103.618889
},{
"label": "Tajeli", "lat": 19.2439, "lng": -103.660908
},{
"label": "Camichines", "lat": 19.241667, "lng": -103.640278
},{
"label": "La Cruz", "lat": 19.268864, "lng": -103.539781
},{
"label": "El Mango", "lat": 19.305952, "lng": -103.650934
},{
"label": "Los Abuelos", "lat": 19.305747, "lng": -103.615861
},{
"label": "Benjamín Michel", "lat": 19.357222, "lng": -103.581667
},{
"label": "La Arena", "lat": 19.406117, "lng": -103.590992
},{
"label": "Agua Caliente [Gabriel González]", "lat": 19.216667, "lng": -103.635833
},{
"label": "Cruz de Piedra", "lat": 19.379167, "lng": -103.677222
},{
"label": "Salvador Tapia", "lat": 19.391489, "lng": -103.589581
},{
"label": "Manuel Guardado", "lat": 19.329306, "lng": -103.585048
},{
"label": "Agroforestal del Pacífico", "lat": 19.293161, "lng": -103.661381
},{
"label": "Rancho Rosita", "lat": 19.317064, "lng": -103.621711
},{
"label": "Quinta Merit [Fraccionamiento]", "lat": 19.294727, "lng": -103.661691
},{
"label": "Bordo el Carrizalillo", "lat": 19.411739, "lng": -103.605606
},{
"label": "Cerro Pelón", "lat": 19.424756, "lng": -103.595403
},{
"label": "Las Golondrinas", "lat": 19.411858, "lng": -103.625672
},{
"label": "La Higuera Hueca [Invernadero]", "lat": 19.413153, "lng": -103.646757
},{
"label": "Enrique Reyes", "lat": 19.232275, "lng": -103.630064
},{
"label": "Eva Solís Aguirre", "lat": 19.307222, "lng": -103.545
},{
"label": "Global Gas [Gasera]", "lat": 19.373864, "lng": -103.578736
},{
"label": "La Limonera", "lat": 19.236111, "lng": -103.577778
},{
"label": "Silvia Martell", "lat": 19.403708, "lng": -103.606622
},{
"label": "El Pino", "lat": 19.219167, "lng": -103.642222
},{
"label": "Ricardo Brambila", "lat": 19.379958, "lng": -103.677154
},{
"label": "Julián Chávez", "lat": 19.303611, "lng": -103.549722
},{
"label": "Miguel Zamora Velazco", "lat": 19.284167, "lng": -103.584444
},{
"label": "Los Abanicos", "lat": 19.309444, "lng": -103.608889
},{
"label": "Próspero Cruz", "lat": 19.264828, "lng": -103.594583
},{
"label": "San Isidro", "lat": 19.330784, "lng": -103.666255
},{
"label": "Rigoberto Quiñones", "lat": 19.260278, "lng": -103.605833
},{
"label": "José Hernández (El Triste)", "lat": 19.402639, "lng": -103.596939
},{
"label": "El Hongo", "lat": 19.297778, "lng": -103.555833
},{
"label": "Alzada [Subestación Eléctrica]", "lat": 19.244722, "lng": -103.536667
},{
"label": "El Búfalo", "lat": 19.433056, "lng": -103.634238
},{
"label": "Quesería", "lat": 19.386948, "lng": -103.573679
},{
"label": "Campestre las Piedras", "lat": 19.303872, "lng": -103.599917
},{
"label": "Esteban Araujo", "lat": 19.423086, "lng": -103.626798
},{
"label": "Los Canelos", "lat": 19.332844, "lng": -103.543039
},{
"label": "Ignacio Amezcua", "lat": 19.363121, "lng": -103.617768
},{
"label": "Daniel Heredia", "lat": 19.330876, "lng": -103.580784
},{
"label": "La Cabaña", "lat": 19.380861, "lng": -103.674344
},{
"label": "El Señor de la Misericordia", "lat": 19.313333, "lng": -103.604722
},{
"label": "Las Higueras", "lat": 19.320889, "lng": -103.622101
},{
"label": "Rodolfo González", "lat": 19.362401, "lng": -103.613671
},{
"label": "J. Guadalupe Ordorica", "lat": 19.349093, "lng": -103.590154
},{
"label": "Sergio Valencia (La Parota)", "lat": 19.345272, "lng": -103.555368
},{
"label": "La Meza", "lat": 19.437533, "lng": -103.620569
},{
"label": "Los Corales", "lat": 19.267469, "lng": -103.597486
},{
"label": "Jaguard Brand [Oficinas]", "lat": 19.390886, "lng": -103.588219
},{
"label": "Los Cuartos", "lat": 19.369444, "lng": -103.561111
},{
"label": "Las Iguanas", "lat": 19.310425, "lng": -103.602744
},{
"label": "El Roro", "lat": 19.391751, "lng": -103.588407
},{
"label": "La Parotita (Ejido Fernández)", "lat": 19.2925, "lng": -103.5375
},{
"label": "Bernardo Vallejo", "lat": 19.262778, "lng": -103.598333
},{
"label": "La Laguna Campestre [Fraccionamiento]", "lat": 19.343181, "lng": -103.681902
},{
"label": "Tres Rositas", "lat": 19.237944, "lng": -103.535814
},{
"label": "Crescencio Ochoa Verduzco", "lat": 19.257222, "lng": -103.603889
},{
"label": "Antonio Tapia", "lat": 19.436369, "lng": -103.617186
},{
"label": "Juan Aguirre", "lat": 19.302497, "lng": -103.550944
},{
"label": "Las Conchitas [Colonia]", "lat": 19.388756, "lng": -103.566428
},{
"label": "Ninguno [Colonia]", "lat": 19.265164, "lng": -103.548483
},{
"label": "Los Hernández", "lat": 19.325961, "lng": -103.531056
},{
"label": "Jorge Pineda", "lat": 19.249381, "lng": -103.573018
},{
"label": "El Edén", "lat": 19.238037, "lng": -103.673245
},{
"label": "Rigoberto Negrete", "lat": 19.307222, "lng": -103.618333
},{
"label": "Isaías Angulo", "lat": 19.308611, "lng": -103.617778
},{
"label": "Rancho Grande [San Gerónimo]", "lat": 19.313333, "lng": -103.603056
},{
"label": "Javier Osegueda", "lat": 19.423881, "lng": -103.614169
},{
"label": "Felipe Carrillo Puerto [Colonia]", "lat": 19.248538, "lng": -103.658347
},{
"label": "Las Alazanas Dos", "lat": 19.330627, "lng": -103.566502
},{
"label": "David Cárdenas", "lat": 19.333702, "lng": -103.537343
},{
"label": "La Tacotera", "lat": 19.383281, "lng": -103.671088
},{
"label": "El Ahuaje [Familia Rodríguez Luna]", "lat": 19.431386, "lng": -103.627749
},{
"label": "Doctor Porfirio", "lat": 19.292139, "lng": -103.664021
},{
"label": "Calle Naranjo Número Doce", "lat": 19.397955, "lng": -103.581558
},{
"label": "El Regimiento", "lat": 19.332316, "lng": -103.645443
},{
"label": "Antonio Campos", "lat": 19.353889, "lng": -103.589722
},{
"label": "El Porvenir", "lat": 19.273872, "lng": -103.648806
},{
"label": "Ninguno [Industrial Alcaraces]", "lat": 19.358333, "lng": -103.576667
},{
"label": "Aurelio Alcaraz", "lat": 19.319028, "lng": -103.617161
},{
"label": "San José", "lat": 19.291667, "lng": -103.593333
},{
"label": "José Silva", "lat": 19.240616, "lng": -103.670429
},{
"label": "Armando Alcaraz", "lat": 19.298611, "lng": -103.621389
},{
"label": "J. Guadalupe Madrigal", "lat": 19.236389, "lng": -103.6025
},{
"label": "El Cóbano [Gasolinera]", "lat": 19.301944, "lng": -103.629722
},{
"label": "La Ordeña", "lat": 19.404328, "lng": -103.617475
},{
"label": "El Aguinaldo [Granja]", "lat": 19.300681, "lng": -103.660933
},{
"label": "Abel Valdovinos", "lat": 19.321724, "lng": -103.577814
},{
"label": "Cuatro Vientos", "lat": 19.285833, "lng": -103.597778
},{
"label": "Sabino Martínez", "lat": 19.285, "lng": -103.638056
},{
"label": "El Seminario", "lat": 19.310526, "lng": -103.637065
},{
"label": "José Michel (La Copalera)", "lat": 19.358889, "lng": -103.596944
},{
"label": "Rancho Alegre", "lat": 19.347778, "lng": -103.580833
},{
"label": "Alberto Alonso", "lat": 19.391111, "lng": -103.595556
},{
"label": "Campestre la Joya", "lat": 19.338611, "lng": -103.681667
},{
"label": "El Cahuitito", "lat": 19.255803, "lng": -103.655843
},{
"label": "Marco Antonio Ruelas", "lat": 19.307306, "lng": -103.602547
},{
"label": "El Frijol de Abajo [Antonio Curiel]", "lat": 19.32882, "lng": -103.624873
},{
"label": "Horacio Preciado", "lat": 19.345412, "lng": -103.593889
},{
"label": "Los Pinitos", "lat": 19.333313, "lng": -103.661371
},{
"label": "José Rodríguez", "lat": 19.418379, "lng": -103.620201
},{
"label": "Quinta San Javier", "lat": 19.378389, "lng": -103.675364
},{
"label": "Miguel Silva", "lat": 19.396913, "lng": -103.551754
},{
"label": "Las Higueras [Rosalba Ruiz]", "lat": 19.332926, "lng": -103.619083
},{
"label": "Martha Elba Ruiz Corona", "lat": 19.385819, "lng": -103.673958
},{
"label": "Alzada", "lat": 19.258333, "lng": -103.528333
},{
"label": "El Frijol de Arriba", "lat": 19.337101, "lng": -103.623665
},{
"label": "Santa Mariana", "lat": 19.390581, "lng": -103.589211
},{
"label": "Los Pinos [Fraccionamiento]", "lat": 19.344603, "lng": -103.656292
},{
"label": "La Quinta", "lat": 19.282342, "lng": -103.645294
},{
"label": "El Monasterio", "lat": 19.310278, "lng": -103.603611
},{
"label": "Hacienda Vieja", "lat": 19.270596, "lng": -103.659608
},{
"label": "Rogelio Velasco", "lat": 19.3025, "lng": -103.631111
},{
"label": "Las Bugambilias", "lat": 19.279167, "lng": -103.667222
},{
"label": "José Guzmán", "lat": 19.340464, "lng": -103.640114
},{
"label": "Rancho de León", "lat": 19.38626, "lng": -103.672396
},{
"label": "La Cañada del Fofoyo", "lat": 19.374556, "lng": -103.674231
},{
"label": "Copalito", "lat": 19.305278, "lng": -103.643056
},{
"label": "Las Alazanas Uno", "lat": 19.321111, "lng": -103.563333
},{
"label": "San Juan", "lat": 19.296944, "lng": -103.586944
},{
"label": "La Ranita [Vivero]", "lat": 19.323333, "lng": -103.653056
},{
"label": "El Rinconcito", "lat": 19.243274, "lng": -103.668406
},{
"label": "Las Lomitas [Daniel Solórzano]", "lat": 19.3783, "lng": -103.677081
},{
"label": "Leonel Aguirre", "lat": 19.363239, "lng": -103.562569
},{
"label": "Ever Santana", "lat": 19.236458, "lng": -103.539011
},{
"label": "Osvaldo Rodríguez", "lat": 19.263201, "lng": -103.578857
},{
"label": "El Aguacate", "lat": 19.335766, "lng": -103.574461
},{
"label": "Alfredo Guedea de la Mora", "lat": 19.306769, "lng": -103.616839
},{
"label": "El Bonito", "lat": 19.236761, "lng": -103.629956
},{
"label": "El Tanque", "lat": 19.402352, "lng": -103.563142
},{
"label": "San Juan [Felipe Chávez]", "lat": 19.385717, "lng": -103.67147
},{
"label": "Ninguno [Observatorio Vulcanológico]", "lat": 19.381542, "lng": -103.67471
},{
"label": "El Aguacate Uno", "lat": 19.338536, "lng": -103.570432
},{
"label": "La Pradera", "lat": 19.397328, "lng": -103.614626
},{
"label": "Juan González López", "lat": 19.246594, "lng": -103.663767
},{
"label": "Los Urzúa", "lat": 19.409756, "lng": -103.642206
},{
"label": "Star Grass", "lat": 19.274698, "lng": -103.656729
},{
"label": "Salvador Negrete", "lat": 19.273153, "lng": -103.660914
},{
"label": "Ninguno [Caseta de Vigilancia de Policía Estatal]", "lat": 19.289261, "lng": -103.652814
},{
"label": "Pedro González", "lat": 19.326389, "lng": -103.594167
},{
"label": "El Gallo Colorado", "lat": 19.316906, "lng": -103.585408
},{
"label": "Andrés Plascencia", "lat": 19.411111, "lng": -103.587778
},{
"label": "La Curva", "lat": 19.330045, "lng": -103.589262
},{
"label": "Alcaraces", "lat": 19.364103, "lng": -103.576963
},{
"label": "José Brizuela", "lat": 19.3075, "lng": -103.617778
},{
"label": "Rancho Mendoza", "lat": 19.338611, "lng": -103.577222
},{
"label": "Santa Alicia", "lat": 19.3125, "lng": -103.599722
},{
"label": "Potrero del Tanque", "lat": 19.398333, "lng": -103.566667
},{
"label": "La Escaramuza", "lat": 19.335833, "lng": -103.589444
},{
"label": "Colonial [Motel]", "lat": 19.278889, "lng": -103.666667
},{
"label": "Barranca del Limón", "lat": 19.304722, "lng": -103.6225
},{
"label": "El Cuaco [Salón de Eventos]", "lat": 19.288078, "lng": -103.662866
},{
"label": "Serafín Ramos", "lat": 19.351551, "lng": -103.538576
},{
"label": "Las Tunas", "lat": 19.412222, "lng": -103.628333
},{
"label": "Los Eneficios", "lat": 19.310556, "lng": -103.590833
},{
"label": "Rancho de Monroy", "lat": 19.355768, "lng": -103.529464
},{
"label": "Filiberto Gutiérrez", "lat": 19.280278, "lng": -103.643889
},{
"label": "David Romero", "lat": 19.318611, "lng": -103.565
},{
"label": "El Zedillo", "lat": 19.390957, "lng": -103.631861
},{
"label": "Casa Blanca", "lat": 19.299696, "lng": -103.596337
},{
"label": "El Garañón", "lat": 19.227739, "lng": -103.634336
},{
"label": "Los Volcanes", "lat": 19.417775, "lng": -103.581999
},{
"label": "Manuel Hernández", "lat": 19.397194, "lng": -103.599875
},{
"label": "Quesería [Caseta Fitozoosanitaria]", "lat": 19.39212, "lng": -103.565401
},{
"label": "El Colorado", "lat": 19.3525, "lng": -103.563333
},{
"label": "La Clavellina", "lat": 19.276264, "lng": -103.6048
},{
"label": "La Floresta", "lat": 19.379642, "lng": -103.678131
},{
"label": "Javier Márquez", "lat": 19.40165, "lng": -103.599192
},{
"label": "Los Velasco", "lat": 19.350616, "lng": -103.611456
},{
"label": "La Felicidad", "lat": 19.243929, "lng": -103.667325
},{
"label": "El Kicho", "lat": 19.290278, "lng": -103.650411
},{
"label": "Filemón Ramos", "lat": 19.335001, "lng": -103.53131
},{
"label": "Ricardo Galindo", "lat": 19.284011, "lng": -103.599317
},{
"label": "Ramón Robles", "lat": 19.273553, "lng": -103.603667
},{
"label": "Campestre Monarca [Local de Eventos]", "lat": 19.248386, "lng": -103.661019
},{
"label": "Los Espinos", "lat": 19.3957, "lng": -103.561461
},{
"label": "Estación Fernández", "lat": 19.293165, "lng": -103.513872
},{
"label": "Santa Anita", "lat": 19.310833, "lng": -103.6125
},{
"label": "El Cortijo", "lat": 19.331697, "lng": -103.666981
},{
"label": "La Mulata [De Alcaraz]", "lat": 19.400901, "lng": -103.603516
},{
"label": "Marcelino Aguilar", "lat": 19.392946, "lng": -103.564554
},{
"label": "El Soguillero", "lat": 19.289167, "lng": -103.596389
},{
"label": "El Cielo", "lat": 19.308471, "lng": -103.601825
},{
"label": "Coba [Steak House]", "lat": 19.337767, "lng": -103.679302
},{
"label": "Rancho Ventura", "lat": 19.405759, "lng": -103.579889
},{
"label": "De Alba", "lat": 19.305369, "lng": -103.600572
},{
"label": "San Joaquín", "lat": 19.276455, "lng": -103.6465
},{
"label": "Cohetería Rodríguez", "lat": 19.391588, "lng": -103.587414
},{
"label": "Camino Real", "lat": 19.320907, "lng": -103.617217
},{
"label": "La Tepamera", "lat": 19.271191, "lng": -103.674568
},{
"label": "Los Tintos", "lat": 19.318575, "lng": -103.618561
},{
"label": "Los Zapotes", "lat": 19.381303, "lng": -103.667636
},{
"label": "Los Encinos", "lat": 19.425992, "lng": -103.627569
},{
"label": "Granja Integral", "lat": 19.324444, "lng": -103.654722
},{
"label": "Rubén González", "lat": 19.306667, "lng": -103.62
},{
"label": "Curtiduría", "lat": 19.356206, "lng": -103.579406
},{
"label": "Rancho de los Flores", "lat": 19.409903, "lng": -103.639473
},{
"label": "Antonio Valadez", "lat": 19.24795, "lng": -103.573393
},{
"label": "El Tarasco", "lat": 19.385508, "lng": -103.622603
},{
"label": "Cerro Colorado", "lat": 19.337778, "lng": -103.554444
},{
"label": "Víctor González", "lat": 19.3675, "lng": -103.615
},{
"label": "Rancho de Chencho", "lat": 19.322651, "lng": -103.619738
},{
"label": "Las Parotas", "lat": 19.279052, "lng": -103.638837
},{
"label": "Salvador García", "lat": 19.279471, "lng": -103.640127
},{
"label": "El Camichín [Rodolfo Aguirre]", "lat": 19.295556, "lng": -103.558889
},{
"label": "El Tejocote", "lat": 19.441681, "lng": -103.601281
},{
"label": "Jaime Luna", "lat": 19.321005, "lng": -103.569576
},{
"label": "Jaime Castañeda", "lat": 19.251667, "lng": -103.657222
},{
"label": "Rancho Rodín", "lat": 19.395095, "lng": -103.585171
},{
"label": "Rancho Viejo", "lat": 19.372586, "lng": -103.648804
},{
"label": "La Casona (El Portillo)", "lat": 19.225833, "lng": -103.647222
},{
"label": "Los Compadres", "lat": 19.393333, "lng": -103.583611
},{
"label": "Rancho Blanco", "lat": 19.386841, "lng": -103.603735
},{
"label": "Las Cruces", "lat": 19.194722, "lng": -103.639444
},{
"label": "El Cóbano", "lat": 19.305686, "lng": -103.64074
},{
"label": "Promel", "lat": 19.392301, "lng": -103.597508
},{
"label": "La Zacatera", "lat": 19.249085, "lng": -103.641282
},{
"label": "Rancho Desarenador", "lat": 19.402917, "lng": -103.580006
},{
"label": "Rancho Anaya", "lat": 19.306036, "lng": -103.614983
},{
"label": "El Trapiche", "lat": 19.277856, "lng": -103.661223
},{
"label": "El Oasis", "lat": 19.354512, "lng": -103.632599
},{
"label": "Doctor José Ángel Cruz", "lat": 19.331794, "lng": -103.641865
},{
"label": "Criadero de Puercos", "lat": 19.382178, "lng": -103.579322
},{
"label": "Sion", "lat": 19.353056, "lng": -103.580278
},{
"label": "Rancho de Ramírez", "lat": 19.348366, "lng": -103.621618
},{
"label": "Ninguno [Destacamento Policía Federal]", "lat": 19.304383, "lng": -103.623964
},{
"label": "El Mono", "lat": 19.335278, "lng": -103.599722
},{
"label": "Loma Alta (El Paraíso)", "lat": 19.38163, "lng": -103.607323
},{
"label": "José Flores Rubio", "lat": 19.410475, "lng": -103.616744
},{
"label": "La Palmita", "lat": 19.349514, "lng": -103.653725
},{
"label": "Potrero de la Sábila", "lat": 19.282778, "lng": -103.514167
},{
"label": "El Dorado", "lat": 19.316667, "lng": -103.603056
},{
"label": "El Corazón", "lat": 19.385466, "lng": -103.544697
},{
"label": "La Tijera", "lat": 19.43153, "lng": -103.591457
},{
"label": "Efrén Vizcaíno", "lat": 19.396667, "lng": -103.613889
},{
"label": "Los Galindo", "lat": 19.261964, "lng": -103.586594
},{
"label": "Buenavista", "lat": 19.248333, "lng": -103.614722
},{
"label": "Doroteo Silva González", "lat": 19.308814, "lng": -103.60303
},{
"label": "Enrique Martínez", "lat": 19.235172, "lng": -103.577986
},{
"label": "El Borregario", "lat": 19.291508, "lng": -103.662017
},{
"label": "El Polvorete", "lat": 19.341231, "lng": -103.687579
},{
"label": "Chiapa", "lat": 19.3375, "lng": -103.654167
},{
"label": "Horcones", "lat": 19.394642, "lng": -103.601201
},{
"label": "Ninguno [Cervecería de Colima]", "lat": 19.271304, "lng": -103.671833
},{
"label": "El Progreso [Jaime Rocha]", "lat": 19.311667, "lng": -103.552703
},{
"label": "Laboratorio del Ingenio [Bodega]", "lat": 19.394258, "lng": -103.57515
},{
"label": "Leopoldo Ordorica", "lat": 19.352658, "lng": -103.596799
},{
"label": "Rancho Sebastián", "lat": 19.378555, "lng": -103.669034
},{
"label": "Santa Rosa", "lat": 19.326068, "lng": -103.521186
},{
"label": "Manuel Vázquez", "lat": 19.34555, "lng": -103.647408
},{
"label": "La Soledad [Rafael Aguirre]", "lat": 19.285556, "lng": -103.554444
},{
"label": "Valle Fresco [Fraccionamiento]", "lat": 19.410556, "lng": -103.643333
},{
"label": "El Huérfano", "lat": 19.267964, "lng": -103.532042
},{
"label": "Los Avillos", "lat": 19.265556, "lng": -103.508889
},{
"label": "El Pastor", "lat": 19.2875, "lng": -103.600278
},{
"label": "Guivir [Frutos Selectos]", "lat": 19.409817, "lng": -103.643496
},{
"label": "El Ramalazo", "lat": 19.344167, "lng": -103.583889
},{
"label": "Palmillas", "lat": 19.351667, "lng": -103.552778
},{
"label": "Don Raúl", "lat": 19.416353, "lng": -103.592981
},{
"label": "Jaime Santana", "lat": 19.242056, "lng": -103.544358
},{
"label": "Las Cuevitas", "lat": 19.375836, "lng": -103.676753
},{
"label": "Miguel Radillo", "lat": 19.316111, "lng": -103.595
},{
"label": "El Parián", "lat": 19.301373, "lng": -103.643296
},{
"label": "El Barrigón", "lat": 19.265278, "lng": -103.602336
},{
"label": "Roberto Martínez [Vivero]", "lat": 19.276936, "lng": -103.659089
},{
"label": "Ángel Rocha", "lat": 19.344849, "lng": -103.541217
},{
"label": "El Refugio", "lat": 19.321703, "lng": -103.620156
},{
"label": "San Francisco del Volcán", "lat": 19.42827, "lng": -103.629947
},{
"label": "Casa Grande", "lat": 19.410556, "lng": -103.581667
},{
"label": "Germán Ascencio Faubet", "lat": 19.279742, "lng": -103.668383
},{
"label": "Tres Parotas", "lat": 19.260583, "lng": -103.600647
},{
"label": "El Guayabillo", "lat": 19.316006, "lng": -103.604069
},{
"label": "El Cepillo", "lat": 19.266744, "lng": -103.596267
},{
"label": "Bajío de la Leona", "lat": 19.220292, "lng": -103.566558
},{
"label": "Zamora [Vivero]", "lat": 19.391508, "lng": -103.5961
},{
"label": "Los Sauces", "lat": 19.407536, "lng": -103.638625
},{
"label": "Rancho Larios", "lat": 19.279167, "lng": -103.545
},{
"label": "La Laguna", "lat": 19.327411, "lng": -103.578029
},{
"label": "Luis Daniel Amezcua Rodríguez", "lat": 19.327778, "lng": -103.593333
},{
"label": "El Manguito", "lat": 19.241944, "lng": -103.541111
},{
"label": "San Felipe", "lat": 19.379942, "lng": -103.667739
},{
"label": "Pedro Ávalos", "lat": 19.398494, "lng": -103.588947
},{
"label": "Real Campestre", "lat": 19.248559, "lng": -103.662267
},{
"label": "Frutos de Jalisco", "lat": 19.266698, "lng": -103.645565
},{
"label": "Joaquín Hernández Castelón", "lat": 19.24705, "lng": -103.664047
},{
"label": "Raúl Salazar", "lat": 19.335103, "lng": -103.670192
},{
"label": "Jaime Briceño", "lat": 19.291764, "lng": -103.662617
},{
"label": "José Pulido", "lat": 19.229884, "lng": -103.582392
},{
"label": "Ninguno [Relleno Sanitario]", "lat": 19.324167, "lng": -103.557778
},{
"label": "La Lobera", "lat": 19.419622, "lng": -103.625425
},{
"label": "Club Hípico de Colima", "lat": 19.249146, "lng": -103.655314
},{
"label": "Alcaraces [Caseta Fitozoosanitaria]", "lat": 19.355, "lng": -103.565278
},{
"label": "Rancho Grande", "lat": 19.403528, "lng": -103.614956
},{
"label": "La Eriza", "lat": 19.318805, "lng": -103.538771
},{
"label": "Rancho del Gringo", "lat": 19.280108, "lng": -103.670374
},{
"label": "Salida a San Joaquín", "lat": 19.275112, "lng": -103.659544
},{
"label": "Santa Teresita", "lat": 19.342091, "lng": -103.552606
},{
"label": "Loma Dorada", "lat": 19.346389, "lng": -103.685833
},{
"label": "Quinta Rivera", "lat": 19.250692, "lng": -103.663175
},{
"label": "Las Teresitas", "lat": 19.399286, "lng": -103.554417
},{
"label": "Ocotillo", "lat": 19.333333, "lng": -103.650556
},{
"label": "ISENCO", "lat": 19.247025, "lng": -103.65029
},{
"label": "Salvador Aguayo", "lat": 19.306639, "lng": -103.615881
},{
"label": "Buenavista [Aeropuerto]", "lat": 19.278889, "lng": -103.579167
},{
"label": "Juan Aguayo", "lat": 19.307528, "lng": -103.614692
},{
"label": "Los Aguacates [Fidel Sandoval]", "lat": 19.392134, "lng": -103.604082
},{
"label": "Las Berenices", "lat": 19.262297, "lng": -103.649504
},{
"label": "Rancho Tepehuajes", "lat": 19.438031, "lng": -103.607933
},{
"label": "Los Arados", "lat": 19.312778, "lng": -103.554444
},{
"label": "José Serratos", "lat": 19.395, "lng": -103.590278
},{
"label": "Los Camichines", "lat": 19.313889, "lng": -103.594722
},{
"label": "Las Pintas", "lat": 19.388611, "lng": -103.556667
},{
"label": "El Güero López", "lat": 19.412586, "lng": -103.589449
},{
"label": "Base Reyna", "lat": 19.309722, "lng": -103.606667
},{
"label": "La Majada de San Juan", "lat": 19.310026, "lng": -103.591033
},{
"label": "Don Nacho [Huerta Ecológica]", "lat": 19.3375, "lng": -103.588889
},{
"label": "El Barro", "lat": 19.356413, "lng": -103.558669
},{
"label": "Bordo Colomitos [Bodega]", "lat": 19.268678, "lng": -103.582967
},{
"label": "Los Ruices", "lat": 19.378483, "lng": -103.676321
},{
"label": "Las Alazanas", "lat": 19.309722, "lng": -103.572778
},{
"label": "El Renegado", "lat": 19.396725, "lng": -103.634911
},{
"label": "Juan Heredia", "lat": 19.307088, "lng": -103.577002
},{
"label": "José Jiménez", "lat": 19.387663, "lng": -103.67301
},{
"label": "Juan Alcaraz", "lat": 19.356015, "lng": -103.594236
},{
"label": "Maranatha", "lat": 19.281944, "lng": -103.668611
},{
"label": "Luis Guedea de la Mora", "lat": 19.305833, "lng": -103.618611
},{
"label": "Roberto Vargas [Nutrilite]", "lat": 19.296343, "lng": -103.64646
}]