[{
"label": "La Alberca", "lat": 23.545098, "lng": -100.868929
},{
"label": "Las Amarillas", "lat": 23.613611, "lng": -101.138889
},{
"label": "Los Colorines", "lat": 23.612778, "lng": -101.048611
},{
"label": "Majada Antonio Vallejo", "lat": 23.753535, "lng": -101.329416
},{
"label": "El Pozo Viejo", "lat": 23.670088, "lng": -101.028979
},{
"label": "El Cedro", "lat": 23.651564, "lng": -100.848686
},{
"label": "El Salto", "lat": 23.757478, "lng": -100.899089
},{
"label": "El Pelotazo", "lat": 23.55746, "lng": -101.226568
},{
"label": "Ranchito de Coronados", "lat": 23.536505, "lng": -100.960283
},{
"label": "Los Azules", "lat": 23.776661, "lng": -101.166332
},{
"label": "Real de Catorce", "lat": 23.690449, "lng": -100.886253
},{
"label": "Tanque de Dolores", "lat": 23.658943, "lng": -101.163672
},{
"label": "San Isidro", "lat": 23.637183, "lng": -100.997816
},{
"label": "Tanque de Arenas", "lat": 23.688973, "lng": -101.198674
},{
"label": "San Cristóbal", "lat": 23.72501, "lng": -101.005366
},{
"label": "La Cieneguita de Sosa", "lat": 23.561736, "lng": -100.884448
},{
"label": "El Duraznillo", "lat": 23.615853, "lng": -101.155828
},{
"label": "Rancho el Pollo", "lat": 23.66338, "lng": -100.985063
},{
"label": "Las Sevillas", "lat": 23.397222, "lng": -100.976111
},{
"label": "Las Amapolas", "lat": 23.685393, "lng": -101.034125
},{
"label": "Desmontes de Catorce (Los Tahonitas)", "lat": 23.823203, "lng": -100.941589
},{
"label": "Mina de Concepción", "lat": 23.688795, "lng": -100.880665
},{
"label": "Cerrito de la Piedra", "lat": 23.651635, "lng": -101.167523
},{
"label": "Los Ojitos de Agua", "lat": 23.538154, "lng": -100.853328
},{
"label": "Boquilla de Barrabás", "lat": 23.498441, "lng": -101.060619
},{
"label": "La Pila", "lat": 23.73365, "lng": -100.946603
},{
"label": "El Magueyal", "lat": 23.575584, "lng": -100.879305
},{
"label": "Tanque Charco Cercado", "lat": 23.581764, "lng": -101.132422
},{
"label": "San José de los Quintos", "lat": 23.688488, "lng": -101.002507
},{
"label": "El Picacho", "lat": 23.613117, "lng": -101.260395
},{
"label": "San Juan de Matanzas", "lat": 23.645357, "lng": -100.884115
},{
"label": "Puerto de las Vacas", "lat": 23.472931, "lng": -101.047859
},{
"label": "Sierra Hermosa", "lat": 23.547778, "lng": -101.225833
},{
"label": "Las Adjuntas", "lat": 23.636261, "lng": -100.902939
},{
"label": "El Puerto de San Jacobo", "lat": 23.544039, "lng": -100.856268
},{
"label": "Socavón de Purísima", "lat": 23.694599, "lng": -100.894891
},{
"label": "Estación Catorce", "lat": 23.68996, "lng": -100.986079
},{
"label": "Valle Verde", "lat": 23.578473, "lng": -101.234342
},{
"label": "La Palma", "lat": 23.761317, "lng": -100.903873
},{
"label": "El Refugio de Coronados", "lat": 23.585661, "lng": -101.004599
},{
"label": "Santa Cruz del Mogote", "lat": 23.420221, "lng": -100.961244
},{
"label": "Rancho Cocuy", "lat": 23.773701, "lng": -100.980996
},{
"label": "Tahonas del Jordán", "lat": 23.568643, "lng": -100.854885
},{
"label": "Lavaderos", "lat": 23.603161, "lng": -101.087858
},{
"label": "Los Cuatro Caminos", "lat": 23.754349, "lng": -100.993
},{
"label": "Santa Clara", "lat": 23.809706, "lng": -100.955342
},{
"label": "San José de Milpitas", "lat": 23.703289, "lng": -100.952519
},{
"label": "Cieneguita de Quijano", "lat": 23.658574, "lng": -100.840387
},{
"label": "Santa Rita", "lat": 23.592104, "lng": -100.880483
},{
"label": "Puerto del Palillo", "lat": 23.680551, "lng": -100.892292
},{
"label": "San José de Coronados", "lat": 23.594692, "lng": -100.909458
},{
"label": "Las Auras", "lat": 23.699364, "lng": -101.008839
},{
"label": "Santo Niño", "lat": 23.688889, "lng": -101.054707
},{
"label": "Pozo Nueva Esperanza", "lat": 23.573934, "lng": -101.019082
},{
"label": "La Hediondilla", "lat": 23.678513, "lng": -100.888791
},{
"label": "Los Negritos", "lat": 23.635529, "lng": -101.22711
},{
"label": "Becerras", "lat": 23.565728, "lng": -100.858145
},{
"label": "Alamaritos de Coronados", "lat": 23.612401, "lng": -100.860153
},{
"label": "Puerto de la Cruz", "lat": 23.567827, "lng": -100.873892
},{
"label": "Ave María", "lat": 23.685, "lng": -100.861111
},{
"label": "San Antonio de la Cruz", "lat": 23.776888, "lng": -100.844851
},{
"label": "El Rayito", "lat": 23.652057, "lng": -101.220297
},{
"label": "Mezquite Chino", "lat": 23.786765, "lng": -101.286753
},{
"label": "La Cantera", "lat": 23.418842, "lng": -101.043036
},{
"label": "Los Reyes", "lat": 23.740617, "lng": -101.164628
},{
"label": "El Huizachal", "lat": 23.405108, "lng": -100.923163
},{
"label": "El Jordán", "lat": 23.535433, "lng": -100.843793
},{
"label": "San Rafael de Torres", "lat": 23.621101, "lng": -100.992364
},{
"label": "Tierras Negras", "lat": 23.590132, "lng": -100.885901
},{
"label": "Vigas de Coronados", "lat": 23.626062, "lng": -100.918342
},{
"label": "Poblazón", "lat": 23.737783, "lng": -100.942641
},{
"label": "Charco Largo", "lat": 23.852318, "lng": -101.212235
},{
"label": "La Mesa", "lat": 23.568118, "lng": -101.256538
},{
"label": "Santa Cruz de Carretas", "lat": 23.692335, "lng": -100.940127
},{
"label": "Cerrito Blanco", "lat": 23.445953, "lng": -101.119599
},{
"label": "Rancho Nuevo", "lat": 23.680183, "lng": -101.032495
},{
"label": "El Duraznillal (San Francisco)", "lat": 23.745784, "lng": -101.301739
},{
"label": "La Cardoncita", "lat": 23.590448, "lng": -101.236656
},{
"label": "Palma del Arco", "lat": 23.682464, "lng": -101.087395
},{
"label": "La Laguna", "lat": 23.772718, "lng": -101.221753
},{
"label": "El Barranco", "lat": 23.625345, "lng": -100.941685
},{
"label": "Poca Luz", "lat": 23.672036, "lng": -100.988014
},{
"label": "El Arrastradero (El Barranco)", "lat": 23.426111, "lng": -100.926111
},{
"label": "El Mastranto", "lat": 23.647158, "lng": -100.950899
},{
"label": "El Refugio (La Luz)", "lat": 23.689131, "lng": -100.858614
},{
"label": "San Antonio de Coronados", "lat": 23.529014, "lng": -100.940097
},{
"label": "El Tecolote", "lat": 23.699904, "lng": -101.128126
},{
"label": "Viborillas", "lat": 23.811611, "lng": -100.948123
},{
"label": "Santa María del Refugio", "lat": 23.733613, "lng": -101.224609
},{
"label": "Castañón", "lat": 23.829231, "lng": -101.267469
},{
"label": "Las Relaciones", "lat": 23.648557, "lng": -100.933793
},{
"label": "Las Margaritas", "lat": 23.558825, "lng": -101.038081
},{
"label": "San Miguel", "lat": 23.697107, "lng": -101.018069
},{
"label": "La Lagunita", "lat": 23.542278, "lng": -100.900214
},{
"label": "La Sabanilla", "lat": 23.74379, "lng": -101.286606
},{
"label": "La Lagunita (Maguey Mocho)", "lat": 23.549073, "lng": -100.892705
},{
"label": "Guadalupe del Carnicero (La Maroma)", "lat": 23.466323, "lng": -100.988964
},{
"label": "Bedao", "lat": 23.581293, "lng": -100.825266
},{
"label": "San Francisco del Refugio", "lat": 23.706659, "lng": -101.310704
},{
"label": "Los Muertos", "lat": 23.623313, "lng": -101.216091
},{
"label": "Refugio de los Amayas", "lat": 23.745916, "lng": -100.977575
},{
"label": "Los Pames", "lat": 23.783166, "lng": -101.185366
},{
"label": "Santa Rita [Compañía Minera]", "lat": 23.590098, "lng": -100.913939
},{
"label": "Tanque de Pulgas", "lat": 23.391111, "lng": -100.9975
},{
"label": "Potrerillos", "lat": 23.755152, "lng": -100.876614
},{
"label": "Los Catorce", "lat": 23.701924, "lng": -100.913791
},{
"label": "Estación Wadley", "lat": 23.612067, "lng": -100.98949
},{
"label": "El Garabato", "lat": 23.641672, "lng": -100.932719
},{
"label": "Ojo de Agua", "lat": 23.730376, "lng": -100.900003
},{
"label": "San José de los Lucas", "lat": 23.676507, "lng": -101.000062
},{
"label": "Jesús de Coronados", "lat": 23.599464, "lng": -100.88267
},{
"label": "La Milpita", "lat": 23.49898, "lng": -100.897169
},{
"label": "Retas", "lat": 23.651396, "lng": -101.200785
},{
"label": "San Vicente", "lat": 23.658549, "lng": -101.021131
},{
"label": "La Borrega", "lat": 23.712987, "lng": -101.052847
},{
"label": "Las Cabecitas", "lat": 23.59323, "lng": -101.159207
},{
"label": "La Continental (La Fábrica)", "lat": 23.695066, "lng": -100.98751
},{
"label": "Loma Blanca", "lat": 23.626433, "lng": -101.06199
},{
"label": "El Tejón", "lat": 23.630759, "lng": -101.080953
},{
"label": "El Potrero", "lat": 23.708078, "lng": -100.851252
},{
"label": "Los Huíngaros", "lat": 23.526713, "lng": -100.866272
},{
"label": "Ejido las Lechuzas [COPLAMAR]", "lat": 23.587443, "lng": -101.011869
},{
"label": "Mina la Fortuna", "lat": 23.72937, "lng": -101.302283
},{
"label": "La Leona", "lat": 23.649123, "lng": -100.86469
},{
"label": "Los Rayos", "lat": 23.538402, "lng": -100.887864
},{
"label": "Perros Duros", "lat": 23.682384, "lng": -100.990704
},{
"label": "El Oreganal", "lat": 23.546364, "lng": -100.857856
},{
"label": "La Peña", "lat": 23.651276, "lng": -100.879848
},{
"label": "La Pasadita", "lat": 23.823089, "lng": -100.941494
},{
"label": "El Vergel", "lat": 23.564749, "lng": -100.841012
},{
"label": "El Capadero", "lat": 23.616667, "lng": -101.21
},{
"label": "La Majada de Tacho", "lat": 23.780664, "lng": -101.231074
},{
"label": "La Biznaga", "lat": 23.746111, "lng": -101.256292
},{
"label": "Real de Maroma", "lat": 23.515256, "lng": -100.832507
},{
"label": "San Gabriel", "lat": 23.671281, "lng": -100.845912
},{
"label": "Cerrito de San José", "lat": 23.571735, "lng": -100.882778
},{
"label": "Loma Blanca Dos", "lat": 23.636964, "lng": -101.059594
},{
"label": "Mesa del Venado", "lat": 23.547778, "lng": -100.901667
},{
"label": "Charco del Mono", "lat": 23.805816, "lng": -101.244129
},{
"label": "Tahonitas del Salto", "lat": 23.764252, "lng": -100.897687
},{
"label": "Collado", "lat": 23.801958, "lng": -100.965199
},{
"label": "La Noria de San Rafael de Torres", "lat": 23.632283, "lng": -101.001673
},{
"label": "La Cañada", "lat": 23.730803, "lng": -100.9125
},{
"label": "El Verde", "lat": 23.677412, "lng": -100.85554
},{
"label": "Alamitos de los Díaz", "lat": 23.633791, "lng": -100.853776
},{
"label": "El Espolón", "lat": 23.696486, "lng": -100.854069
},{
"label": "El Pastor de Coronados", "lat": 23.586163, "lng": -100.879952
},{
"label": "Charco Colorado", "lat": 23.795327, "lng": -101.2995
},{
"label": "Agua Blanca", "lat": 23.723793, "lng": -100.898843
}]