[{
"label": "Garrillos", "lat": 21.535231, "lng": -99.550254
},{
"label": "Los Charcos", "lat": 21.616097, "lng": -99.618981
},{
"label": "La Presa", "lat": 21.512382, "lng": -99.599178
},{
"label": "El Coco", "lat": 21.723056, "lng": -99.565556
},{
"label": "El Epazote", "lat": 21.572513, "lng": -99.504435
},{
"label": "Hormigas", "lat": 21.632839, "lng": -99.524433
},{
"label": "El Gato", "lat": 21.712778, "lng": -99.591667
},{
"label": "El Puerto de Azafrán", "lat": 21.600994, "lng": -99.540165
},{
"label": "Santa Mónica", "lat": 21.553118, "lng": -99.516982
},{
"label": "Mesa Prieta", "lat": 21.681929, "lng": -99.588927
},{
"label": "El Puerto del Charco de Piedra", "lat": 21.624953, "lng": -99.565817
},{
"label": "El Potrero del Limoncito", "lat": 21.571374, "lng": -99.560659
},{
"label": "Buenavista", "lat": 21.611704, "lng": -99.517561
},{
"label": "San Isidro", "lat": 21.662804, "lng": -99.533677
},{
"label": "El Ahogado", "lat": 21.589675, "lng": -99.51947
},{
"label": "El Puerto de San Isidro", "lat": 21.668191, "lng": -99.547152
},{
"label": "El Boludo", "lat": 21.656001, "lng": -99.596722
},{
"label": "Rancho el Oasis", "lat": 21.570414, "lng": -99.576839
},{
"label": "La Rodada", "lat": 21.706086, "lng": -99.601992
},{
"label": "Tierras Blancas", "lat": 21.597065, "lng": -99.572924
},{
"label": "Chayotillos", "lat": 21.572728, "lng": -99.546149
},{
"label": "El Capulín", "lat": 21.502413, "lng": -99.563233
},{
"label": "La Higuera", "lat": 21.654804, "lng": -99.527158
},{
"label": "El Conche", "lat": 21.525616, "lng": -99.585693
},{
"label": "La Línea", "lat": 21.688904, "lng": -99.605966
},{
"label": "El Divisadero", "lat": 21.704814, "lng": -99.590688
},{
"label": "San Agustín", "lat": 21.685169, "lng": -99.613194
},{
"label": "La Canoa", "lat": 21.556403, "lng": -99.636479
},{
"label": "Tortugas", "lat": 21.591409, "lng": -99.623269
},{
"label": "Crucitas", "lat": 21.64219, "lng": -99.543234
},{
"label": "El Huizache", "lat": 21.580556, "lng": -99.506944
},{
"label": "Ojo de Agua", "lat": 21.514022, "lng": -99.585329
},{
"label": "Laguna Colorada", "lat": 21.5801, "lng": -99.580116
},{
"label": "San Ramón", "lat": 21.53455, "lng": -99.621845
},{
"label": "San Vicente", "lat": 21.618333, "lng": -99.521667
},{
"label": "La Escondida de Puerto Hondo", "lat": 21.628333, "lng": -99.688889
},{
"label": "San Agustín (María Guadalupe Cárdenas)", "lat": 21.680451, "lng": -99.633261
},{
"label": "Lagunillas", "lat": 21.585976, "lng": -99.56697
},{
"label": "San Juan Tetlas", "lat": 21.494859, "lng": -99.533902
},{
"label": "La Ladrillera", "lat": 21.717408, "lng": -99.584283
},{
"label": "Laguna de Pastores", "lat": 21.616056, "lng": -99.59205
},{
"label": "Santa Clara", "lat": 21.60995, "lng": -99.543246
},{
"label": "Charco de Agua Fría", "lat": 21.45577, "lng": -99.559683
},{
"label": "La Compuerta", "lat": 21.731995, "lng": -99.583937
},{
"label": "Anteoco Martínez Olvera (Lambarría)", "lat": 21.724034, "lng": -99.569732
},{
"label": "La Reforma", "lat": 21.538133, "lng": -99.576701
},{
"label": "Carrizal de San Juan de Abajo", "lat": 21.631854, "lng": -99.715109
},{
"label": "Las Rocas", "lat": 21.655848, "lng": -99.796234
},{
"label": "La Vuelta", "lat": 21.549494, "lng": -99.594695
},{
"label": "Amado Pérez", "lat": 21.628083, "lng": -99.696381
},{
"label": "El Barrio", "lat": 21.706435, "lng": -99.582727
},{
"label": "Pinihuan (Río Pinihuan)", "lat": 21.711817, "lng": -99.570299
},{
"label": "El Mirador (El Pedregal)", "lat": 21.539543, "lng": -99.603872
},{
"label": "Tanque Blanco", "lat": 21.676389, "lng": -99.542778
},{
"label": "Carrizal de San Juan de Arriba", "lat": 21.657311, "lng": -99.713713
},{
"label": "San Antonio", "lat": 21.574455, "lng": -99.621193
},{
"label": "El Trueno", "lat": 21.546106, "lng": -99.580146
},{
"label": "Los Corrales", "lat": 21.628166, "lng": -99.769154
},{
"label": "El Charco de Piedra", "lat": 21.626914, "lng": -99.580558
},{
"label": "La Bolsa", "lat": 21.564339, "lng": -99.55243
},{
"label": "El Carrizalito", "lat": 21.598731, "lng": -99.547512
},{
"label": "Laguna Verde", "lat": 21.486424, "lng": -99.559003
},{
"label": "Mesa de los Camachos", "lat": 21.741724, "lng": -99.605993
},{
"label": "San Rafael", "lat": 21.59007, "lng": -99.706413
},{
"label": "El Tepamal", "lat": 21.601727, "lng": -99.580669
},{
"label": "El Aguacate", "lat": 21.555413, "lng": -99.644173
},{
"label": "Corral de Toros", "lat": 21.684167, "lng": -99.779722
},{
"label": "El Quelitalillo (El Quelital)", "lat": 21.627938, "lng": -99.757904
},{
"label": "El Cañón", "lat": 21.746639, "lng": -99.587841
},{
"label": "Encinillas", "lat": 21.616138, "lng": -99.547436
},{
"label": "Las Norias", "lat": 21.595496, "lng": -99.672719
},{
"label": "El Cuicillal", "lat": 21.616294, "lng": -99.688373
},{
"label": "El Limón", "lat": 21.568243, "lng": -99.61325
},{
"label": "El Pocito", "lat": 21.547294, "lng": -99.635291
}]