[{
"label": "Colonia Luis Echeverría", "lat": 23.660002, "lng": -100.660987
},{
"label": "La Jara Brava", "lat": 23.500431, "lng": -100.67667
},{
"label": "La Desabrida (Encarnación de Arriba)", "lat": 23.537913, "lng": -100.60145
},{
"label": "Los Cinco Señores", "lat": 23.495872, "lng": -100.554589
},{
"label": "El Abajeño", "lat": 23.540278, "lng": -100.624444
},{
"label": "Noria de la Cabra", "lat": 23.734249, "lng": -100.670148
},{
"label": "Ejido Santa Ana", "lat": 23.627463, "lng": -100.633316
},{
"label": "El Raudel", "lat": 23.621401, "lng": -100.666912
},{
"label": "Cerro Doña Goya", "lat": 23.626199, "lng": -100.702209
},{
"label": "Ninguno [Radiodifusora XEIE]", "lat": 23.620961, "lng": -100.667084
},{
"label": "Rogelia Ortiz", "lat": 23.687724, "lng": -100.655393
},{
"label": "La Bonita", "lat": 23.478606, "lng": -100.614997
},{
"label": "Los Ángeles", "lat": 23.626391, "lng": -100.600598
},{
"label": "Fernando Morales Pecina", "lat": 23.643058, "lng": -100.625774
},{
"label": "La Caja", "lat": 23.758958, "lng": -100.557089
},{
"label": "Los Pocitos", "lat": 23.766569, "lng": -100.593406
},{
"label": "Tanque Colorado", "lat": 23.536426, "lng": -100.730654
},{
"label": "Paso Blanco", "lat": 23.556453, "lng": -100.756212
},{
"label": "El Mimbre", "lat": 23.733518, "lng": -100.523228
},{
"label": "Chiskys [Restaurante]", "lat": 23.233221, "lng": -100.544304
},{
"label": "El Tanquito", "lat": 23.618712, "lng": -100.532789
},{
"label": "Jorge Arévalo", "lat": 23.630893, "lng": -100.617754
},{
"label": "Luciano Medellín", "lat": 23.271008, "lng": -100.606584
},{
"label": "Ejido el Carmen", "lat": 23.352967, "lng": -100.575594
},{
"label": "Ninguno", "lat": 23.589157, "lng": -100.638643
},{
"label": "Rancho la Duda Uno", "lat": 23.605696, "lng": -100.67403
},{
"label": "San Francisco de Caleros", "lat": 23.632864, "lng": -100.696955
},{
"label": "El Águila", "lat": 23.770532, "lng": -100.541007
},{
"label": "Antonio Zaragoza [Fraccionamiento]", "lat": 23.647778, "lng": -100.666111
},{
"label": "Centro de Readaptación Social [Penitenciaría]", "lat": 23.705278, "lng": -100.615278
},{
"label": "Santa Elena de Arriba", "lat": 23.64549, "lng": -100.4753
},{
"label": "Santa Ana de Arriba", "lat": 23.607581, "lng": -100.641232
},{
"label": "La Palma", "lat": 23.471448, "lng": -100.633526
},{
"label": "Rancho la Duda Dos", "lat": 23.603036, "lng": -100.675639
},{
"label": "El Palmarito", "lat": 23.688682, "lng": -100.526522
},{
"label": "Piedra Blanca", "lat": 23.568692, "lng": -100.643576
},{
"label": "Majada Ejido San José de los Guajes", "lat": 23.35, "lng": -100.649167
},{
"label": "San Jacinto (San Antonio del Sauz)", "lat": 23.647402, "lng": -100.67421
},{
"label": "Víctor Araujo Rubio", "lat": 23.715278, "lng": -100.645
},{
"label": "Las Majadas", "lat": 23.598889, "lng": -100.723611
},{
"label": "Casa Blanca", "lat": 23.471643, "lng": -100.657657
},{
"label": "La Gavia", "lat": 23.655627, "lng": -100.517529
},{
"label": "El Pilar", "lat": 23.384722, "lng": -100.585833
},{
"label": "Rancho la Herradura", "lat": 23.580453, "lng": -100.631821
},{
"label": "Rancho Nuevo Uno", "lat": 23.692842, "lng": -100.644103
},{
"label": "San José de las Trojes", "lat": 23.710851, "lng": -100.660847
},{
"label": "Ejido Pastoriza", "lat": 23.411944, "lng": -100.594722
},{
"label": "Francisco Pérez González", "lat": 23.6325, "lng": -100.618333
},{
"label": "María Santos Briones (La Carbonera)", "lat": 23.663107, "lng": -100.629661
},{
"label": "Colonia la Plata", "lat": 23.660475, "lng": -100.628651
},{
"label": "Santa Rosalía", "lat": 23.664334, "lng": -100.694963
},{
"label": "San Carlos", "lat": 23.510221, "lng": -100.649656
},{
"label": "Potrero de Santo Tomás", "lat": 23.595708, "lng": -100.566883
},{
"label": "Susana Olvera (Piedra Blanca)", "lat": 23.572938, "lng": -100.632034
},{
"label": "La Jara Brava (Elvira de la Torre)", "lat": 23.498358, "lng": -100.673642
},{
"label": "Santa Brígida", "lat": 23.728003, "lng": -100.578589
},{
"label": "San Agapito", "lat": 23.685794, "lng": -100.466548
},{
"label": "La Pedrera", "lat": 23.680863, "lng": -100.566782
},{
"label": "El Vaquero", "lat": 23.716079, "lng": -100.532299
},{
"label": "Cerrito de Santa Cruz", "lat": 23.260976, "lng": -100.63507
},{
"label": "Rancho las Vegas", "lat": 23.235556, "lng": -100.543333
},{
"label": "Arroyito del Agua", "lat": 23.752189, "lng": -100.546806
},{
"label": "Puerto de Tetécuaro", "lat": 23.531802, "lng": -100.696694
},{
"label": "El Saltillito", "lat": 23.707699, "lng": -100.517808
},{
"label": "La Mesa", "lat": 23.621972, "lng": -100.524721
},{
"label": "Rancho San Ramón", "lat": 23.624574, "lng": -100.658207
},{
"label": "El Herradero", "lat": 23.635327, "lng": -100.681359
},{
"label": "Zacatonal", "lat": 23.49679, "lng": -100.664216
},{
"label": "El Gran Chaparral", "lat": 23.328451, "lng": -100.569899
},{
"label": "Los Rochas", "lat": 23.490385, "lng": -100.675819
},{
"label": "El Bajío", "lat": 23.256942, "lng": -100.611293
},{
"label": "San Joaquín", "lat": 23.62518, "lng": -100.693579
},{
"label": "La Presa", "lat": 23.688941, "lng": -100.484414
},{
"label": "Ejido la Lagunita", "lat": 23.645384, "lng": -100.625777
},{
"label": "Los Dos Pericos", "lat": 23.60838, "lng": -100.673021
},{
"label": "Ampliación de San Rafael", "lat": 23.697308, "lng": -100.649112
},{
"label": "San Miguel", "lat": 23.313311, "lng": -100.545846
},{
"label": "Daniel Cortés", "lat": 23.687441, "lng": -100.651826
},{
"label": "Las Dos Potrancas", "lat": 23.607517, "lng": -100.672573
},{
"label": "La Presita", "lat": 23.512419, "lng": -100.534032
},{
"label": "Colonia Emiliano Zapata", "lat": 23.683056, "lng": -100.655556
},{
"label": "San Martín (Granadillo)", "lat": 23.581687, "lng": -100.652943
},{
"label": "Sacramento", "lat": 23.616049, "lng": -100.677092
},{
"label": "Gómez Farías", "lat": 23.481674, "lng": -100.626454
},{
"label": "Valle de San Luis [Fraccionamiento]", "lat": 23.646644, "lng": -100.612308
},{
"label": "Ninguno [Campo Experimental de Zonas Áridas]", "lat": 23.596214, "lng": -100.635894
},{
"label": "San José de la Peña", "lat": 23.661165, "lng": -100.515243
},{
"label": "Pozo de Santa Clara", "lat": 23.251453, "lng": -100.519566
},{
"label": "San José de la Viuda (Estanque Blanco)", "lat": 23.684145, "lng": -100.556534
},{
"label": "San Ramón (Campestre)", "lat": 23.623889, "lng": -100.655
},{
"label": "Parritas", "lat": 23.718857, "lng": -100.540599
},{
"label": "San Miguelito (El Rodeo)", "lat": 23.630573, "lng": -100.673991
},{
"label": "Granja los Rojas", "lat": 23.735278, "lng": -100.598333
},{
"label": "Los Huizachitos", "lat": 23.562564, "lng": -100.741834
},{
"label": "Encarnación de Abajo", "lat": 23.535968, "lng": -100.59675
},{
"label": "Presa de los Lirios", "lat": 23.548279, "lng": -100.539835
},{
"label": "La Minita", "lat": 23.72523, "lng": -100.515907
},{
"label": "Las Ánimas", "lat": 23.635781, "lng": -100.665758
},{
"label": "El Tlacuache", "lat": 23.691371, "lng": -100.549075
},{
"label": "Rancho San Carlos", "lat": 23.500946, "lng": -100.647891
},{
"label": "Las Lagunitas", "lat": 23.562498, "lng": -100.75383
},{
"label": "Los Mendoza", "lat": 23.753056, "lng": -100.555556
},{
"label": "El Durazno", "lat": 23.693663, "lng": -100.573783
},{
"label": "Rancho de Dolores", "lat": 23.650953, "lng": -100.700788
},{
"label": "San Antonio de las Barrancas", "lat": 23.320495, "lng": -100.656733
},{
"label": "Puerta del Refugio", "lat": 23.426188, "lng": -100.576193
},{
"label": "Majada Ranchito Carranza", "lat": 23.670935, "lng": -100.467098
},{
"label": "Iván Estrada", "lat": 23.631603, "lng": -100.619597
},{
"label": "Ninguno [Antena XEFF]", "lat": 23.672973, "lng": -100.657438
},{
"label": "Jalpa", "lat": 23.534024, "lng": -100.648382
},{
"label": "Matehuala", "lat": 23.646359, "lng": -100.644198
},{
"label": "Los Torres", "lat": 23.628252, "lng": -100.656834
},{
"label": "Carbonera", "lat": 23.701713, "lng": -100.602297
},{
"label": "El Coyote", "lat": 23.609877, "lng": -100.664065
},{
"label": "Crucero la Luz", "lat": 23.534934, "lng": -100.625358
},{
"label": "La Concepción", "lat": 23.479118, "lng": -100.665179
},{
"label": "La Soledad", "lat": 23.684788, "lng": -100.506885
},{
"label": "Quinta Montse", "lat": 23.634668, "lng": -100.624792
},{
"label": "Pastoriza", "lat": 23.44533, "lng": -100.625569
},{
"label": "El Carmen", "lat": 23.362784, "lng": -100.557898
},{
"label": "San Ramón de los Álamos", "lat": 23.68249, "lng": -100.67146
},{
"label": "San José del Plan", "lat": 23.422055, "lng": -100.576394
},{
"label": "Paradero Ejido Pastoriza", "lat": 23.429555, "lng": -100.598536
},{
"label": "Jesús María", "lat": 23.723332, "lng": -100.551329
},{
"label": "Palmas", "lat": 23.595881, "lng": -100.657021
},{
"label": "El Guerrero", "lat": 23.560201, "lng": -100.685484
},{
"label": "Ninguno [Motel]", "lat": 23.71072, "lng": -100.637999
},{
"label": "El Paraíso", "lat": 23.702773, "lng": -100.652442
},{
"label": "Rancho Estación Puente Niño", "lat": 23.611258, "lng": -100.651656
},{
"label": "El Vergel y el Oasis", "lat": 23.257254, "lng": -100.639021
},{
"label": "Buenavista", "lat": 23.613346, "lng": -100.527944
},{
"label": "Santa Lucía", "lat": 23.548585, "lng": -100.595144
},{
"label": "San Isidro", "lat": 23.58217, "lng": -100.602155
},{
"label": "La Joya", "lat": 23.58733, "lng": -100.724256
},{
"label": "Pila los Torres", "lat": 23.722755, "lng": -100.651364
},{
"label": "San José de los Sotoles", "lat": 23.591301, "lng": -100.668951
},{
"label": "Las Peñitas", "lat": 23.735863, "lng": -100.568668
},{
"label": "San Lorenzo", "lat": 23.692235, "lng": -100.562328
},{
"label": "Rancho el Palmar", "lat": 23.288259, "lng": -100.614848
},{
"label": "San Juan del Llano", "lat": 23.503631, "lng": -100.679615
},{
"label": "Rancho San Francisco de la Florida", "lat": 23.63104, "lng": -100.61801
},{
"label": "San José de los Olivas", "lat": 23.662552, "lng": -100.665917
},{
"label": "Dieciséis de Septiembre", "lat": 23.40068, "lng": -100.590247
},{
"label": "Colonia los Orozcos", "lat": 23.658604, "lng": -100.670462
},{
"label": "Colonia Lotificación Central", "lat": 23.612626, "lng": -100.648686
},{
"label": "Santa Rosa", "lat": 23.607205, "lng": -100.675628
},{
"label": "La Blanquita [Fonda]", "lat": 23.469326, "lng": -100.611183
},{
"label": "San José de los Guajes", "lat": 23.369589, "lng": -100.617684
},{
"label": "Noria de los Castillos", "lat": 23.45429, "lng": -100.623056
},{
"label": "El Chamizal (San Francisco del Durazno)", "lat": 23.675086, "lng": -100.661236
},{
"label": "Rancho Santa Elena", "lat": 23.281727, "lng": -100.60554
},{
"label": "Maravillas", "lat": 23.570465, "lng": -100.561127
},{
"label": "Crucero del Carmen", "lat": 23.364264, "lng": -100.58134
},{
"label": "Potrero el Cerro", "lat": 23.493631, "lng": -100.687353
},{
"label": "Pastoriza [Estación de Microondas]", "lat": 23.424589, "lng": -100.629941
},{
"label": "El Ranchito", "lat": 23.630113, "lng": -100.657924
},{
"label": "Santa Elena de Abajo", "lat": 23.659624, "lng": -100.463207
},{
"label": "Palo Blanco", "lat": 23.561468, "lng": -100.735098
},{
"label": "Rancho el Retorno", "lat": 23.263368, "lng": -100.552716
},{
"label": "La Luz de Arriba", "lat": 23.520278, "lng": -100.692222
},{
"label": "Las Heroínas Mexicanas", "lat": 23.614206, "lng": -100.654558
},{
"label": "Los Olivos", "lat": 23.624167, "lng": -100.6475
},{
"label": "Los Maldonados", "lat": 23.498103, "lng": -100.633713
},{
"label": "Rancho de Arriba", "lat": 23.539533, "lng": -100.604564
},{
"label": "Las Escamillas", "lat": 23.568372, "lng": -100.772623
},{
"label": "San Rafael", "lat": 23.694887, "lng": -100.659464
},{
"label": "El Refugio", "lat": 23.632854, "lng": -100.677997
},{
"label": "Troje de los Moreno", "lat": 23.700064, "lng": -100.523777
},{
"label": "Cerrito Blanco", "lat": 23.669808, "lng": -100.582566
},{
"label": "Rancho Nuevo", "lat": 23.708299, "lng": -100.627982
},{
"label": "Crucero de San Miguel", "lat": 23.311682, "lng": -100.565152
},{
"label": "Santa Bárbara", "lat": 23.591677, "lng": -100.677913
},{
"label": "Los Sauces", "lat": 23.64925, "lng": -100.680118
},{
"label": "Estanque de Agua Buena", "lat": 23.706231, "lng": -100.584859
},{
"label": "La Camueza", "lat": 23.641298, "lng": -100.481091
},{
"label": "El Coyote Dos", "lat": 23.615885, "lng": -100.660908
},{
"label": "Francisco Estrada", "lat": 23.37836, "lng": -100.585208
},{
"label": "San Isidro de Sánchez", "lat": 23.674555, "lng": -100.472322
},{
"label": "Coronado [Restaurante]", "lat": 23.411062, "lng": -100.59449
},{
"label": "Viborillas", "lat": 23.549385, "lng": -100.694077
},{
"label": "Colonia los Pinos", "lat": 23.600047, "lng": -100.782053
},{
"label": "Colonia Valle de México", "lat": 23.657259, "lng": -100.663772
},{
"label": "La Misión", "lat": 23.740516, "lng": -100.529448
},{
"label": "El Desmonte de Don Julio Salazar Peña", "lat": 23.526396, "lng": -100.577981
},{
"label": "Rancho Alegre", "lat": 23.736245, "lng": -100.582252
},{
"label": "La Lechería", "lat": 23.748837, "lng": -100.562391
},{
"label": "San Miguel de los Castillo", "lat": 23.637593, "lng": -100.684903
},{
"label": "Rancho las Tres Piedritas", "lat": 23.607077, "lng": -100.67192
},{
"label": "San Antonio de los Castillo", "lat": 23.688043, "lng": -100.474401
},{
"label": "La Luz de Abajo", "lat": 23.528648, "lng": -100.658198
},{
"label": "Potrero de Santa Ana", "lat": 23.521053, "lng": -100.621069
},{
"label": "El Herrero", "lat": 23.574843, "lng": -100.674551
},{
"label": "La Providencia", "lat": 23.60717, "lng": -100.674101
},{
"label": "San Pedro", "lat": 23.648813, "lng": -100.690503
},{
"label": "El Charco", "lat": 23.545062, "lng": -100.646852
},{
"label": "Salitrillos del Refugio", "lat": 23.726917, "lng": -100.642116
},{
"label": "La Morita", "lat": 23.695363, "lng": -100.468266
},{
"label": "Los Nogales [Alberca]", "lat": 23.613081, "lng": -100.654612
},{
"label": "Trópico de Cáncer", "lat": 23.450165, "lng": -100.605429
},{
"label": "Guadalupe de los Faz", "lat": 23.777955, "lng": -100.563697
},{
"label": "Álvarez", "lat": 23.512217, "lng": -100.621083
},{
"label": "Santa Cruz", "lat": 23.269323, "lng": -100.618909
},{
"label": "Fraccionamiento Real de las Camelias", "lat": 23.705833, "lng": -100.649444
},{
"label": "Puerto del Palmar", "lat": 23.686082, "lng": -100.557978
},{
"label": "Rancho de los Pinos", "lat": 23.615224, "lng": -100.662671
},{
"label": "Rancho las Palmas", "lat": 23.728638, "lng": -100.601252
},{
"label": "San Vicente", "lat": 23.627124, "lng": -100.666686
},{
"label": "San Francisco de los Bocanegra", "lat": 23.502456, "lng": -100.65704
},{
"label": "Los Naranjos (Las Ladrilleras)", "lat": 23.618641, "lng": -100.656286
},{
"label": "Rancho San Isidro", "lat": 23.631667, "lng": -100.622222
},{
"label": "Los Rodríguez", "lat": 23.606667, "lng": -100.664444
},{
"label": "Jesús Medellín Varela", "lat": 23.557225, "lng": -100.622982
},{
"label": "Rancho San Antonio", "lat": 23.626593, "lng": -100.660696
},{
"label": "El Tarro", "lat": 23.487933, "lng": -100.648046
},{
"label": "Zacatequitas (El Pedregal)", "lat": 23.649617, "lng": -100.689413
},{
"label": "La Campana", "lat": 23.250694, "lng": -100.63703
},{
"label": "Francisco Arévalo", "lat": 23.632222, "lng": -100.6175
},{
"label": "El Rodeo", "lat": 23.256986, "lng": -100.622173
},{
"label": "El Zacate", "lat": 23.599874, "lng": -100.640694
},{
"label": "San Gabriel", "lat": 23.288746, "lng": -100.561508
},{
"label": "La Loma", "lat": 23.602023, "lng": -100.665478
},{
"label": "San Antonio de Zaragoza", "lat": 23.646332, "lng": -100.701999
},{
"label": "La Huerta de la Lobera", "lat": 23.513103, "lng": -100.58763
},{
"label": "San José de Ipoa", "lat": 23.474924, "lng": -100.636394
},{
"label": "Sarabia (Encarnación de Arriba)", "lat": 23.561841, "lng": -100.614903
},{
"label": "La Esperanza", "lat": 23.688139, "lng": -100.45428
},{
"label": "La Luz", "lat": 23.531495, "lng": -100.670628
},{
"label": "El Mezquite", "lat": 23.457569, "lng": -100.588928
},{
"label": "El Retorno", "lat": 23.261093, "lng": -100.605107
},{
"label": "La Virgen", "lat": 23.499661, "lng": -100.665763
},{
"label": "San Luis Potosí", "lat": 23.604599, "lng": -100.666159
},{
"label": "Noria de los Conos", "lat": 23.597461, "lng": -100.582934
},{
"label": "Presa de la Higuera", "lat": 23.635939, "lng": -100.5524
}]