[{
"label": "Guadalupito", "lat": 22.713347, "lng": -101.764359
},{
"label": "Rancho Estancia del Carmen", "lat": 22.65438, "lng": -101.713254
},{
"label": "Los Montecitos", "lat": 22.634722, "lng": -101.845833
},{
"label": "Diego Martín (Charco Colorado)", "lat": 22.726242, "lng": -101.71741
},{
"label": "Noria de Cañas", "lat": 22.531761, "lng": -101.802495
},{
"label": "La Estancia", "lat": 22.620524, "lng": -101.743177
},{
"label": "Azogueros", "lat": 22.598601, "lng": -101.773153
},{
"label": "San Isidro Peñón Blanco", "lat": 22.480019, "lng": -101.793483
},{
"label": "San Pedro Alcántar (La Chinche)", "lat": 22.646941, "lng": -101.614644
},{
"label": "La Mantenedora", "lat": 22.734653, "lng": -101.644799
},{
"label": "La Nueva Joya", "lat": 22.801538, "lng": -101.764616
},{
"label": "Salitrillo", "lat": 22.676282, "lng": -101.773489
},{
"label": "El Cuervo", "lat": 22.479806, "lng": -101.797655
},{
"label": "San Isidro", "lat": 23.075764, "lng": -101.574188
},{
"label": "La Joya", "lat": 22.806259, "lng": -101.755524
},{
"label": "Los Mirasoles", "lat": 22.560116, "lng": -101.746621
},{
"label": "Cuéllar", "lat": 22.730709, "lng": -101.71461
},{
"label": "El Peñón (Daniel Chávez)", "lat": 22.576954, "lng": -101.736726
},{
"label": "San Pedro de Alcántar", "lat": 22.658224, "lng": -101.614837
},{
"label": "Milpas Viejas", "lat": 22.723768, "lng": -101.682089
},{
"label": "Conejillo", "lat": 22.504898, "lng": -101.791377
},{
"label": "Guadalupe Victoria (La Noria del Jacalón)", "lat": 22.693889, "lng": -101.670278
},{
"label": "El Con", "lat": 22.607709, "lng": -101.728102
},{
"label": "Salinas de Hidalgo", "lat": 22.628015, "lng": -101.715735
},{
"label": "Rancho la Esperanza", "lat": 23.074439, "lng": -101.559663
},{
"label": "San Fernando", "lat": 22.591111, "lng": -101.739722
},{
"label": "Nueva Reforma", "lat": 22.772006, "lng": -101.556448
},{
"label": "Fracción la Zanja", "lat": 22.618611, "lng": -101.7075
},{
"label": "Piedras Negras", "lat": 22.767137, "lng": -101.619968
},{
"label": "Noria del Tajo (Los Tajos)", "lat": 23.108591, "lng": -101.418793
},{
"label": "El Jabonero (Jerónimo Dimas)", "lat": 22.693889, "lng": -101.54
},{
"label": "Pedro Torres Delgado", "lat": 22.625667, "lng": -101.691252
},{
"label": "Las Colonias (Colonia Juárez)", "lat": 22.557477, "lng": -101.791619
},{
"label": "El Nogal", "lat": 22.580556, "lng": -101.706111
},{
"label": "La Pasión", "lat": 23.168133, "lng": -101.525661
},{
"label": "San Isidro de Triana", "lat": 22.72, "lng": -101.628611
},{
"label": "El Venadito", "lat": 22.643618, "lng": -101.66815
},{
"label": "El Mosco", "lat": 22.674207, "lng": -101.864156
},{
"label": "El Jabonero", "lat": 22.673683, "lng": -101.543988
},{
"label": "El Palomar", "lat": 22.577872, "lng": -101.71105
},{
"label": "Salto Matorral", "lat": 22.555392, "lng": -101.688775
},{
"label": "El Estribo", "lat": 23.097894, "lng": -101.559256
},{
"label": "Laguna del Carmen", "lat": 22.650094, "lng": -101.602214
},{
"label": "La Bolsa", "lat": 22.680297, "lng": -101.819939
},{
"label": "La Pedrera", "lat": 23.013862, "lng": -101.576885
},{
"label": "El Bajío del Pico", "lat": 22.675402, "lng": -101.587235
},{
"label": "El Camarón", "lat": 22.727157, "lng": -101.621713
},{
"label": "La Huerta (José López)", "lat": 22.596391, "lng": -101.716328
},{
"label": "San Rafael", "lat": 23.010403, "lng": -101.535102
},{
"label": "San Evaristo", "lat": 22.7713, "lng": -101.785833
},{
"label": "Rancho la Soledad", "lat": 22.592853, "lng": -101.737933
},{
"label": "San José del Olvido", "lat": 22.562778, "lng": -101.755278
},{
"label": "Las Águilas", "lat": 22.573251, "lng": -101.751224
},{
"label": "Pozo Seco", "lat": 22.720704, "lng": -101.853795
},{
"label": "Rancho los Coronado", "lat": 22.674244, "lng": -101.677543
},{
"label": "Rancho Nuevo", "lat": 22.707783, "lng": -101.719163
},{
"label": "El Llano del Conejillo", "lat": 22.525179, "lng": -101.76613
},{
"label": "Rancho el Dinero", "lat": 23.134256, "lng": -101.525129
},{
"label": "Santa Bárbara", "lat": 22.633641, "lng": -101.664231
},{
"label": "San José", "lat": 22.544471, "lng": -101.762059
},{
"label": "La Lupita", "lat": 22.644722, "lng": -101.670833
},{
"label": "La Mesilla", "lat": 22.678269, "lng": -101.620303
},{
"label": "El Tecolote", "lat": 22.760734, "lng": -101.787858
},{
"label": "Viborillas", "lat": 22.659722, "lng": -101.907222
},{
"label": "Sotol", "lat": 22.598971, "lng": -101.604925
},{
"label": "El Gato", "lat": 22.719167, "lng": -101.528056
},{
"label": "El Potro", "lat": 22.64379, "lng": -101.783334
},{
"label": "Las Encinitas", "lat": 22.993244, "lng": -101.560556
},{
"label": "San José (El Agujereado)", "lat": 22.694084, "lng": -101.656261
},{
"label": "La Tinaja", "lat": 22.596019, "lng": -101.628592
},{
"label": "Punteros (San José de Punteros)", "lat": 22.749043, "lng": -101.779787
},{
"label": "Los Encinos", "lat": 22.672222, "lng": -101.794167
},{
"label": "Las Coloradas", "lat": 22.579554, "lng": -101.600974
},{
"label": "San Cayetano", "lat": 22.76432, "lng": -101.505859
},{
"label": "La Estrella", "lat": 22.592872, "lng": -101.713753
},{
"label": "Puerto del Chino", "lat": 22.754167, "lng": -101.678611
},{
"label": "Bajío de los Encinos (Los Encinitos)", "lat": 22.804315, "lng": -101.77951
},{
"label": "Huerta los Árboles", "lat": 22.616667, "lng": -101.710556
},{
"label": "San Antonio de la Paz", "lat": 22.626895, "lng": -101.832463
},{
"label": "Triana", "lat": 22.72217, "lng": -101.65558
},{
"label": "Lira", "lat": 23.037837, "lng": -101.528817
},{
"label": "El Lobito", "lat": 22.712269, "lng": -101.684853
},{
"label": "San Pedro", "lat": 22.998096, "lng": -101.547888
},{
"label": "Estación Peñón Blanco", "lat": 22.487545, "lng": -101.791812
},{
"label": "Colonia Zaragoza (Garabatillo)", "lat": 22.782122, "lng": -101.701771
},{
"label": "El Carajo", "lat": 22.716712, "lng": -101.634914
},{
"label": "Santa María", "lat": 22.734777, "lng": -101.600903
},{
"label": "El Duque", "lat": 22.624444, "lng": -101.775
},{
"label": "San Martín (La Botona)", "lat": 23.088333, "lng": -101.579444
},{
"label": "El Polvorín (José Amaro)", "lat": 22.597275, "lng": -101.704006
},{
"label": "Los Cerritos", "lat": 22.57915, "lng": -101.665388
},{
"label": "La Mesilla (Félix Martínez Rodríguez)", "lat": 22.660833, "lng": -101.627551
},{
"label": "Santa Cruz", "lat": 22.645, "lng": -101.674444
},{
"label": "Santa Elena", "lat": 22.739675, "lng": -101.565235
},{
"label": "La Escobilla", "lat": 22.698921, "lng": -101.657455
},{
"label": "San Vicente", "lat": 22.620308, "lng": -101.598893
},{
"label": "El Mezquital", "lat": 22.701389, "lng": -101.627778
},{
"label": "El Tejón", "lat": 22.691128, "lng": -101.755193
},{
"label": "Rancho el Papalote (Ezequiel Calzada)", "lat": 22.901944, "lng": -101.536944
},{
"label": "Los Güeros", "lat": 22.591111, "lng": -101.73867
},{
"label": "Cerrito de los Tapeistes", "lat": 22.611406, "lng": -101.610959
},{
"label": "Vicente Guerrero (La Cócona)", "lat": 22.725124, "lng": -101.706619
},{
"label": "El Durazno", "lat": 22.63, "lng": -101.653889
},{
"label": "Jonuco (Laguna de Cornejo)", "lat": 22.986674, "lng": -101.546651
},{
"label": "La Reforma", "lat": 22.75753, "lng": -101.648161
},{
"label": "Laguna el Marrano", "lat": 22.761102, "lng": -101.608406
},{
"label": "San Tadeo", "lat": 22.8125, "lng": -101.761944
},{
"label": "San Juan sin Agua", "lat": 22.525749, "lng": -101.690404
},{
"label": "Martínez (Las Timias)", "lat": 22.705673, "lng": -101.634819
},{
"label": "El Alegre", "lat": 22.530289, "lng": -101.653793
},{
"label": "Noria de San Juan", "lat": 22.911267, "lng": -101.468927
},{
"label": "El Charco del Toro", "lat": 22.64434, "lng": -101.83586
},{
"label": "Juan Guerrero", "lat": 22.624722, "lng": -101.796667
},{
"label": "San Juan (Acevedo Parra)", "lat": 22.617777, "lng": -101.748391
},{
"label": "La Esperanza", "lat": 22.582222, "lng": -101.715278
},{
"label": "Bajío de los Encinos (Los Pirules)", "lat": 22.793863, "lng": -101.799226
},{
"label": "El Tepozán", "lat": 22.553879, "lng": -101.748861
},{
"label": "El Mezquite", "lat": 23.061764, "lng": -101.570111
},{
"label": "Rancho los Lara (Triana)", "lat": 22.705816, "lng": -101.643549
},{
"label": "La Jarilla (Aristeo Contreras)", "lat": 22.842818, "lng": -101.566018
},{
"label": "La Mesilla (Colonia Juárez)", "lat": 22.674523, "lng": -101.631124
},{
"label": "Palma Pegada", "lat": 22.708979, "lng": -101.789701
},{
"label": "San Expedito", "lat": 22.72284, "lng": -101.632387
}]