[{
"label": "Rancho Santa Lucía", "lat": 21.762889, "lng": -98.620072
},{
"label": "Colonia Nuevo Amanecer (Nuevo Jomté)", "lat": 21.858128, "lng": -98.596535
},{
"label": "Rancho Dos Hermanos (Rancho Santa Amelia)", "lat": 21.745833, "lng": -98.61104
},{
"label": "Nueva Guinea", "lat": 21.744608, "lng": -98.536726
},{
"label": "Nuevo Jomté (Tambolón)", "lat": 21.858888, "lng": -98.602056
},{
"label": "La Reyna", "lat": 21.757738, "lng": -98.5689
},{
"label": "Nuevo Jomté (Colonia Hidalgo)", "lat": 21.861008, "lng": -98.594585
},{
"label": "Flores Magón", "lat": 21.773554, "lng": -98.567495
},{
"label": "El Trébol", "lat": 21.7, "lng": -98.582778
},{
"label": "Rancho Tres Hermanos", "lat": 21.703398, "lng": -98.611882
},{
"label": "San Juan Viejo", "lat": 21.684976, "lng": -98.611245
},{
"label": "El Paraíso", "lat": 21.694873, "lng": -98.62554
},{
"label": "El Pozo", "lat": 21.711553, "lng": -98.578679
},{
"label": "Rancho San Miguel", "lat": 21.767987, "lng": -98.622746
},{
"label": "Tampasito [María Elena Meraz Zúñiga]", "lat": 21.678556, "lng": -98.644283
},{
"label": "Umemukniguan (Dos Hermanas)", "lat": 21.743515, "lng": -98.542286
},{
"label": "La Ensenada", "lat": 21.933597, "lng": -98.521936
},{
"label": "El Jobo", "lat": 21.915909, "lng": -98.542706
},{
"label": "La Primavera", "lat": 21.89601, "lng": -98.639228
},{
"label": "El Ciruelo (Eligia del Ángel Vázquez)", "lat": 21.760564, "lng": -98.495811
},{
"label": "Alto del Higuerón", "lat": 21.758641, "lng": -98.495686
},{
"label": "Rincón de San Francisco de Asís", "lat": 21.675439, "lng": -98.647828
},{
"label": "Rancho Miguel Goldaracena", "lat": 21.826111, "lng": -98.661111
},{
"label": "Cheche", "lat": 21.736389, "lng": -98.683333
},{
"label": "Santa Martha", "lat": 21.859284, "lng": -98.634328
},{
"label": "Pedro Damián Gómez", "lat": 21.781111, "lng": -98.466111
},{
"label": "Ejido Ricardo Flores Magón", "lat": 21.76992, "lng": -98.623134
},{
"label": "Nuevo Jomté (Unión y Progreso)", "lat": 21.859747, "lng": -98.604797
},{
"label": "San Vicente Tancuayalab", "lat": 21.714944, "lng": -98.585718
},{
"label": "Los Arturos", "lat": 21.852825, "lng": -98.610388
},{
"label": "Rancho la Ceiba", "lat": 21.693246, "lng": -98.626494
},{
"label": "Rancho el Nopal", "lat": 21.744655, "lng": -98.538932
},{
"label": "Rancho el Jopoy", "lat": 21.829889, "lng": -98.519253
},{
"label": "Rancho Santa Susana", "lat": 21.841944, "lng": -98.6725
},{
"label": "Rancho el Alto", "lat": 21.809722, "lng": -98.680556
},{
"label": "Narciso Mendoza", "lat": 21.789776, "lng": -98.527458
},{
"label": "Tancojol Rincón Brujo", "lat": 21.811292, "lng": -98.493481
},{
"label": "Miguel Corona", "lat": 21.714703, "lng": -98.626974
},{
"label": "Rancho el Largo", "lat": 21.817483, "lng": -98.494569
},{
"label": "El Satélite", "lat": 21.724444, "lng": -98.627422
},{
"label": "Los Cubes", "lat": 21.925738, "lng": -98.546592
},{
"label": "Las Veguitas (El Bárbaro)", "lat": 21.821981, "lng": -98.494047
},{
"label": "San Francisco Cuayalab", "lat": 21.730324, "lng": -98.718234
},{
"label": "Altos del Refugio", "lat": 21.711131, "lng": -98.596605
},{
"label": "Gustavo Hernández Castro", "lat": 21.7591, "lng": -98.694341
},{
"label": "Poniju", "lat": 21.746558, "lng": -98.627805
},{
"label": "La Escondida", "lat": 21.749036, "lng": -98.59446
},{
"label": "El Palmar", "lat": 21.668549, "lng": -98.62938
},{
"label": "El Pozo (Flores Magón)", "lat": 21.773611, "lng": -98.551389
},{
"label": "Tampasito", "lat": 21.679444, "lng": -98.646772
},{
"label": "Charolay", "lat": 21.756071, "lng": -98.564895
},{
"label": "El Álamo", "lat": 21.736267, "lng": -98.555367
},{
"label": "Los Fomentos", "lat": 21.935517, "lng": -98.564227
},{
"label": "El Alto Miguel Goldaracena", "lat": 21.765261, "lng": -98.702698
},{
"label": "Ejido Tantojón (Erasto Lara)", "lat": 21.78346, "lng": -98.486838
},{
"label": "El Huarache", "lat": 21.686258, "lng": -98.569466
},{
"label": "Ejido Miguel Hidalgo (Nuevo Jomté)", "lat": 21.863049, "lng": -98.603129
},{
"label": "San Juan de las Vegas Dos Fracción Tancojol", "lat": 21.787069, "lng": -98.519231
},{
"label": "Ejido Miguel Hidalgo", "lat": 21.833173, "lng": -98.634141
},{
"label": "Rancho el Hule", "lat": 21.706887, "lng": -98.604624
},{
"label": "Nuevo Centro de Población Benito Juárez", "lat": 21.783263, "lng": -98.624495
},{
"label": "Piedras Chinas (El Encanto)", "lat": 21.687686, "lng": -98.639085
},{
"label": "Mirador Uno", "lat": 21.772133, "lng": -98.630758
},{
"label": "Colonia Juárez (Nuevo Jomté)", "lat": 21.862036, "lng": -98.593614
},{
"label": "San Juan de las Vegas", "lat": 21.793909, "lng": -98.638617
},{
"label": "Santa Rita Dos", "lat": 21.934051, "lng": -98.558064
},{
"label": "Loma Linda", "lat": 21.763283, "lng": -98.493875
},{
"label": "El Sasub", "lat": 21.740397, "lng": -98.540102
},{
"label": "Tanjuque", "lat": 21.831876, "lng": -98.686877
},{
"label": "Santa Rita", "lat": 21.932883, "lng": -98.549334
},{
"label": "Colonia el Carmen (Nuevo Jomté)", "lat": 21.863164, "lng": -98.60173
},{
"label": "Piedras Chinas", "lat": 21.689978, "lng": -98.634347
},{
"label": "Santa Rosita", "lat": 21.733428, "lng": -98.524572
},{
"label": "Buenos Aires", "lat": 21.786061, "lng": -98.468862
},{
"label": "Buenos Aires (Los Noyola)", "lat": 21.780703, "lng": -98.526173
},{
"label": "El Papalote", "lat": 21.704722, "lng": -98.585
},{
"label": "La Bolsa", "lat": 21.871201, "lng": -98.548657
},{
"label": "Sagrada Familia", "lat": 21.788191, "lng": -98.507308
},{
"label": "El Torito", "lat": 21.697973, "lng": -98.617513
},{
"label": "Rancho Borrón", "lat": 21.801111, "lng": -98.644444
},{
"label": "General León Martínez MHD", "lat": 21.793826, "lng": -98.486632
},{
"label": "Taurino Pérez Ramos", "lat": 21.684476, "lng": -98.643528
},{
"label": "Nuevo Jomté (Antiguo Tamuín Dos)", "lat": 21.861806, "lng": -98.596257
},{
"label": "Ejido Tierra y Libertad", "lat": 21.775696, "lng": -98.572086
},{
"label": "Nuevo Jomté (Tasajeras Dos)", "lat": 21.85528, "lng": -98.59371
},{
"label": "Palma Sola", "lat": 21.754581, "lng": -98.577968
},{
"label": "La Mesa", "lat": 21.8234, "lng": -98.648787
},{
"label": "Rancho el Salado", "lat": 21.723994, "lng": -98.6517
},{
"label": "Rancho Jumaisa", "lat": 21.739083, "lng": -98.703328
},{
"label": "Tres Hermanos", "lat": 21.844717, "lng": -98.618777
},{
"label": "Linda Vista (La Tomatera)", "lat": 21.919444, "lng": -98.547778
},{
"label": "El Aguacate (Casilla)", "lat": 21.793068, "lng": -98.686006
},{
"label": "El Cortijo", "lat": 21.905669, "lng": -98.609676
},{
"label": "El Ciruelo (Castro Torres)", "lat": 21.757401, "lng": -98.49463
},{
"label": "Arnulfo Ochoa", "lat": 21.718726, "lng": -98.616654
},{
"label": "Tancojol", "lat": 21.791389, "lng": -98.577222
},{
"label": "El Esfuerzo", "lat": 21.787479, "lng": -98.470002
},{
"label": "San José", "lat": 21.688295, "lng": -98.637821
},{
"label": "Enrique Jefris", "lat": 21.885884, "lng": -98.593477
},{
"label": "Rancho Sanjuanita", "lat": 21.709479, "lng": -98.598443
},{
"label": "Los Retoños", "lat": 21.871621, "lng": -98.618104
},{
"label": "El Jopoy", "lat": 21.836944, "lng": -98.530278
},{
"label": "Santa Martha (La Ranchería)", "lat": 21.691769, "lng": -98.591146
},{
"label": "El Vaivén [José Alejandro Lara Daumas]", "lat": 21.764511, "lng": -98.518764
},{
"label": "La Presa", "lat": 21.7816, "lng": -98.675391
},{
"label": "Tancuiche", "lat": 21.744657, "lng": -98.491637
},{
"label": "Las Lupitas [Jorge Zumaya]", "lat": 21.778636, "lng": -98.464419
},{
"label": "Monte Alegre", "lat": 21.883506, "lng": -98.651099
},{
"label": "El Bambú", "lat": 21.842361, "lng": -98.622046
},{
"label": "Nuevo Jomté (La Bolsa Dos)", "lat": 21.860002, "lng": -98.603402
},{
"label": "Nuevo Jomté (Ezequiel Ahumada)", "lat": 21.856956, "lng": -98.596463
},{
"label": "La Parota", "lat": 21.699541, "lng": -98.583395
},{
"label": "Potreros el Sabino", "lat": 21.750327, "lng": -98.51333
},{
"label": "Rancho Isabella", "lat": 21.738198, "lng": -98.696353
},{
"label": "La Rosita", "lat": 21.691684, "lng": -98.586825
},{
"label": "Ejido la Tima", "lat": 21.728059, "lng": -98.595452
},{
"label": "Rancho la Noria", "lat": 21.698164, "lng": -98.587434
},{
"label": "El Borrón", "lat": 21.800649, "lng": -98.645442
},{
"label": "San Isidro Nuevo", "lat": 21.751201, "lng": -98.611098
},{
"label": "Doña Linda", "lat": 21.8144, "lng": -98.69308
},{
"label": "El Ciruelar", "lat": 21.717738, "lng": -98.5708
},{
"label": "El Querreque", "lat": 21.810793, "lng": -98.695463
},{
"label": "Ninguno [SAGARPA]", "lat": 21.753186, "lng": -98.518279
},{
"label": "El Chote", "lat": 21.906352, "lng": -98.545391
},{
"label": "Sara Martha", "lat": 21.875468, "lng": -98.624276
},{
"label": "El Clavo de Oro", "lat": 21.754127, "lng": -98.694055
},{
"label": "Las Mañanitas", "lat": 21.789951, "lng": -98.485854
},{
"label": "Ejido Tantojón (Maximino Rojas)", "lat": 21.786924, "lng": -98.485937
},{
"label": "Encarnación Hernández Hernández", "lat": 21.797007, "lng": -98.473512
},{
"label": "Las Trojas", "lat": 21.700504, "lng": -98.564602
},{
"label": "Las Lomas", "lat": 21.735003, "lng": -98.669691
},{
"label": "El Quicham (El Quichán)", "lat": 21.830119, "lng": -98.664113
},{
"label": "Ejido la Bolsa Uno", "lat": 21.879622, "lng": -98.604475
},{
"label": "Ejido Tantojón (Felipe Francisco Rosas)", "lat": 21.776944, "lng": -98.489722
},{
"label": "Nuevo Jomté (El Ciruelar Dos)", "lat": 21.861451, "lng": -98.599385
},{
"label": "Lázaro Cárdenas", "lat": 21.813903, "lng": -98.66675
},{
"label": "La Ilusión", "lat": 21.762622, "lng": -98.519331
},{
"label": "Mancornadas", "lat": 21.850646, "lng": -98.551226
},{
"label": "Rancho San Isidro", "lat": 21.840157, "lng": -98.671189
},{
"label": "San Francisco (El Ojital)", "lat": 21.775446, "lng": -98.528316
},{
"label": "Ejido Valles", "lat": 21.829167, "lng": -98.639167
},{
"label": "El Itzé", "lat": 21.761097, "lng": -98.616829
},{
"label": "Las Tres Marías", "lat": 21.761369, "lng": -98.509352
},{
"label": "El Paraíso [Margarito Larraga]", "lat": 21.773328, "lng": -98.460339
},{
"label": "Ejido Nuevo Milenio", "lat": 21.836488, "lng": -98.58604
},{
"label": "Nuevo Jomté (Colonia la Esperanza)", "lat": 21.861484, "lng": -98.602558
},{
"label": "Las M's", "lat": 21.7575, "lng": -98.6125
},{
"label": "El Palmito", "lat": 21.747399, "lng": -98.63894
},{
"label": "El Álamo (Romualdo Reyes Saleta)", "lat": 21.740703, "lng": -98.566478
},{
"label": "El Olivo", "lat": 21.875, "lng": -98.618579
},{
"label": "Juan Carlos Olivares", "lat": 21.686944, "lng": -98.581389
},{
"label": "El Vergel", "lat": 21.766844, "lng": -98.488971
},{
"label": "El Ciruelo", "lat": 21.759336, "lng": -98.484684
},{
"label": "El Ojite", "lat": 21.717374, "lng": -98.644417
},{
"label": "El Sacrificio", "lat": 21.763365, "lng": -98.498418
},{
"label": "Santo Domingo", "lat": 21.735489, "lng": -98.638826
},{
"label": "Rancho Tazajeras", "lat": 21.788539, "lng": -98.679237
},{
"label": "Tantojón", "lat": 21.785433, "lng": -98.468465
},{
"label": "Santa Inés (La Rosita)", "lat": 21.683889, "lng": -98.631667
},{
"label": "El Bojol", "lat": 21.862617, "lng": -98.687556
},{
"label": "El Rebaje", "lat": 21.766944, "lng": -98.618611
},{
"label": "Rancho el Bramadero", "lat": 21.745843, "lng": -98.672266
},{
"label": "Rancho el Chote", "lat": 21.90757, "lng": -98.538977
},{
"label": "Nuevo Jomté (Nuevo May)", "lat": 21.857085, "lng": -98.594711
},{
"label": "Rancho el Rodeo", "lat": 21.770271, "lng": -98.489283
},{
"label": "Rancho el Coposo", "lat": 21.770559, "lng": -98.490058
},{
"label": "Rancho el Dólar", "lat": 21.840556, "lng": -98.531667
},{
"label": "La Esperanza", "lat": 21.772053, "lng": -98.473024
},{
"label": "Nuevo Jomté (El Sacrificio)", "lat": 21.861528, "lng": -98.600629
},{
"label": "Sasub (Félix Vicencio)", "lat": 21.733569, "lng": -98.566072
},{
"label": "Tasajeras", "lat": 21.777044, "lng": -98.630618
},{
"label": "El Huracán", "lat": 21.851882, "lng": -98.680289
},{
"label": "Francisco Villa", "lat": 21.824742, "lng": -98.663026
},{
"label": "Alto Mirador", "lat": 21.770783, "lng": -98.679122
},{
"label": "La Soledad", "lat": 21.863056, "lng": -98.686751
},{
"label": "Rancho el Paraíso", "lat": 21.750423, "lng": -98.485238
},{
"label": "El Encanto", "lat": 21.696917, "lng": -98.621363
},{
"label": "Monte Alto", "lat": 21.836483, "lng": -98.67017
},{
"label": "El Fiscal", "lat": 21.879321, "lng": -98.640716
}]