[{
"label": "Los Nogales (Nogales de Santa Cruz)", "lat": 22.156924, "lng": -100.433617
},{
"label": "Las Golondrinas", "lat": 22.156551, "lng": -100.401894
},{
"label": "Fracción Ocampo", "lat": 22.127746, "lng": -100.361876
},{
"label": "La Presa", "lat": 22.190283, "lng": -100.481706
},{
"label": "Agua Fría", "lat": 22.115278, "lng": -100.366389
},{
"label": "El Rodadillo", "lat": 22.25628, "lng": -100.551461
},{
"label": "San Nicolás Tolentino", "lat": 22.248535, "lng": -100.552076
},{
"label": "Puerto de la Descubridora", "lat": 22.097938, "lng": -100.56048
},{
"label": "Laguna de Santo Domingo", "lat": 22.163056, "lng": -100.38
},{
"label": "El Agüita", "lat": 22.285778, "lng": -100.500876
},{
"label": "Calixto Guerrero", "lat": 22.24424, "lng": -100.55066
},{
"label": "El Gallo", "lat": 22.217177, "lng": -100.520181
},{
"label": "Morenos", "lat": 22.206944, "lng": -100.515278
},{
"label": "Potrero de Santa Gertrudis", "lat": 22.179579, "lng": -100.365939
},{
"label": "La Lobera", "lat": 22.180531, "lng": -100.559545
},{
"label": "Carrizal de Guadalupe", "lat": 22.139444, "lng": -100.411944
},{
"label": "Santa Catarina", "lat": 22.047321, "lng": -100.458006
},{
"label": "Ignacio Allende", "lat": 22.152152, "lng": -100.382812
},{
"label": "Cieneguitas (La Ciénaga)", "lat": 22.185695, "lng": -100.562813
},{
"label": "Potrero de los Castillo", "lat": 22.087547, "lng": -100.406619
},{
"label": "La Aguja (La Abuja)", "lat": 22.179093, "lng": -100.552587
},{
"label": "Lagunitas de San Francisco", "lat": 22.260556, "lng": -100.525556
},{
"label": "San Martín de Abajo", "lat": 22.106667, "lng": -100.513333
},{
"label": "La Escondida", "lat": 22.191766, "lng": -100.549146
},{
"label": "Los Cerritos", "lat": 22.183611, "lng": -100.568333
},{
"label": "Las Palapas (El Muerto)", "lat": 22.170291, "lng": -100.390838
},{
"label": "Ojo de Agua", "lat": 22.193889, "lng": -100.498056
},{
"label": "La Colonia", "lat": 22.138328, "lng": -100.507029
},{
"label": "Barranca de San Joaquín", "lat": 22.221934, "lng": -100.551048
},{
"label": "El Pinal", "lat": 22.188482, "lng": -100.566515
},{
"label": "Potrero de los Rojas", "lat": 22.102396, "lng": -100.366034
},{
"label": "Agua Zarca", "lat": 22.122868, "lng": -100.52239
},{
"label": "Las Cieneguitas", "lat": 22.006456, "lng": -100.544167
},{
"label": "Plan del Garambullo", "lat": 22.175678, "lng": -100.496919
},{
"label": "El Durazno", "lat": 22.087545, "lng": -100.570157
},{
"label": "Las Cruces", "lat": 22.130003, "lng": -100.552077
},{
"label": "Cañón de los Álamos (Jovita Saldaña)", "lat": 22.150248, "lng": -100.52133
},{
"label": "El Río", "lat": 21.997912, "lng": -100.512858
},{
"label": "San Martín de Arriba", "lat": 22.127431, "lng": -100.526005
},{
"label": "La Mojonera", "lat": 22.270405, "lng": -100.574553
},{
"label": "La Loma", "lat": 22.269318, "lng": -100.493678
},{
"label": "La Puente", "lat": 21.982896, "lng": -100.531653
},{
"label": "La Conejera", "lat": 22.153333, "lng": -100.497778
},{
"label": "El Llano", "lat": 22.248611, "lng": -100.547222
},{
"label": "Joya del Roble", "lat": 22.176362, "lng": -100.561836
},{
"label": "La Ballita", "lat": 22.126424, "lng": -100.542813
},{
"label": "El Guajolote", "lat": 22.140504, "lng": -100.501055
},{
"label": "Felipe Sifuentes", "lat": 22.243611, "lng": -100.558056
},{
"label": "La Mesita", "lat": 22.255624, "lng": -100.548924
},{
"label": "Jagüey de San Francisco", "lat": 22.226478, "lng": -100.451903
},{
"label": "Cañas", "lat": 22.19831, "lng": -100.459894
},{
"label": "Tinajillas", "lat": 22.054705, "lng": -100.524616
},{
"label": "San José de Nogalitos", "lat": 22.160489, "lng": -100.495208
},{
"label": "El Mogote", "lat": 22.187564, "lng": -100.552243
}]