[{
"label": "Rancho Usúa (Camarillo)", "lat": 21.906111, "lng": -100.722778
},{
"label": "Rancho los Ramírez (El Conche)", "lat": 21.821116, "lng": -100.736777
},{
"label": "La Curtida", "lat": 21.785333, "lng": -100.415241
},{
"label": "Peña de San Pedro", "lat": 21.805095, "lng": -100.462506
},{
"label": "El Nogalito", "lat": 21.865758, "lng": -100.614768
},{
"label": "Milpa Grande", "lat": 21.921623, "lng": -100.523461
},{
"label": "La Mesa de las Banquetas (Felipa Luna Ávila)", "lat": 21.707494, "lng": -100.255383
},{
"label": "El Ojito de Agua", "lat": 21.787686, "lng": -100.594944
},{
"label": "Barbechos", "lat": 21.809325, "lng": -100.40179
},{
"label": "Reyna", "lat": 21.622337, "lng": -100.743568
},{
"label": "Paso de las Higueras", "lat": 21.767538, "lng": -100.544997
},{
"label": "El Molino Cinco Señores", "lat": 21.651087, "lng": -100.747274
},{
"label": "Fracción Uno Ex-Hacienda Santo Domingo", "lat": 21.611151, "lng": -100.755
},{
"label": "El Nuevo", "lat": 21.836389, "lng": -100.288889
},{
"label": "Rancho San Juan", "lat": 21.647516, "lng": -100.743633
},{
"label": "Los Oyates", "lat": 21.92086, "lng": -100.535348
},{
"label": "Las Chinas", "lat": 21.895773, "lng": -100.639957
},{
"label": "El Oasis (Fracción Sánchez)", "lat": 21.784167, "lng": -100.714498
},{
"label": "Tierra Blanca", "lat": 21.691667, "lng": -100.176667
},{
"label": "La Ordeñita", "lat": 21.914633, "lng": -100.517824
},{
"label": "La Viruela", "lat": 21.765004, "lng": -100.204068
},{
"label": "Salitrillo", "lat": 21.6577, "lng": -100.639535
},{
"label": "Puerto de Victoria", "lat": 21.878651, "lng": -100.786106
},{
"label": "El Salitre", "lat": 21.711944, "lng": -100.690556
},{
"label": "El Barzón", "lat": 21.660898, "lng": -100.767415
},{
"label": "Charco Obscuro", "lat": 21.836347, "lng": -100.241475
},{
"label": "La Caja", "lat": 21.838056, "lng": -100.607752
},{
"label": "Hacienda Javier Labastida", "lat": 21.603696, "lng": -100.754369
},{
"label": "Charco Verde", "lat": 21.761667, "lng": -100.531111
},{
"label": "El Arbolito", "lat": 21.827651, "lng": -100.715733
},{
"label": "El Mezquital de Guadalupe", "lat": 21.813499, "lng": -100.509447
},{
"label": "El Mimbre", "lat": 21.783431, "lng": -100.399966
},{
"label": "Cerrito de la Virgen", "lat": 21.771538, "lng": -100.205983
},{
"label": "Arroyo el Tequesquite", "lat": 21.710932, "lng": -100.187182
},{
"label": "San Juan Capistrán", "lat": 21.876226, "lng": -100.77454
},{
"label": "Santa Fe", "lat": 21.835848, "lng": -100.697634
},{
"label": "Las Trojes", "lat": 21.654819, "lng": -100.630102
},{
"label": "Las Tinas", "lat": 21.866109, "lng": -100.616333
},{
"label": "La Casona", "lat": 21.793631, "lng": -100.748379
},{
"label": "Ojito de Agua", "lat": 21.852753, "lng": -100.65203
},{
"label": "Angostura", "lat": 21.846054, "lng": -100.534997
},{
"label": "San Agustín", "lat": 21.648491, "lng": -100.631523
},{
"label": "Palmas de Reina", "lat": 21.746754, "lng": -100.458531
},{
"label": "Las Adjuntas", "lat": 21.781504, "lng": -100.641084
},{
"label": "El Huizache", "lat": 21.844728, "lng": -100.741736
},{
"label": "El Zapote (Zapotito)", "lat": 21.811133, "lng": -100.554765
},{
"label": "La Agüita", "lat": 21.841607, "lng": -100.450107
},{
"label": "Puerto la Campana", "lat": 21.778178, "lng": -100.740343
},{
"label": "La Palma", "lat": 21.793561, "lng": -100.723427
},{
"label": "Palo Verde", "lat": 21.82744, "lng": -100.531553
},{
"label": "Rancho Atotonilco", "lat": 21.620561, "lng": -100.763403
},{
"label": "El Pinalito", "lat": 21.82255, "lng": -100.388518
},{
"label": "Estancia de Santiago", "lat": 21.635264, "lng": -100.738241
},{
"label": "El Arenal", "lat": 21.688555, "lng": -100.777056
},{
"label": "La Venada", "lat": 21.690873, "lng": -100.270297
},{
"label": "La Cuesta", "lat": 21.907635, "lng": -100.647851
},{
"label": "Cerro del Original (Capilla los Angelitos)", "lat": 21.811558, "lng": -100.737586
},{
"label": "Rancho el Atorón", "lat": 21.664457, "lng": -100.722555
},{
"label": "Juan Diego", "lat": 21.813039, "lng": -100.446325
},{
"label": "Presa del Convento", "lat": 21.831494, "lng": -100.761031
},{
"label": "El Anillo", "lat": 21.82168, "lng": -100.542402
},{
"label": "Peña de Sanurbio", "lat": 21.869055, "lng": -100.535348
},{
"label": "El Mayal", "lat": 21.862314, "lng": -100.52257
},{
"label": "Pinalito", "lat": 21.901354, "lng": -100.579466
},{
"label": "Adjuntas Dos", "lat": 21.901667, "lng": -100.495833
},{
"label": "San Joaquín de Bagres", "lat": 21.728435, "lng": -100.229026
},{
"label": "La Manga", "lat": 21.598611, "lng": -100.595
},{
"label": "Estancita de la Luz", "lat": 21.714359, "lng": -100.200879
},{
"label": "El Ojo de Agua", "lat": 21.692132, "lng": -100.195078
},{
"label": "La Barranca", "lat": 21.779153, "lng": -100.608308
},{
"label": "Rancho Viejo Tres", "lat": 21.865209, "lng": -100.791381
},{
"label": "Paso de Rioverde", "lat": 21.783675, "lng": -100.59692
},{
"label": "Llano de Guadalupe", "lat": 21.855296, "lng": -100.684827
},{
"label": "Paredes", "lat": 21.904117, "lng": -100.456376
},{
"label": "Puerta de Badillo (Puerta de Ojo de Agua)", "lat": 21.82463, "lng": -100.598975
},{
"label": "Peña de la Trinidad (La Peña)", "lat": 21.876983, "lng": -100.553091
},{
"label": "El Potrero de San Isidro", "lat": 21.910465, "lng": -100.505118
},{
"label": "La Catedral", "lat": 21.860061, "lng": -100.732841
},{
"label": "Tortugas de Arriba", "lat": 21.89493, "lng": -100.463413
},{
"label": "Lajitas", "lat": 21.885997, "lng": -100.496686
},{
"label": "Rancho Solares", "lat": 21.725036, "lng": -100.661501
},{
"label": "Chilcuagüe", "lat": 21.823056, "lng": -100.285
},{
"label": "Rancho Seco", "lat": 21.885243, "lng": -100.735254
},{
"label": "Santa Anita", "lat": 21.584109, "lng": -100.624143
},{
"label": "Rancho Bonanza", "lat": 21.655454, "lng": -100.719578
},{
"label": "La Negra", "lat": 21.948403, "lng": -100.451764
},{
"label": "Joyitas", "lat": 21.89243, "lng": -100.445091
},{
"label": "El Rincón", "lat": 21.862962, "lng": -100.711456
},{
"label": "Las Pachonas", "lat": 21.84336, "lng": -100.700183
},{
"label": "Puerto Hondo", "lat": 21.756691, "lng": -100.298936
},{
"label": "Majaditas", "lat": 21.902984, "lng": -100.490612
},{
"label": "José Valentín Torres", "lat": 21.822327, "lng": -100.731049
},{
"label": "Escalerillas", "lat": 21.783268, "lng": -100.659992
},{
"label": "Las Torrecitas", "lat": 21.84906, "lng": -100.592166
},{
"label": "Las Cuevas", "lat": 21.707347, "lng": -100.779175
},{
"label": "Ganadería Carranco", "lat": 21.607743, "lng": -100.750369
},{
"label": "Las Granjas", "lat": 21.659064, "lng": -100.712142
},{
"label": "La Presa", "lat": 21.854905, "lng": -100.499374
},{
"label": "El Fuerte", "lat": 21.711513, "lng": -100.662619
},{
"label": "Las Mesitas", "lat": 21.730611, "lng": -100.281675
},{
"label": "La Sirena", "lat": 21.879762, "lng": -100.498919
},{
"label": "Villela", "lat": 21.676692, "lng": -100.726563
},{
"label": "Mesita del Roble", "lat": 21.861669, "lng": -100.384652
},{
"label": "La Labor del Río (Hacienda la Labor del Río)", "lat": 21.780497, "lng": -100.611433
},{
"label": "Rancho San Pedro", "lat": 21.643889, "lng": -100.717222
},{
"label": "Puerto del Alcalde", "lat": 21.837468, "lng": -100.730502
},{
"label": "El Gato", "lat": 21.650505, "lng": -100.755872
},{
"label": "El Corral (El Corral Dos)", "lat": 21.868039, "lng": -100.608483
},{
"label": "Arroyo del Toro", "lat": 21.803731, "lng": -100.211007
},{
"label": "José Antonio Hernández", "lat": 21.635454, "lng": -100.75792
},{
"label": "La Peñita (La Tinaja)", "lat": 21.677866, "lng": -100.661115
},{
"label": "Agua Fría", "lat": 21.892199, "lng": -100.713142
},{
"label": "San Miguel", "lat": 21.834869, "lng": -100.491039
},{
"label": "El Gavilán", "lat": 21.546283, "lng": -100.649853
},{
"label": "Rancho Ricardo Labastida", "lat": 21.657649, "lng": -100.750528
},{
"label": "Estancia de Atotonilco", "lat": 21.626229, "lng": -100.774672
},{
"label": "Vallecito de la Cruz", "lat": 21.890877, "lng": -100.42006
},{
"label": "El Cedrito", "lat": 21.883889, "lng": -100.488611
},{
"label": "Potrerillo de Viru", "lat": 21.792839, "lng": -100.486011
},{
"label": "Lomas de San Vicente", "lat": 21.672983, "lng": -100.768937
},{
"label": "Bernalejo", "lat": 21.86785, "lng": -100.703881
},{
"label": "Chiqueros del Saucito", "lat": 21.840649, "lng": -100.436982
},{
"label": "Palmarito", "lat": 21.881938, "lng": -100.670874
},{
"label": "Las Barranquitas", "lat": 21.801488, "lng": -100.721099
},{
"label": "Enramadas", "lat": 21.881799, "lng": -100.78198
},{
"label": "La Ordeña Dos", "lat": 21.894881, "lng": -100.617231
},{
"label": "El Piojo", "lat": 21.644031, "lng": -100.631307
},{
"label": "El Granjenal", "lat": 21.748476, "lng": -100.655647
},{
"label": "Mesa de la Ventana", "lat": 21.834012, "lng": -100.37596
},{
"label": "San Jorge de Regil", "lat": 21.650373, "lng": -100.657319
},{
"label": "El Guaricho", "lat": 21.864394, "lng": -100.303901
},{
"label": "Soledad de las Flores", "lat": 21.818071, "lng": -100.435126
},{
"label": "Labor de Bagres", "lat": 21.756466, "lng": -100.269646
},{
"label": "El Pueblito", "lat": 21.822024, "lng": -100.764226
},{
"label": "Rancho Viejo", "lat": 21.800203, "lng": -100.533927
},{
"label": "Derramadero", "lat": 21.672813, "lng": -100.63851
},{
"label": "La Canahuilla", "lat": 21.732669, "lng": -100.259692
},{
"label": "La Boquineta", "lat": 21.745, "lng": -100.26
},{
"label": "La Pedregosa", "lat": 21.831039, "lng": -100.297673
},{
"label": "Rancho Santiago", "lat": 21.627173, "lng": -100.739902
},{
"label": "Mesa del Epazote", "lat": 21.836424, "lng": -100.336587
},{
"label": "Rancho Doña Susana", "lat": 21.75707, "lng": -100.665693
},{
"label": "La Toma", "lat": 21.699612, "lng": -100.769719
},{
"label": "El Durazno", "lat": 21.611514, "lng": -100.627958
},{
"label": "Las Cruces", "lat": 21.761536, "lng": -100.348568
},{
"label": "La Leona", "lat": 21.85506, "lng": -100.656333
},{
"label": "El Tamboctel", "lat": 21.784879, "lng": -100.73929
},{
"label": "Campamento Santo Domingo (Granja Santa Cruz)", "lat": 21.610399, "lng": -100.76586
},{
"label": "Puertecito de los Cardos", "lat": 21.794167, "lng": -100.576667
},{
"label": "El Tepetate", "lat": 21.848768, "lng": -100.715404
},{
"label": "Cañada de Yáñez", "lat": 21.814327, "lng": -100.653843
},{
"label": "La Cruz de los Dolores", "lat": 21.788666, "lng": -100.72757
},{
"label": "El Vergel", "lat": 21.653056, "lng": -100.751667
},{
"label": "Cerro Blanco", "lat": 21.631054, "lng": -100.766237
},{
"label": "El Establo", "lat": 21.662515, "lng": -100.712866
},{
"label": "Puerto del Fraile", "lat": 21.834152, "lng": -100.62594
},{
"label": "La Yesca", "lat": 21.851717, "lng": -100.346499
},{
"label": "Zapotito (La Presa)", "lat": 21.853806, "lng": -100.576808
},{
"label": "Las Huertas", "lat": 21.828559, "lng": -100.315863
},{
"label": "La Puerta", "lat": 21.598803, "lng": -100.658151
},{
"label": "Xoconoxtle", "lat": 21.714529, "lng": -100.213814
},{
"label": "Rancho el Capricho", "lat": 21.663964, "lng": -100.746624
},{
"label": "Nogalitos", "lat": 21.803413, "lng": -100.37667
},{
"label": "Palo Valiente", "lat": 21.915791, "lng": -100.432613
},{
"label": "El Platanito", "lat": 21.71758, "lng": -100.187018
},{
"label": "El Zarzal", "lat": 21.557423, "lng": -100.6659
},{
"label": "Barranca", "lat": 21.790194, "lng": -100.759398
},{
"label": "Puerto del Itacate", "lat": 21.847589, "lng": -100.311514
},{
"label": "La Presa del Salto (El Señor del Amparo)", "lat": 21.804464, "lng": -100.775628
},{
"label": "Crucero de Villela", "lat": 21.666152, "lng": -100.711804
},{
"label": "San Francisco", "lat": 21.778153, "lng": -100.288881
},{
"label": "La Laja", "lat": 21.694058, "lng": -100.203517
},{
"label": "Lomas de San Vicente (Iglesia Vieja)", "lat": 21.657876, "lng": -100.765776
},{
"label": "La Concepción", "lat": 21.632488, "lng": -100.624267
},{
"label": "Ojo Caliente", "lat": 21.848708, "lng": -100.753578
},{
"label": "La Chiripa", "lat": 21.656404, "lng": -100.750224
},{
"label": "Francisco Flores Méndez", "lat": 21.672324, "lng": -100.716232
},{
"label": "La Cuesta del Gallo", "lat": 21.870514, "lng": -100.509336
},{
"label": "José Salazar", "lat": 21.859662, "lng": -100.707487
},{
"label": "Puerto del Rodeo", "lat": 21.735908, "lng": -100.303
},{
"label": "Rancho San Jorge", "lat": 21.666481, "lng": -100.737292
},{
"label": "Los Alamitos", "lat": 21.755546, "lng": -100.658285
},{
"label": "El Carmen", "lat": 21.590287, "lng": -100.664701
},{
"label": "La Carbonera", "lat": 21.63992, "lng": -100.650251
},{
"label": "Puerta de los Troncones", "lat": 21.825326, "lng": -100.580536
},{
"label": "Potrero los Gallos", "lat": 21.778799, "lng": -100.59223
},{
"label": "Ciénaga", "lat": 21.738174, "lng": -100.290604
},{
"label": "Los Conos", "lat": 21.670938, "lng": -100.705919
},{
"label": "La Presa de Potrerillo", "lat": 21.841192, "lng": -100.581928
},{
"label": "El Sauz", "lat": 21.746608, "lng": -100.791635
},{
"label": "Rancho la Paz", "lat": 21.652689, "lng": -100.657232
},{
"label": "Rancho Cinco Señores", "lat": 21.643246, "lng": -100.747156
},{
"label": "Manuel Flores Méndez", "lat": 21.668889, "lng": -100.721111
},{
"label": "El Pino", "lat": 21.861633, "lng": -100.391756
},{
"label": "La Campanilla (El Fraile)", "lat": 21.837432, "lng": -100.632015
},{
"label": "El Carretón", "lat": 21.837262, "lng": -100.645305
},{
"label": "Cerro de San Isidro", "lat": 21.785846, "lng": -100.339334
},{
"label": "San Vicente (Miguel Labastida)", "lat": 21.664212, "lng": -100.748021
},{
"label": "Santa Lucía", "lat": 21.760136, "lng": -100.657237
},{
"label": "Cebolletas", "lat": 21.553141, "lng": -100.606966
},{
"label": "Las Mesas", "lat": 21.860803, "lng": -100.587558
},{
"label": "Peregrina de Arriba", "lat": 21.893861, "lng": -100.653153
},{
"label": "El Rayo", "lat": 21.776463, "lng": -100.228866
},{
"label": "Vaquerías", "lat": 21.839538, "lng": -100.731456
},{
"label": "Belén", "lat": 21.710542, "lng": -100.68957
},{
"label": "Balneario de Lourdes [Centro Vacacional]", "lat": 21.780588, "lng": -100.630048
},{
"label": "La Cueva", "lat": 21.783333, "lng": -100.608897
},{
"label": "El Jaralito", "lat": 21.646251, "lng": -100.770846
},{
"label": "Los Parajes", "lat": 21.717021, "lng": -100.229938
},{
"label": "Las Enramadas", "lat": 21.747299, "lng": -100.190351
},{
"label": "La Estación Badillo", "lat": 21.814596, "lng": -100.570717
},{
"label": "Las Ovejas", "lat": 21.781847, "lng": -100.592051
},{
"label": "Cieneguilla", "lat": 21.836944, "lng": -100.511944
},{
"label": "Fracción Sánchez", "lat": 21.786526, "lng": -100.694162
},{
"label": "El Cerrito", "lat": 21.76545, "lng": -100.696801
},{
"label": "Estancia de San Juan", "lat": 21.806779, "lng": -100.333708
},{
"label": "Rincón de San Jerónimo", "lat": 21.884823, "lng": -100.559269
},{
"label": "Puerto Limpio", "lat": 21.861168, "lng": -100.443368
},{
"label": "El Organito", "lat": 21.773961, "lng": -100.581971
},{
"label": "El Callejón", "lat": 21.849036, "lng": -100.523564
},{
"label": "Cañada del Fraile", "lat": 21.76836, "lng": -100.439089
},{
"label": "El Gavilancillo", "lat": 21.646892, "lng": -100.637583
},{
"label": "Chupaderos", "lat": 21.826168, "lng": -100.439042
},{
"label": "Las Joyas", "lat": 21.954444, "lng": -100.465833
},{
"label": "Puerto del Vino", "lat": 21.834023, "lng": -100.466189
},{
"label": "Tortugas", "lat": 21.760278, "lng": -100.7625
},{
"label": "El Salero", "lat": 21.793773, "lng": -100.215878
},{
"label": "Santa María del Río", "lat": 21.800439, "lng": -100.737109
},{
"label": "Ojo de Agua de las Flores", "lat": 21.827024, "lng": -100.612695
},{
"label": "Peregrina de Abajo", "lat": 21.854264, "lng": -100.665556
},{
"label": "San Jerónimo", "lat": 21.752598, "lng": -100.655128
},{
"label": "Piedra Alumbre", "lat": 21.818872, "lng": -100.359113
},{
"label": "Los Alisos", "lat": 21.934167, "lng": -100.465278
},{
"label": "La Era", "lat": 21.631697, "lng": -100.630497
},{
"label": "El Álamo", "lat": 21.86386, "lng": -100.507259
},{
"label": "El Plan", "lat": 21.662303, "lng": -100.715594
},{
"label": "El Soyate", "lat": 21.783238, "lng": -100.782276
},{
"label": "Laborcilla", "lat": 21.826014, "lng": -100.375665
},{
"label": "Cuevillas", "lat": 21.85272, "lng": -100.553423
},{
"label": "San Juan de Guadalupe (El Remolino)", "lat": 21.762823, "lng": -100.639328
},{
"label": "La Joyita", "lat": 21.722275, "lng": -100.672118
},{
"label": "Agostadero de Santa Bárbara", "lat": 21.735758, "lng": -100.752146
},{
"label": "Puerto de Barbechos", "lat": 21.927165, "lng": -100.433144
},{
"label": "Joya de la Crucita", "lat": 21.831884, "lng": -100.364695
},{
"label": "Los Cuartos", "lat": 21.666084, "lng": -100.705313
},{
"label": "Las Adjuntas del Toro", "lat": 21.789722, "lng": -100.319444
},{
"label": "El Leoncito", "lat": 21.734186, "lng": -100.770817
},{
"label": "Presa de los Aguacates", "lat": 21.804804, "lng": -100.753119
},{
"label": "Las Palmas", "lat": 21.727364, "lng": -100.669191
},{
"label": "Cerro de San Isidro Dos", "lat": 21.89177, "lng": -100.498115
},{
"label": "Movimiento Comunal Juan Santamaría", "lat": 21.819449, "lng": -100.733078
},{
"label": "Yerbabuena", "lat": 21.795, "lng": -100.403889
},{
"label": "El Nogal", "lat": 21.844199, "lng": -100.544811
},{
"label": "Paso de los Torres", "lat": 21.864258, "lng": -100.434778
},{
"label": "Temascalillo", "lat": 21.616444, "lng": -100.660835
},{
"label": "Presa de Dolores", "lat": 21.631498, "lng": -100.701229
},{
"label": "La Boca del Cañón", "lat": 21.621048, "lng": -100.779254
},{
"label": "Garabatos", "lat": 21.831815, "lng": -100.452474
},{
"label": "Guanajuato", "lat": 21.86784, "lng": -100.65797
},{
"label": "Campo Experimental CBTA [Escuela]", "lat": 21.657222, "lng": -100.718333
},{
"label": "Rancho la Purísima (Parritas)", "lat": 21.700201, "lng": -100.641971
},{
"label": "El Roble", "lat": 21.874694, "lng": -100.380412
},{
"label": "Tortugas de Abajo", "lat": 21.883477, "lng": -100.463088
},{
"label": "Arroyo el Arco", "lat": 21.709444, "lng": -100.208611
},{
"label": "Rancho de En Medio", "lat": 21.893353, "lng": -100.627866
},{
"label": "El Tabaco", "lat": 21.734311, "lng": -100.245409
},{
"label": "Rincón de Santo Domingo", "lat": 21.751703, "lng": -100.305712
},{
"label": "La Cieneguita", "lat": 21.829722, "lng": -100.588056
},{
"label": "La Peñita", "lat": 21.766104, "lng": -100.564403
},{
"label": "Los Ávila", "lat": 21.658071, "lng": -100.727286
},{
"label": "San Rafael", "lat": 21.746101, "lng": -100.650857
},{
"label": "Las Crucitas", "lat": 21.783333, "lng": -100.537222
},{
"label": "El Refugio", "lat": 21.590336, "lng": -100.643406
},{
"label": "Rosa de Castilla", "lat": 21.856406, "lng": -100.330059
},{
"label": "Puerto de Maltrata", "lat": 21.821531, "lng": -100.476967
},{
"label": "El Aguacatito", "lat": 21.764513, "lng": -100.225935
},{
"label": "La Yerbabuena", "lat": 21.683078, "lng": -100.767257
},{
"label": "La Paradilla", "lat": 21.875833, "lng": -100.76
},{
"label": "Peñita de las Flores", "lat": 21.8515, "lng": -100.44597
},{
"label": "El Puertecito", "lat": 21.861649, "lng": -100.675115
},{
"label": "Guadalupe Flores", "lat": 21.674759, "lng": -100.718913
},{
"label": "Ojo Zarco", "lat": 21.588872, "lng": -100.613136
},{
"label": "San José", "lat": 21.592896, "lng": -100.767126
},{
"label": "Cebollitas", "lat": 21.652813, "lng": -100.739784
},{
"label": "Las Cuatas", "lat": 21.767222, "lng": -100.403611
},{
"label": "El Vallecito", "lat": 21.870052, "lng": -100.692886
},{
"label": "Los Ángeles (Tres Guerras)", "lat": 21.726423, "lng": -100.650865
},{
"label": "Cerro Prieto", "lat": 21.868611, "lng": -100.757778
},{
"label": "La Betónica", "lat": 21.773633, "lng": -100.421861
},{
"label": "La Estancia (La Tecolota)", "lat": 21.695189, "lng": -100.843231
},{
"label": "Rincón del Tejocote", "lat": 21.762025, "lng": -100.404565
},{
"label": "La Ordeña", "lat": 21.816602, "lng": -100.558126
},{
"label": "El Salvador", "lat": 21.618911, "lng": -100.629645
},{
"label": "La Huerta", "lat": 21.894427, "lng": -100.603599
},{
"label": "Cerrito de Varas Blancas", "lat": 21.647678, "lng": -100.682433
},{
"label": "Guanajuatito (Cerrito de la Cruz)", "lat": 21.809914, "lng": -100.759588
},{
"label": "Ejido la Pitahaya (Santo Domingo)", "lat": 21.60664, "lng": -100.761363
},{
"label": "Tuna Mansa", "lat": 21.754477, "lng": -100.524815
},{
"label": "El Llanito", "lat": 21.581734, "lng": -100.593029
},{
"label": "Cueva del Suelo", "lat": 21.865621, "lng": -100.622253
},{
"label": "La Joya de la Perra", "lat": 21.933889, "lng": -100.434167
},{
"label": "La Españita", "lat": 21.877721, "lng": -100.565817
},{
"label": "Refugio de Bagres", "lat": 21.763034, "lng": -100.272456
},{
"label": "La Burrera", "lat": 21.660823, "lng": -100.699882
},{
"label": "La Piedra del Padre", "lat": 21.756577, "lng": -100.405477
},{
"label": "San Pedro", "lat": 21.670434, "lng": -100.643765
},{
"label": "El Duraznito", "lat": 21.859984, "lng": -100.461048
},{
"label": "El Tigre", "lat": 21.793829, "lng": -100.435825
},{
"label": "La Ciénaga", "lat": 21.740278, "lng": -100.659722
},{
"label": "La Gloria del Carmen", "lat": 21.619167, "lng": -100.7725
},{
"label": "Rancho Jorge Hernández (Santa Lucía)", "lat": 21.605423, "lng": -100.747051
},{
"label": "José Saúl Acosta Ponce", "lat": 21.828984, "lng": -100.726389
},{
"label": "Tierra Quemada", "lat": 21.716218, "lng": -100.690492
},{
"label": "El Pajonal", "lat": 21.648144, "lng": -100.657765
},{
"label": "La Morada", "lat": 21.656379, "lng": -100.714642
},{
"label": "El Peñón", "lat": 21.684523, "lng": -100.632928
},{
"label": "La Canoa", "lat": 21.726355, "lng": -100.254826
},{
"label": "La Cardona", "lat": 21.762026, "lng": -100.741041
},{
"label": "La Borrega (San Rafael)", "lat": 21.664019, "lng": -100.719773
},{
"label": "Fracción el Toro", "lat": 21.865989, "lng": -100.763603
},{
"label": "La Huerta Grande", "lat": 21.720026, "lng": -100.667016
},{
"label": "Ojo de Agua", "lat": 21.868616, "lng": -100.597019
},{
"label": "Puerto de Zamora", "lat": 21.872542, "lng": -100.724221
},{
"label": "Maltrata", "lat": 21.814223, "lng": -100.459013
},{
"label": "El Carrizal", "lat": 21.836319, "lng": -100.593678
},{
"label": "Ojo de Agua de Santa Rita", "lat": 21.792435, "lng": -100.51812
},{
"label": "San Javier", "lat": 21.659331, "lng": -100.746121
},{
"label": "El Baño", "lat": 21.614691, "lng": -100.770148
},{
"label": "Cañada del Cacao", "lat": 21.851844, "lng": -100.419004
},{
"label": "El Caracol", "lat": 21.685278, "lng": -100.184444
},{
"label": "El Molino", "lat": 21.720318, "lng": -100.67634
},{
"label": "Cañada de San Juan", "lat": 21.860264, "lng": -100.372372
},{
"label": "Rancho de Milpillas", "lat": 21.797525, "lng": -100.347644
},{
"label": "El Tule", "lat": 21.656229, "lng": -100.655092
},{
"label": "Badillo", "lat": 21.816754, "lng": -100.581384
},{
"label": "El Chorrito", "lat": 21.721064, "lng": -100.665545
},{
"label": "Arroyo Grande", "lat": 21.947596, "lng": -100.426944
},{
"label": "La Mina", "lat": 21.676944, "lng": -100.839444
},{
"label": "La Nevada", "lat": 21.867778, "lng": -100.279444
},{
"label": "El Colote", "lat": 21.903464, "lng": -100.659598
},{
"label": "Hacienda Santa Lucía", "lat": 21.759224, "lng": -100.650356
},{
"label": "El Laurel", "lat": 21.821463, "lng": -100.590161
},{
"label": "La Norita", "lat": 21.701314, "lng": -100.654706
},{
"label": "El Terrero", "lat": 21.774215, "lng": -100.208454
},{
"label": "La Esperanza", "lat": 21.838311, "lng": -100.310549
},{
"label": "San Isidro de Bagres", "lat": 21.753838, "lng": -100.194872
},{
"label": "El Molinito", "lat": 21.778683, "lng": -100.604647
},{
"label": "El Pitayo", "lat": 21.811667, "lng": -100.210833
},{
"label": "El Tepozán", "lat": 21.824764, "lng": -100.800846
},{
"label": "San José Alburquerque", "lat": 21.846067, "lng": -100.487217
},{
"label": "Alcaparrosa", "lat": 21.757298, "lng": -100.342804
},{
"label": "La Cañada", "lat": 21.578858, "lng": -100.701361
},{
"label": "Manchón de Álamos", "lat": 21.830231, "lng": -100.236608
},{
"label": "El Quemado", "lat": 21.842244, "lng": -100.638354
},{
"label": "Entronque a Tierra Nueva", "lat": 21.694618, "lng": -100.687912
},{
"label": "El Árbol", "lat": 21.821683, "lng": -100.478312
},{
"label": "Loma Bonita", "lat": 21.856389, "lng": -100.770833
},{
"label": "Rancho el Paraíso", "lat": 21.643994, "lng": -100.653775
},{
"label": "Cañón de Agua Fría", "lat": 21.875641, "lng": -100.702611
},{
"label": "Barrancas del Pueblito (Cuesta Colorada)", "lat": 21.83263, "lng": -100.776477
},{
"label": "Palo Blanco de Arriba", "lat": 21.606369, "lng": -100.594286
}]