[{
"label": "Guillermo Portilla", "lat": 21.611885, "lng": -98.672664
},{
"label": "El Papayal (La Piñata)", "lat": 21.566946, "lng": -98.627094
},{
"label": "El Sacrificio (El Cazador)", "lat": 21.584284, "lng": -98.699389
},{
"label": "El Plan (La Montaña)", "lat": 21.5541, "lng": -98.65277
},{
"label": "El Paraíso", "lat": 21.567222, "lng": -98.625
},{
"label": "Gorgonio Hernández Martínez", "lat": 21.611104, "lng": -98.655235
},{
"label": "Rancho San Marcos", "lat": 21.556364, "lng": -98.615006
},{
"label": "Roberto Yudiche (San Miguel)", "lat": 21.585544, "lng": -98.64322
},{
"label": "Don Toño", "lat": 21.562606, "lng": -98.615856
},{
"label": "Victoria García", "lat": 21.616572, "lng": -98.672371
},{
"label": "Buenavista", "lat": 21.652028, "lng": -98.640574
},{
"label": "Juan Solís (El Borreguero)", "lat": 21.640393, "lng": -98.676225
},{
"label": "San Isidro", "lat": 21.596786, "lng": -98.715045
},{
"label": "Tampicol", "lat": 21.660833, "lng": -98.636389
},{
"label": "Amancio Lárraga", "lat": 21.559829, "lng": -98.64061
},{
"label": "Shipanoca", "lat": 21.566051, "lng": -98.661359
},{
"label": "Alberca Hervert", "lat": 21.594322, "lng": -98.64955
},{
"label": "San Miguel Tampacayal", "lat": 21.581559, "lng": -98.651338
},{
"label": "El Ranchito (Bonifacio Sandoval)", "lat": 21.542818, "lng": -98.616753
},{
"label": "El Zocohuite Tres", "lat": 21.582974, "lng": -98.676826
},{
"label": "El Cerrito", "lat": 21.600717, "lng": -98.720064
},{
"label": "Santa Fe", "lat": 21.556944, "lng": -98.672778
},{
"label": "Dos Arbolitos", "lat": 21.577656, "lng": -98.670244
},{
"label": "Colonia Marcelo de los Santos Fraga", "lat": 21.627923, "lng": -98.654114
},{
"label": "El Capricho", "lat": 21.635137, "lng": -98.658442
},{
"label": "El Barquito (Antonio Meraz)", "lat": 21.544794, "lng": -98.610275
},{
"label": "Rancho Varal", "lat": 21.583666, "lng": -98.703581
},{
"label": "Ciro Ramírez", "lat": 21.603772, "lng": -98.647146
},{
"label": "El Conque", "lat": 21.640184, "lng": -98.658889
},{
"label": "El Jalamate [Rancho]", "lat": 21.646597, "lng": -98.658431
},{
"label": "El Brasilar [Lucio Portilla Enriquez]", "lat": 21.605891, "lng": -98.683276
},{
"label": "El Zocohuite Dos", "lat": 21.584558, "lng": -98.675852
},{
"label": "Cayo Lara", "lat": 21.633136, "lng": -98.670597
},{
"label": "Sergio Trejo (Los Chingueritos)", "lat": 21.631988, "lng": -98.651898
},{
"label": "Rancho la Y Griega", "lat": 21.566088, "lng": -98.618916
},{
"label": "Gabino Meraz González", "lat": 21.613599, "lng": -98.673191
},{
"label": "Alto de la Cruz", "lat": 21.62715, "lng": -98.687896
},{
"label": "El Cheroqui", "lat": 21.569242, "lng": -98.628769
},{
"label": "El Ranchito", "lat": 21.545956, "lng": -98.618404
},{
"label": "San Martincito", "lat": 21.624823, "lng": -98.660097
},{
"label": "Matilde Meraz", "lat": 21.542222, "lng": -98.615
},{
"label": "Sagrada Familia", "lat": 21.656736, "lng": -98.660677
},{
"label": "El Torito", "lat": 21.566466, "lng": -98.618991
},{
"label": "El Proceso", "lat": 21.549926, "lng": -98.648317
},{
"label": "La Esmeralda", "lat": 21.632293, "lng": -98.658356
},{
"label": "Ángel Azuara", "lat": 21.621771, "lng": -98.660337
},{
"label": "Báscula [Asociación Ganadera Local]", "lat": 21.579048, "lng": -98.666863
},{
"label": "La Cofradía", "lat": 21.567079, "lng": -98.610973
},{
"label": "Hidalia Argüelles", "lat": 21.635187, "lng": -98.644404
},{
"label": "La Mesita", "lat": 21.566005, "lng": -98.623291
},{
"label": "Jaque Mate", "lat": 21.592054, "lng": -98.711917
},{
"label": "Rancho Nuevo", "lat": 21.5615, "lng": -98.645043
},{
"label": "El Gavial", "lat": 21.589289, "lng": -98.694653
},{
"label": "La Finca", "lat": 21.5775, "lng": -98.6775
},{
"label": "La Laguna", "lat": 21.619444, "lng": -98.633056
},{
"label": "El Pichichi (Jorge Purata)", "lat": 21.590661, "lng": -98.708132
},{
"label": "Rancho la Posada del Sediento", "lat": 21.622357, "lng": -98.648354
},{
"label": "El Ojital", "lat": 21.54805, "lng": -98.675214
},{
"label": "El Alto", "lat": 21.628056, "lng": -98.66677
},{
"label": "La Persiana", "lat": 21.565956, "lng": -98.632841
},{
"label": "El Lindero", "lat": 21.539722, "lng": -98.634167
},{
"label": "Carlos Lara Zavala", "lat": 21.651281, "lng": -98.649097
},{
"label": "Alto el Jobo", "lat": 21.573375, "lng": -98.636546
},{
"label": "El Herradero [Trinidad Rangel Ahumada]", "lat": 21.570931, "lng": -98.631276
},{
"label": "El Tecolote", "lat": 21.586064, "lng": -98.659732
},{
"label": "San Miguel", "lat": 21.585924, "lng": -98.643032
},{
"label": "Cuatro Vientos", "lat": 21.557637, "lng": -98.609074
},{
"label": "Los Coposos", "lat": 21.548243, "lng": -98.674205
},{
"label": "Tanquián de Escobedo", "lat": 21.598088, "lng": -98.662063
},{
"label": "El Basuche", "lat": 21.625234, "lng": -98.63586
},{
"label": "Cañada Verde", "lat": 21.551944, "lng": -98.653333
},{
"label": "El Texano", "lat": 21.588286, "lng": -98.711333
},{
"label": "La Herradura", "lat": 21.551499, "lng": -98.618502
},{
"label": "Las Lomas", "lat": 21.634637, "lng": -98.697155
},{
"label": "El Diamante", "lat": 21.644596, "lng": -98.657775
},{
"label": "Santa Fe (Lupita Zúñiga)", "lat": 21.554867, "lng": -98.665863
},{
"label": "El Ceronal", "lat": 21.630892, "lng": -98.675779
},{
"label": "Rancho el Guayabo", "lat": 21.643852, "lng": -98.658032
},{
"label": "Rene Meraz Gámez", "lat": 21.59752, "lng": -98.654569
},{
"label": "Gelasio Azuara", "lat": 21.631186, "lng": -98.659594
},{
"label": "Rigoberto Azuara", "lat": 21.606891, "lng": -98.677756
},{
"label": "Las Palomas", "lat": 21.586141, "lng": -98.697668
},{
"label": "Rancho el Nopalito", "lat": 21.552181, "lng": -98.604366
},{
"label": "El Vergel", "lat": 21.582446, "lng": -98.652581
},{
"label": "Gabino Cruz Hernández", "lat": 21.594722, "lng": -98.652222
},{
"label": "Rancho Guadalupe", "lat": 21.570596, "lng": -98.669455
},{
"label": "San Juan", "lat": 21.582617, "lng": -98.631621
},{
"label": "El Tamoxín", "lat": 21.571153, "lng": -98.672012
},{
"label": "El Laurel", "lat": 21.651471, "lng": -98.657251
},{
"label": "San Gabriel", "lat": 21.567798, "lng": -98.62632
},{
"label": "El Varal Uno", "lat": 21.589688, "lng": -98.710962
},{
"label": "Cantarranas", "lat": 21.585028, "lng": -98.655484
},{
"label": "La Esperanza", "lat": 21.543056, "lng": -98.681111
},{
"label": "El Suspiro", "lat": 21.566416, "lng": -98.622626
},{
"label": "El Zocohuite", "lat": 21.578812, "lng": -98.670596
},{
"label": "El Basilón", "lat": 21.589079, "lng": -98.671293
},{
"label": "El Mezquite", "lat": 21.584277, "lng": -98.666362
},{
"label": "El Rodeo [Rancho]", "lat": 21.596112, "lng": -98.689993
},{
"label": "La Soledad", "lat": 21.60013, "lng": -98.683442
},{
"label": "Los Cuates", "lat": 21.614011, "lng": -98.64894
},{
"label": "La Pulga", "lat": 21.634106, "lng": -98.65234
},{
"label": "El Bosque", "lat": 21.588495, "lng": -98.63489
}]