[{
"label": "El Chaparralillo (El Chaparral)", "lat": 22.935667, "lng": -101.238978
},{
"label": "La Esquina", "lat": 22.911027, "lng": -101.276901
},{
"label": "Los Lobitos", "lat": 22.968872, "lng": -101.299019
},{
"label": "Cañada Grande", "lat": 22.849621, "lng": -101.088145
},{
"label": "Ejido el Salero", "lat": 23.011257, "lng": -101.10439
},{
"label": "Rancho el Gran Viejo (Guadalupe)", "lat": 22.917257, "lng": -101.070462
},{
"label": "El Clérigo (Miguel Rivera Banderas)", "lat": 23.008333, "lng": -101.068333
},{
"label": "El Salto", "lat": 22.991389, "lng": -101.109444
},{
"label": "Barranca del Sur", "lat": 22.84761, "lng": -101.173263
},{
"label": "El Charquito", "lat": 22.863056, "lng": -100.996111
},{
"label": "La Curva (La Esquina)", "lat": 22.992224, "lng": -101.095706
},{
"label": "El Zacatón", "lat": 22.907778, "lng": -100.959167
},{
"label": "Buenavista", "lat": 22.901315, "lng": -101.157121
},{
"label": "Tierra Blanca", "lat": 22.966581, "lng": -101.06286
},{
"label": "San Ricardo", "lat": 22.939189, "lng": -101.048416
},{
"label": "El Salitre", "lat": 22.90633, "lng": -101.077218
},{
"label": "La Esquina Góngora", "lat": 22.962778, "lng": -100.935
},{
"label": "Eulogio Zamarripa", "lat": 22.949774, "lng": -101.253035
},{
"label": "Santa Amalia", "lat": 22.935623, "lng": -101.046502
},{
"label": "Las Jarillas", "lat": 22.925734, "lng": -101.198075
},{
"label": "Rancho la Fábrica", "lat": 22.889257, "lng": -101.058918
},{
"label": "Tanque la Milpa", "lat": 23.037795, "lng": -101.261006
},{
"label": "Cinco de Mayo", "lat": 23.003728, "lng": -101.168431
},{
"label": "El Faro", "lat": 22.934689, "lng": -101.06749
},{
"label": "El Cerrito", "lat": 22.913971, "lng": -101.138627
},{
"label": "La Cañada San Juan", "lat": 22.959695, "lng": -101.282251
},{
"label": "El Salero", "lat": 22.975789, "lng": -101.100341
},{
"label": "Tanque del Palmarito (Benjamín Puente)", "lat": 22.976559, "lng": -101.341453
},{
"label": "El Matorral", "lat": 22.898574, "lng": -101.25216
},{
"label": "El Troncón", "lat": 23.004072, "lng": -101.059333
},{
"label": "Rancho Tres Marías", "lat": 22.926758, "lng": -101.054886
},{
"label": "Cerro Verde", "lat": 22.994592, "lng": -100.988873
},{
"label": "Pozo Número Ocho", "lat": 22.936094, "lng": -101.007613
},{
"label": "El Arenal", "lat": 22.936458, "lng": -101.055046
},{
"label": "La Boquilla", "lat": 22.826396, "lng": -101.151335
},{
"label": "El Gateado", "lat": 22.94457, "lng": -101.295667
},{
"label": "Monte Chiquito", "lat": 22.886835, "lng": -101.036806
},{
"label": "Don Diego", "lat": 22.89, "lng": -101.066667
},{
"label": "Venado", "lat": 22.931344, "lng": -101.094629
},{
"label": "El Novillo (Simón Belmárez)", "lat": 23.027781, "lng": -101.294165
},{
"label": "La Clavellina", "lat": 22.976139, "lng": -100.936681
},{
"label": "Pozo Número Tres (Santa Rita)", "lat": 22.946881, "lng": -101.01768
},{
"label": "Santa Rita", "lat": 22.94535, "lng": -101.034293
},{
"label": "Barrio de Guadalupe", "lat": 22.924934, "lng": -101.068395
},{
"label": "La Barranca Norte", "lat": 22.949434, "lng": -101.106158
},{
"label": "El Ranchito", "lat": 22.900064, "lng": -101.122891
},{
"label": "Los Muñiz", "lat": 22.909528, "lng": -101.182714
},{
"label": "Rancho la Providencia", "lat": 22.912222, "lng": -101.065278
},{
"label": "Rancho las Contras", "lat": 22.89987, "lng": -101.050324
},{
"label": "Palo Blanco", "lat": 22.896013, "lng": -101.282614
},{
"label": "El Llano", "lat": 22.979599, "lng": -100.998288
},{
"label": "La Ciénaga de Guanamé", "lat": 22.955489, "lng": -101.171634
},{
"label": "Rancho la Virgen", "lat": 22.938366, "lng": -101.012053
},{
"label": "El Huizachal", "lat": 22.888261, "lng": -101.193489
},{
"label": "Las Crucitas", "lat": 22.871944, "lng": -101.160833
},{
"label": "El Refugio", "lat": 22.935096, "lng": -100.943177
},{
"label": "Pozo Número Siete", "lat": 22.943167, "lng": -101.000884
},{
"label": "El Pozote", "lat": 22.899794, "lng": -101.097655
},{
"label": "La Trinidad", "lat": 23.016281, "lng": -100.914154
},{
"label": "El Colgado", "lat": 23.007978, "lng": -101.308191
},{
"label": "Tanque de En Medio", "lat": 22.994653, "lng": -101.047411
},{
"label": "Coronado (Hacienda de Coronado)", "lat": 22.923633, "lng": -100.940973
},{
"label": "La Piedra", "lat": 22.968536, "lng": -101.270171
},{
"label": "Toledo", "lat": 22.943557, "lng": -101.321632
},{
"label": "San Sabino", "lat": 22.982495, "lng": -101.064647
},{
"label": "La Vaina", "lat": 23.002889, "lng": -101.340556
},{
"label": "Rancho Nuevo", "lat": 22.970266, "lng": -101.023783
},{
"label": "San Onofre", "lat": 23.049444, "lng": -101.1025
},{
"label": "Noria de Santa Teresa", "lat": 22.967533, "lng": -100.970102
},{
"label": "El Pocito", "lat": 22.825833, "lng": -100.904687
},{
"label": "San Joaquín de las Flores", "lat": 22.853763, "lng": -100.906732
},{
"label": "El Joverizo", "lat": 22.923056, "lng": -101.053056
},{
"label": "El Grullo", "lat": 22.933599, "lng": -101.359564
},{
"label": "Quinta Ojo de Agua", "lat": 22.935278, "lng": -101.107112
},{
"label": "El Charco Verde", "lat": 22.922255, "lng": -100.881434
},{
"label": "Rancho la Hacienda", "lat": 22.983333, "lng": -101.095833
},{
"label": "San Salvador", "lat": 22.869523, "lng": -101.047169
},{
"label": "El Tecolote", "lat": 22.958805, "lng": -101.034215
},{
"label": "Viborillas", "lat": 22.981877, "lng": -101.312824
},{
"label": "El Epazote", "lat": 22.825396, "lng": -100.899093
},{
"label": "El Sotol", "lat": 22.945088, "lng": -101.149548
},{
"label": "Santo Tomás", "lat": 23.029988, "lng": -101.099004
},{
"label": "Pozo Número Nueve", "lat": 22.933333, "lng": -101.015
},{
"label": "San Sebastián", "lat": 22.963333, "lng": -101.097222
},{
"label": "El Conejo", "lat": 23.028414, "lng": -101.110931
},{
"label": "La Manga (Tanque la Bota)", "lat": 23.000042, "lng": -101.290596
},{
"label": "El Berrendo", "lat": 22.835907, "lng": -100.946143
},{
"label": "El Sotolillo de Abajo", "lat": 22.936944, "lng": -101.120833
},{
"label": "Agua de En Medio", "lat": 22.837101, "lng": -101.204326
},{
"label": "La Lagunita del Sotol", "lat": 22.952768, "lng": -101.190219
},{
"label": "Guanamé", "lat": 22.869364, "lng": -101.249601
},{
"label": "El Machito (El Tanque del Machito)", "lat": 22.891914, "lng": -101.202556
},{
"label": "San Pedro", "lat": 22.881431, "lng": -101.006592
},{
"label": "El Cuije", "lat": 22.958984, "lng": -101.188263
},{
"label": "La Barrera", "lat": 22.934998, "lng": -101.059776
},{
"label": "Pozo Número Tres (Barrio de Guadalupe)", "lat": 22.927173, "lng": -101.018865
},{
"label": "Cañada del Cuarto", "lat": 22.869241, "lng": -101.117005
},{
"label": "San Eustaquio", "lat": 22.83998, "lng": -101.045998
},{
"label": "Andrés Rangel", "lat": 22.956284, "lng": -101.271496
},{
"label": "San Jorge", "lat": 22.932945, "lng": -101.054851
},{
"label": "Santa Cruz", "lat": 22.903978, "lng": -101.04535
},{
"label": "Pozo Número Dos", "lat": 22.937351, "lng": -101.020246
},{
"label": "Rancho la Loma", "lat": 22.935278, "lng": -101.113056
},{
"label": "Polocote de Arriba", "lat": 22.958831, "lng": -101.131338
},{
"label": "Rancho Santa Fe", "lat": 22.82052, "lng": -100.900567
},{
"label": "Los Elotes", "lat": 22.968832, "lng": -101.228561
},{
"label": "El Tejón", "lat": 22.947716, "lng": -101.170908
},{
"label": "Rancho San Carlos", "lat": 22.980736, "lng": -101.093969
},{
"label": "Rancho Nuevo (La Escuela)", "lat": 22.934846, "lng": -101.061341
},{
"label": "Santa Rita (El Alto)", "lat": 22.931991, "lng": -101.043115
},{
"label": "Rancho los Pinos", "lat": 22.830524, "lng": -100.938589
},{
"label": "La Presa Colorada", "lat": 22.839821, "lng": -101.173029
},{
"label": "El Yerbanís", "lat": 23.034083, "lng": -101.233665
},{
"label": "San Martín", "lat": 23.007559, "lng": -101.138118
},{
"label": "La Reforma", "lat": 22.917532, "lng": -101.264861
},{
"label": "El Charquillo", "lat": 22.958678, "lng": -100.874442
},{
"label": "Cerro Blanco", "lat": 22.945515, "lng": -101.211141
},{
"label": "Los Valdez", "lat": 22.926203, "lng": -101.18565
},{
"label": "Los Remedios", "lat": 22.918976, "lng": -101.313987
},{
"label": "Los Trejos", "lat": 22.954511, "lng": -101.155516
},{
"label": "Calabacillas", "lat": 22.937591, "lng": -101.200001
},{
"label": "El Laurel", "lat": 22.96699, "lng": -101.199519
},{
"label": "El Rebaje", "lat": 22.880833, "lng": -101.193333
},{
"label": "La Puerta", "lat": 22.909027, "lng": -101.309396
},{
"label": "Polocote de Abajo (Polocotillo)", "lat": 22.957532, "lng": -101.0895
},{
"label": "La Norita", "lat": 23.001692, "lng": -101.010491
},{
"label": "El Chaparral", "lat": 22.926949, "lng": -101.244246
},{
"label": "El Piojito (El Gateado)", "lat": 22.954715, "lng": -101.318293
},{
"label": "La Puerta del Salitre", "lat": 22.888296, "lng": -101.094921
},{
"label": "San Francisco", "lat": 22.909479, "lng": -101.058712
},{
"label": "Noria de la Unión", "lat": 22.988827, "lng": -101.008566
},{
"label": "Rancho el Tenorio", "lat": 22.899608, "lng": -101.105569
},{
"label": "El Sauco", "lat": 22.924365, "lng": -101.172448
},{
"label": "Don Longino", "lat": 22.87433, "lng": -101.145457
},{
"label": "El Vergel del Clérigo", "lat": 23.014722, "lng": -101.067778
},{
"label": "Cinco de Febrero", "lat": 22.970293, "lng": -101.248121
},{
"label": "San Mateo", "lat": 22.935613, "lng": -101.073756
},{
"label": "Barrio de Guadalupe Dos (Mexiquito)", "lat": 22.913578, "lng": -101.047404
}]