[{
"label": "Los Nazarios", "lat": 23.709277, "lng": -100.709303
},{
"label": "El Carmen", "lat": 23.684103, "lng": -100.683306
},{
"label": "San Antonio de Zaragoza", "lat": 23.647328, "lng": -100.703309
},{
"label": "Limones", "lat": 23.669275, "lng": -100.757826
},{
"label": "Barbechos", "lat": 23.643144, "lng": -100.716464
},{
"label": "Villa de la Paz", "lat": 23.675351, "lng": -100.713171
},{
"label": "Refugio Soria", "lat": 23.673333, "lng": -100.718611
},{
"label": "La Boca", "lat": 23.657842, "lng": -100.731363
},{
"label": "El Jato", "lat": 23.67969, "lng": -100.752483
},{
"label": "Laureles", "lat": 23.643088, "lng": -100.762527
},{
"label": "Jaquis", "lat": 23.636436, "lng": -100.792847
},{
"label": "Jesús Martínez", "lat": 23.680285, "lng": -100.710977
},{
"label": "Rosalío Noriega", "lat": 23.66891, "lng": -100.714544
},{
"label": "San Antonio de las Trojes", "lat": 23.699101, "lng": -100.683296
}]