[{
"label": "Transportes JG", "lat": 25.903507, "lng": -100.147602
},{
"label": "Siete Leguas", "lat": 25.883384, "lng": -100.090124
},{
"label": "Cuatro Hermanos", "lat": 25.900553, "lng": -100.197942
},{
"label": "Los Guajardo", "lat": 25.874154, "lng": -100.146648
},{
"label": "Javier Treviño", "lat": 25.863476, "lng": -100.227236
},{
"label": "La Gloria", "lat": 25.884216, "lng": -100.094849
},{
"label": "HM (Carolina)", "lat": 25.902267, "lng": -100.155169
},{
"label": "El Ébano (Kilómetro Uno)", "lat": 25.885452, "lng": -100.098833
},{
"label": "Los Róbalos", "lat": 25.977561, "lng": -100.125123
},{
"label": "Santa Lucía", "lat": 25.884908, "lng": -100.131389
},{
"label": "Fraccionamiento Industrial MG", "lat": 25.876445, "lng": -100.249684
},{
"label": "Santa Martha", "lat": 25.860961, "lng": -100.103462
},{
"label": "Fraccionamiento Real Palmas", "lat": 25.898153, "lng": -100.168147
},{
"label": "El Barrito", "lat": 25.907656, "lng": -100.075887
},{
"label": "Humberto Treviño", "lat": 25.878428, "lng": -100.103894
},{
"label": "Hacienda San Pedro", "lat": 25.916986, "lng": -100.163964
},{
"label": "Cuatro de Enero", "lat": 25.907871, "lng": -100.149294
},{
"label": "Portal de Zuazua", "lat": 25.871634, "lng": -100.186644
},{
"label": "San José del Desafío", "lat": 25.930507, "lng": -100.151836
},{
"label": "Ninguno", "lat": 25.877831, "lng": -100.10031
},{
"label": "Cerralvo Dos (La Carrera)", "lat": 25.892653, "lng": -100.091821
},{
"label": "Ismael Vela Gómez", "lat": 25.862667, "lng": -100.094686
},{
"label": "Dos de Febrero", "lat": 25.880004, "lng": -100.082606
},{
"label": "San Agustín", "lat": 25.88738, "lng": -100.137258
},{
"label": "El Vallado", "lat": 25.894563, "lng": -100.121868
},{
"label": "Transportes Mor (La Prieta)", "lat": 25.9002, "lng": -100.206726
},{
"label": "La Chiquita", "lat": 25.900741, "lng": -100.125247
},{
"label": "Guadalupe", "lat": 25.882822, "lng": -100.092444
},{
"label": "Las Lajas", "lat": 25.894404, "lng": -100.081361
},{
"label": "Carrizalejo", "lat": 25.856498, "lng": -100.105302
},{
"label": "Los Mayorga (San Isidro)", "lat": 25.883481, "lng": -100.078816
},{
"label": "Mi Ranchito", "lat": 25.879409, "lng": -100.142866
},{
"label": "La Gaviota Dos", "lat": 25.900937, "lng": -100.148889
},{
"label": "Las Palmas", "lat": 25.902697, "lng": -100.202136
},{
"label": "El Llano [Establo]", "lat": 25.903595, "lng": -100.094836
},{
"label": "Nacional I [Parque Industrial]", "lat": 25.869109, "lng": -100.228773
},{
"label": "María del Rosario", "lat": 25.904873, "lng": -100.117744
},{
"label": "Las Vírgenes", "lat": 25.915946, "lng": -100.118552
},{
"label": "Portal del Norte", "lat": 25.874453, "lng": -100.177293
},{
"label": "El Papalote", "lat": 25.846306, "lng": -100.099929
},{
"label": "Valle de Santa Elena", "lat": 25.854792, "lng": -100.143794
},{
"label": "Reyecitos", "lat": 25.881734, "lng": -100.103488
},{
"label": "HM [Granja]", "lat": 25.890596, "lng": -100.168854
},{
"label": "Poblado Comunal Zuazua", "lat": 25.924093, "lng": -100.090097
},{
"label": "El Canelo", "lat": 25.881231, "lng": -100.223364
},{
"label": "Primero de Marzo", "lat": 25.865206, "lng": -100.099576
},{
"label": "Gerardo Martínez", "lat": 25.858687, "lng": -100.099972
},{
"label": "Marlan", "lat": 25.88, "lng": -100.179611
},{
"label": "El Huizachal", "lat": 25.904083, "lng": -100.138038
},{
"label": "La Niña Uno (Santa Cecilia)", "lat": 25.896945, "lng": -100.161453
},{
"label": "Los Caballos", "lat": 25.899397, "lng": -100.124777
},{
"label": "San Ignacio", "lat": 25.880003, "lng": -100.224691
},{
"label": "El Porvenir", "lat": 25.904838, "lng": -100.155988
},{
"label": "Gallinaza [Kilómetro Nueve]", "lat": 25.895766, "lng": -100.12615
},{
"label": "El Cupido", "lat": 25.901271, "lng": -100.156119
},{
"label": "Chimaliquín", "lat": 25.869038, "lng": -100.088047
},{
"label": "Villarreal", "lat": 25.882068, "lng": -100.110898
},{
"label": "Nuevo Amanecer", "lat": 25.873474, "lng": -100.082142
},{
"label": "Picachos", "lat": 25.885463, "lng": -100.188554
},{
"label": "Jerusalén (Jesús Martínez)", "lat": 25.885075, "lng": -100.096167
},{
"label": "Tomy Villarreal", "lat": 25.900963, "lng": -100.12759
},{
"label": "Santa Ana", "lat": 25.90852, "lng": -100.16783
},{
"label": "Camino al Rodeo", "lat": 25.877014, "lng": -100.11503
},{
"label": "Lilego", "lat": 25.876398, "lng": -100.10409
},{
"label": "Montemayor", "lat": 25.893803, "lng": -100.123811
},{
"label": "La Presita", "lat": 25.838346, "lng": -100.105367
},{
"label": "La Ponderosa", "lat": 25.900008, "lng": -100.140917
},{
"label": "Aeropuerto del Norte", "lat": 25.860044, "lng": -100.23828
},{
"label": "Sacramento", "lat": 25.869704, "lng": -100.085421
},{
"label": "Rancho Alegre", "lat": 25.868078, "lng": -100.094281
},{
"label": "Seis Hermanos", "lat": 25.874412, "lng": -100.084248
},{
"label": "El Mohíno", "lat": 25.876729, "lng": -100.094524
},{
"label": "La Placeta", "lat": 25.866305, "lng": -100.094033
},{
"label": "La Palma Sola", "lat": 25.872189, "lng": -100.099279
},{
"label": "Santa Teresita", "lat": 25.909586, "lng": -100.181969
},{
"label": "El Potrillo", "lat": 25.898617, "lng": -100.119284
},{
"label": "Las Burras", "lat": 25.902819, "lng": -100.188954
},{
"label": "Villas de Alcalá", "lat": 25.916186, "lng": -100.178703
},{
"label": "Diecinueve de Octubre", "lat": 25.891258, "lng": -100.213845
},{
"label": "San Jorge (El Mezquite)", "lat": 25.902691, "lng": -100.152322
},{
"label": "Los Martínez", "lat": 25.913752, "lng": -100.188478
},{
"label": "Santa Elena", "lat": 25.896241, "lng": -100.134423
},{
"label": "La Ratonera", "lat": 25.865806, "lng": -100.115021
},{
"label": "Apolonio Quiroga", "lat": 25.901964, "lng": -100.150077
},{
"label": "Silvia María", "lat": 25.879826, "lng": -100.101709
},{
"label": "Martínez", "lat": 25.883398, "lng": -100.085676
},{
"label": "Parque Tecnológico Monterrey [Parque Industrial]", "lat": 25.888941, "lng": -100.233044
},{
"label": "Los Compadres", "lat": 25.905379, "lng": -100.10851
},{
"label": "Castillón", "lat": 25.902021, "lng": -100.127724
},{
"label": "Los Cuatro Papalotes", "lat": 25.878314, "lng": -100.252256
},{
"label": "La Loma [Rodeo]", "lat": 25.872064, "lng": -100.120166
},{
"label": "Las Dos Palmas", "lat": 25.862118, "lng": -100.105883
},{
"label": "El Tule", "lat": 25.908283, "lng": -100.165997
},{
"label": "Las Tres Negritas", "lat": 25.877877, "lng": -100.0905
},{
"label": "Portal de las Flores", "lat": 25.888581, "lng": -100.209622
},{
"label": "El Rodeo", "lat": 25.879941, "lng": -100.112586
},{
"label": "Luisita", "lat": 25.903469, "lng": -100.10903
},{
"label": "San Juan", "lat": 25.878205, "lng": -100.100459
},{
"label": "Veinticinco de Julio", "lat": 25.887824, "lng": -100.219953
},{
"label": "El Resplandor", "lat": 25.838957, "lng": -100.109604
},{
"label": "Rubén Platas", "lat": 25.870271, "lng": -100.127404
},{
"label": "La Loma", "lat": 25.896136, "lng": -100.100126
},{
"label": "General Zuazua", "lat": 25.896978, "lng": -100.108247
},{
"label": "Nueve de Noviembre (Carrizalejo)", "lat": 25.855994, "lng": -100.09451
},{
"label": "La Gloria (La Palma)", "lat": 25.882554, "lng": -100.090587
},{
"label": "Santa Úrsula (Los Alpes)", "lat": 25.895916, "lng": -100.208749
},{
"label": "José Guadalupe Martínez (Lupe Chiquito)", "lat": 25.862408, "lng": -100.093756
},{
"label": "San Francisco", "lat": 25.873245, "lng": -100.126207
},{
"label": "El Mezquite", "lat": 25.876021, "lng": -100.135772
},{
"label": "El Mirador de Ciénega de Flores", "lat": 25.940174, "lng": -100.152563
},{
"label": "Paseos del Roble", "lat": 25.906567, "lng": -100.199443
},{
"label": "Puente Castillón [Kilómetro Siete]", "lat": 25.90084, "lng": -100.126685
},{
"label": "Moreno (Cerralvo Uno)", "lat": 25.893304, "lng": -100.085812
},{
"label": "Milimex Cienega de Flores [Parque Industrial]", "lat": 25.896442, "lng": -100.213232
},{
"label": "La Gloria Dos", "lat": 25.880634, "lng": -100.084332
},{
"label": "La Gaviota Uno", "lat": 25.903544, "lng": -100.152163
},{
"label": "La Migaja", "lat": 25.876879, "lng": -100.076596
}]