[{
"label": "La Colorada", "lat": 24.922406, "lng": -99.643999
},{
"label": "La Coma", "lat": 24.878392, "lng": -99.699714
},{
"label": "La Japonesa", "lat": 24.88019, "lng": -99.645865
},{
"label": "Magüiras", "lat": 24.914268, "lng": -99.627199
},{
"label": "Ncg Mil Novecientos Ochenta y Tres (San José)", "lat": 24.893229, "lng": -99.646538
},{
"label": "El Pinto", "lat": 24.910961, "lng": -99.710687
},{
"label": "La Querencia", "lat": 24.895132, "lng": -99.641381
},{
"label": "El Nogal (El Sacrificio)", "lat": 24.887419, "lng": -99.722527
},{
"label": "La Gloria", "lat": 24.889349, "lng": -99.701677
},{
"label": "La Curva", "lat": 24.895344, "lng": -99.678992
},{
"label": "Los Compadres Dos", "lat": 24.895511, "lng": -99.629102
},{
"label": "El Alto de las Borregas", "lat": 24.909593, "lng": -99.693218
},{
"label": "La Bonita", "lat": 24.899113, "lng": -99.619242
},{
"label": "La Concepción (Hongos de Linares)", "lat": 24.887622, "lng": -99.617214
},{
"label": "San Juanita", "lat": 24.8879, "lng": -99.652036
},{
"label": "San Isidro", "lat": 24.898385, "lng": -99.725717
},{
"label": "Santa Lucía", "lat": 24.851344, "lng": -99.637403
},{
"label": "Ramiro Vargas", "lat": 24.881445, "lng": -99.679865
},{
"label": "Buena Vista", "lat": 24.871483, "lng": -99.626042
},{
"label": "Conchita (Cinco Señores)", "lat": 24.873485, "lng": -99.63107
},{
"label": "Los Cedros", "lat": 24.909055, "lng": -99.641214
},{
"label": "Martha Alicia (Cuatro Vientos)", "lat": 24.904421, "lng": -99.668099
},{
"label": "El Consuelo", "lat": 24.87278, "lng": -99.647596
},{
"label": "Ninguno", "lat": 24.908172, "lng": -99.692305
},{
"label": "Bonanza", "lat": 24.926278, "lng": -99.678279
},{
"label": "Charco Camarillo", "lat": 24.893212, "lng": -99.630199
},{
"label": "Don Elio", "lat": 24.893683, "lng": -99.644563
},{
"label": "Carrizos", "lat": 24.912762, "lng": -99.711897
},{
"label": "Adelita (Blanca Verónica)", "lat": 24.905879, "lng": -99.663986
},{
"label": "La Pita", "lat": 24.90538, "lng": -99.688626
},{
"label": "Lolita (Los Aguacates)", "lat": 24.870617, "lng": -99.631778
},{
"label": "El Troncón", "lat": 24.916988, "lng": -99.662266
},{
"label": "San Bernardo", "lat": 24.874466, "lng": -99.635348
},{
"label": "La Florida", "lat": 24.850032, "lng": -99.708611
},{
"label": "Anacahuitas", "lat": 24.886838, "lng": -99.694602
},{
"label": "General Rodolfo Fierro [Compañía Minera]", "lat": 24.930478, "lng": -99.690876
},{
"label": "Camarillo", "lat": 24.895636, "lng": -99.6344
},{
"label": "Hualahuises", "lat": 24.884642, "lng": -99.673228
},{
"label": "Paso de Lajas (La Laja)", "lat": 24.917556, "lng": -99.639711
},{
"label": "San José de las Flores", "lat": 24.839534, "lng": -99.728624
},{
"label": "Micaela", "lat": 24.891279, "lng": -99.638045
},{
"label": "Las Raíces de Abajo", "lat": 24.843623, "lng": -99.647919
},{
"label": "El Nogal", "lat": 24.856599, "lng": -99.677122
},{
"label": "El Retiro", "lat": 24.886812, "lng": -99.629655
},{
"label": "Buena Vista (Barrancón)", "lat": 24.845792, "lng": -99.721218
},{
"label": "Las Raíces de Arriba", "lat": 24.840107, "lng": -99.651967
},{
"label": "Dolores Otilia (Tanque de Buenos Aires)", "lat": 24.899633, "lng": -99.663956
},{
"label": "El Roble", "lat": 24.862753, "lng": -99.704596
},{
"label": "La Atarjea", "lat": 24.841415, "lng": -99.725776
},{
"label": "La Luz de la Parrita", "lat": 24.839196, "lng": -99.687649
},{
"label": "Angélica", "lat": 24.891629, "lng": -99.697508
},{
"label": "El Refugio", "lat": 24.872888, "lng": -99.64131
},{
"label": "La Mesa", "lat": 24.855022, "lng": -99.635979
},{
"label": "La Anacua", "lat": 24.877163, "lng": -99.734442
},{
"label": "La Peña del Indio", "lat": 24.888339, "lng": -99.706741
},{
"label": "El Embudo", "lat": 24.873103, "lng": -99.619306
},{
"label": "Rancho Nuevo", "lat": 24.843088, "lng": -99.700329
},{
"label": "Hacienda de Hoyos", "lat": 24.891988, "lng": -99.69321
},{
"label": "La Laguna", "lat": 24.848552, "lng": -99.712175
},{
"label": "Charco de los Pastores (Las Adjuntas)", "lat": 24.891343, "lng": -99.715148
},{
"label": "El Bajío", "lat": 24.852171, "lng": -99.666201
},{
"label": "Veintiocho de Enero", "lat": 24.925319, "lng": -99.621814
},{
"label": "San Andrés", "lat": 24.894337, "lng": -99.663411
},{
"label": "La Presa", "lat": 24.884096, "lng": -99.718884
},{
"label": "La Colmena", "lat": 24.904631, "lng": -99.61506
},{
"label": "El Tequila", "lat": 24.883699, "lng": -99.653054
},{
"label": "Cinco Señores (Los Ángeles)", "lat": 24.872491, "lng": -99.626164
},{
"label": "El Barreal", "lat": 24.891276, "lng": -99.708925
},{
"label": "Las Carboneras (Las Adjuntas)", "lat": 24.891963, "lng": -99.720926
},{
"label": "Charco Azul", "lat": 24.848935, "lng": -99.705149
},{
"label": "La Calera", "lat": 24.850843, "lng": -99.711569
},{
"label": "La Víbora", "lat": 24.865361, "lng": -99.715751
},{
"label": "La Purísima", "lat": 24.919278, "lng": -99.676039
},{
"label": "Popanton", "lat": 24.926422, "lng": -99.686422
},{
"label": "El Granjenal", "lat": 24.851106, "lng": -99.656436
},{
"label": "Mojonera (Magüiras)", "lat": 24.910777, "lng": -99.620369
},{
"label": "La Anunciación (María Luisa)", "lat": 24.891643, "lng": -99.621525
},{
"label": "María Isabel", "lat": 24.892349, "lng": -99.677132
},{
"label": "Caprico", "lat": 24.883278, "lng": -99.620485
},{
"label": "El Donado", "lat": 24.851776, "lng": -99.680472
},{
"label": "Potrerillos", "lat": 24.883199, "lng": -99.689764
},{
"label": "El Jandal", "lat": 24.86737, "lng": -99.620939
},{
"label": "Rosa Blanca", "lat": 24.860202, "lng": -99.69503
},{
"label": "Edna Laura", "lat": 24.888472, "lng": -99.666856
},{
"label": "Ojo de Agua", "lat": 24.867794, "lng": -99.655511
},{
"label": "Margarita", "lat": 24.88844, "lng": -99.652775
},{
"label": "San Mauro (Elizondo)", "lat": 24.908699, "lng": -99.664112
},{
"label": "El Encanto (Charco del Gato)", "lat": 24.913294, "lng": -99.705383
},{
"label": "El Cangrejo", "lat": 24.841325, "lng": -99.686068
},{
"label": "Orelia", "lat": 24.887968, "lng": -99.638696
},{
"label": "La Gata (Las Tranquitas)", "lat": 24.899932, "lng": -99.622027
},{
"label": "La Labor", "lat": 24.876731, "lng": -99.689081
},{
"label": "San Pablo", "lat": 24.837708, "lng": -99.660543
},{
"label": "Ojo de Agua (El Sabino)", "lat": 24.855889, "lng": -99.74133
},{
"label": "Los Compadres", "lat": 24.890606, "lng": -99.626606
},{
"label": "La Cruz", "lat": 24.839286, "lng": -99.670684
},{
"label": "El Progreso", "lat": 24.882967, "lng": -99.731621
},{
"label": "San Juan", "lat": 24.855054, "lng": -99.671617
},{
"label": "La Puerta", "lat": 24.897765, "lng": -99.633284
},{
"label": "Guadalupe la Estampida", "lat": 24.83904, "lng": -99.635473
},{
"label": "Hualahuises (Cananea)", "lat": 24.896086, "lng": -99.689717
},{
"label": "Los Sabinos", "lat": 24.863513, "lng": -99.699258
},{
"label": "San José de los Álamos", "lat": 24.839191, "lng": -99.665237
},{
"label": "San Francisco", "lat": 24.895629, "lng": -99.643158
},{
"label": "El Atascoso", "lat": 24.871826, "lng": -99.666478
},{
"label": "La Laja", "lat": 24.913044, "lng": -99.686189
},{
"label": "El Mezquite", "lat": 24.9036, "lng": -99.674161
},{
"label": "La Unión", "lat": 24.912415, "lng": -99.644799
},{
"label": "El Médico", "lat": 24.891895, "lng": -99.647337
},{
"label": "El Sabinal", "lat": 24.887573, "lng": -99.702022
}]