[{
"label": "Mezquites Altos Uno", "lat": 26.02836, "lng": -99.476713
},{
"label": "Juan Salinas", "lat": 26.081963, "lng": -99.588427
},{
"label": "Monteverde (Francisco Reyna)", "lat": 26.086238, "lng": -99.592013
},{
"label": "Mezquites Altos Tres (Alberto Salinas)", "lat": 26.029983, "lng": -99.470733
},{
"label": "El Orégano Dos (Fernando de León)", "lat": 26.06481, "lng": -99.402481
},{
"label": "Santa Consuelo (Alejandro Martínez Landa)", "lat": 26.079813, "lng": -99.598138
},{
"label": "La Coma (Pedro Solís)", "lat": 26.085433, "lng": -99.469176
},{
"label": "Melchor Ocampo", "lat": 26.058525, "lng": -99.542283
},{
"label": "El Ancón", "lat": 26.063543, "lng": -99.51782
},{
"label": "Alfonso Reyes (Sócrates Rizzo)", "lat": 26.07597, "lng": -99.592691
},{
"label": "Juan Salinas Gómez", "lat": 26.007932, "lng": -99.517363
},{
"label": "Alcario López", "lat": 26.006377, "lng": -99.478483
},{
"label": "Edelmiro Garza", "lat": 26.003373, "lng": -99.525671
},{
"label": "Jasso", "lat": 26.004231, "lng": -99.487163
},{
"label": "La Noria (Inés Campos)", "lat": 26.084344, "lng": -99.58116
},{
"label": "El Barretal (Fernando Guzmán)", "lat": 26.029201, "lng": -99.453848
},{
"label": "Juan Hernández", "lat": 26.050058, "lng": -99.518677
},{
"label": "Toboso", "lat": 26.076923, "lng": -99.456115
},{
"label": "Bicentenario", "lat": 26.080576, "lng": -99.594206
},{
"label": "Conrado López", "lat": 26.089633, "lng": -99.485681
},{
"label": "La Rosa Uno (José Galván)", "lat": 26.023629, "lng": -99.42502
},{
"label": "Guillermo Paz", "lat": 26.077886, "lng": -99.579726
},{
"label": "El Dorado (Abelardo Gómez Ramos)", "lat": 26.055242, "lng": -99.564098
},{
"label": "Louisiana (Héctor González Salinas)", "lat": 26.085649, "lng": -99.586843
},{
"label": "Charco Redondo", "lat": 26.061752, "lng": -99.562856
},{
"label": "El Orégano Tres (Antonio de León)", "lat": 26.076189, "lng": -99.400799
},{
"label": "Ruiz", "lat": 26.031882, "lng": -99.535279
},{
"label": "La Batalla del Charco Redondo", "lat": 26.06495, "lng": -99.558881
},{
"label": "La Retama (Ernesto García)", "lat": 26.071395, "lng": -99.480333
},{
"label": "El Uno (La Cabra)", "lat": 26.079872, "lng": -99.576739
},{
"label": "La Escondida", "lat": 26.073825, "lng": -99.595119
},{
"label": "Loma Alta (Arnulfo Benavides Marroquín)", "lat": 26.037644, "lng": -99.579386
},{
"label": "Loma Blanca (José Galván)", "lat": 26.049209, "lng": -99.466317
}]