[{
"label": "Siete de Diciembre", "lat": 23.408473, "lng": -100.167544
},{
"label": "El Gallito", "lat": 23.452336, "lng": -100.035774
},{
"label": "San José de Cuatro Caminos", "lat": 23.503046, "lng": -100.275168
},{
"label": "Dolores", "lat": 23.514356, "lng": -100.232449
},{
"label": "Jesús María del Terrero (El Lindero)", "lat": 23.398834, "lng": -100.178141
},{
"label": "Pedro Ibarra Hernández", "lat": 23.405503, "lng": -100.171836
},{
"label": "El Tizú", "lat": 23.296785, "lng": -100.305645
},{
"label": "Cerros Blancos", "lat": 23.337721, "lng": -100.1917
},{
"label": "Las Palomas (Lajillas)", "lat": 23.545432, "lng": -100.179774
},{
"label": "La Aurora", "lat": 23.424188, "lng": -100.169334
},{
"label": "San Diego", "lat": 23.422798, "lng": -100.166903
},{
"label": "San Elías", "lat": 23.443585, "lng": -100.177917
},{
"label": "La Tortuga", "lat": 23.427781, "lng": -100.175535
},{
"label": "Lagunita de Taberna", "lat": 23.489085, "lng": -100.059453
},{
"label": "San Antonio de Alamitos", "lat": 23.464006, "lng": -100.215253
},{
"label": "Los Callejones", "lat": 23.418337, "lng": -100.157682
},{
"label": "Falfurrias (San Carlos)", "lat": 23.416548, "lng": -100.133787
},{
"label": "La Puerta de Guadalupe (Los Mireles)", "lat": 23.439099, "lng": -100.171392
},{
"label": "Mier y Noriega", "lat": 23.423119, "lng": -100.119669
},{
"label": "San Isidro", "lat": 23.259699, "lng": -100.173101
},{
"label": "Julio Alvarado González (La Palapa)", "lat": 23.433086, "lng": -100.186008
},{
"label": "Magueyes Verdes", "lat": 23.439744, "lng": -100.086518
},{
"label": "San Juan de los Hernández", "lat": 23.399123, "lng": -100.189876
},{
"label": "El Refugio de Cerros Blancos", "lat": 23.450487, "lng": -100.214619
},{
"label": "Las Mesas de San Juan", "lat": 23.50484, "lng": -100.139132
},{
"label": "San Andrés [Granja Avícola]", "lat": 23.4161, "lng": -100.161439
},{
"label": "El Canelo", "lat": 23.451104, "lng": -100.091972
},{
"label": "Rufino Morales Sánchez", "lat": 23.431835, "lng": -100.179831
},{
"label": "San Roberto", "lat": 23.410218, "lng": -100.187084
},{
"label": "San José de Medina (Rancho de Abajo)", "lat": 23.405084, "lng": -100.106869
},{
"label": "Tapona Moreña", "lat": 23.3646, "lng": -100.31977
},{
"label": "La Presita de Cerros Blancos (La Presita)", "lat": 23.356804, "lng": -100.183324
},{
"label": "La Hacienda", "lat": 23.433919, "lng": -100.175773
},{
"label": "La Joya del Zacate", "lat": 23.369158, "lng": -100.275104
},{
"label": "Los García", "lat": 23.386981, "lng": -100.184087
},{
"label": "Ninguno", "lat": 23.453101, "lng": -100.318616
},{
"label": "La Cardona", "lat": 23.400945, "lng": -99.980612
},{
"label": "San Rafael de los Martínez", "lat": 23.517416, "lng": -100.230295
},{
"label": "El Huesario", "lat": 23.527209, "lng": -100.265926
},{
"label": "Tanque Roto", "lat": 23.424022, "lng": -100.034072
}]