[{
"label": "La Ventana (La Huistla)", "lat": 19.08922, "lng": -97.112105
},{
"label": "Acapixtla", "lat": 19.070629, "lng": -97.14161
},{
"label": "Nueva Vida", "lat": 19.076118, "lng": -97.159553
},{
"label": "Xiquila", "lat": 19.128615, "lng": -97.123114
},{
"label": "El Arquito", "lat": 19.071826, "lng": -97.169749
},{
"label": "Xicola", "lat": 19.102652, "lng": -97.075367
},{
"label": "Loma de Buenos Aires", "lat": 19.115808, "lng": -97.127056
},{
"label": "Ateopa", "lat": 19.115331, "lng": -97.104809
},{
"label": "El Mirador", "lat": 19.129213, "lng": -97.119398
},{
"label": "San Martín Caballero", "lat": 19.068561, "lng": -97.115914
},{
"label": "Acolco", "lat": 19.113932, "lng": -97.079782
},{
"label": "Calzacayo", "lat": 19.121061, "lng": -97.106402
},{
"label": "Mesa de Buenavista", "lat": 19.117649, "lng": -97.145871
},{
"label": "Ixtaquilitla (El Rincón)", "lat": 19.077534, "lng": -97.125232
},{
"label": "Ayahualulco", "lat": 19.103579, "lng": -97.134355
},{
"label": "Alpatláhuac", "lat": 19.119951, "lng": -97.093152
},{
"label": "Tlamamatla", "lat": 19.109455, "lng": -97.071243
},{
"label": "La Joya", "lat": 19.109846, "lng": -97.077879
},{
"label": "Los Paredones", "lat": 19.071219, "lng": -97.15015
},{
"label": "Tenixcalco", "lat": 19.099194, "lng": -97.103276
},{
"label": "Xalapasquillo", "lat": 19.090544, "lng": -97.151712
},{
"label": "Los Pocitos", "lat": 19.11044, "lng": -97.107642
},{
"label": "Rancho Alegre", "lat": 19.108794, "lng": -97.135439
},{
"label": "Tecuanapilla", "lat": 19.089109, "lng": -97.136772
},{
"label": "Yolocla", "lat": 19.10085, "lng": -97.114232
},{
"label": "Texopa", "lat": 19.108173, "lng": -97.113359
},{
"label": "Tecuanapa", "lat": 19.11028, "lng": -97.17278
},{
"label": "Cocalzingo", "lat": 19.095896, "lng": -97.109683
},{
"label": "La Cascada", "lat": 19.104681, "lng": -97.112053
},{
"label": "San José Teacalco", "lat": 19.111735, "lng": -97.099054
},{
"label": "Teanquisco", "lat": 19.110004, "lng": -97.123009
},{
"label": "Malacatepec", "lat": 19.083944, "lng": -97.153204
},{
"label": "El Águila", "lat": 19.128928, "lng": -97.123979
},{
"label": "Agua de Oro", "lat": 19.077252, "lng": -97.144382
},{
"label": "Colonia Nuevo Xicola", "lat": 19.114741, "lng": -97.080377
},{
"label": "Rancho Nuevo", "lat": 19.107836, "lng": -97.152816
},{
"label": "Colonia Benito Juárez", "lat": 19.096272, "lng": -97.126967
},{
"label": "Unión Cruz Verde", "lat": 19.106301, "lng": -97.124952
}]