[{
"label": "Finca Bahía Blanca (Estero Viejo)", "lat": 19.091517, "lng": -96.104644
},{
"label": "Boca del Zapote", "lat": 18.715046, "lng": -95.882088
},{
"label": "Ani Bel", "lat": 19.063495, "lng": -96.076727
},{
"label": "Alvarado", "lat": 18.774278, "lng": -95.763929
},{
"label": "La Antena", "lat": 19.073994, "lng": -96.087418
},{
"label": "La Trompeta", "lat": 18.649867, "lng": -95.758536
},{
"label": "La Playa", "lat": 18.771688, "lng": -95.851443
},{
"label": "Las Garzas", "lat": 18.907569, "lng": -95.972573
},{
"label": "El Columpio", "lat": 18.704909, "lng": -95.618873
},{
"label": "El Cedro", "lat": 18.6675, "lng": -95.545
},{
"label": "Punta Grande", "lat": 18.794677, "lng": -95.808205
},{
"label": "La Aguada", "lat": 19.030794, "lng": -96.032572
},{
"label": "Playa Zapote", "lat": 19.016518, "lng": -95.967485
},{
"label": "Los Prietitos", "lat": 18.791598, "lng": -95.87645
},{
"label": "Puerto Lobo", "lat": 18.736864, "lng": -95.697913
},{
"label": "La Matoza (Acapulquito)", "lat": 19.04977, "lng": -96.097094
},{
"label": "Amado Nervo", "lat": 18.597403, "lng": -95.7881
},{
"label": "Los Médanos de Buena Vista", "lat": 18.727653, "lng": -95.673423
},{
"label": "Luis Martínez (El Canal)", "lat": 18.861272, "lng": -95.908229
},{
"label": "Pueblo Nuevo", "lat": 18.73444, "lng": -95.69389
},{
"label": "Isla de Tatayán", "lat": 18.710168, "lng": -95.8828
},{
"label": "Residencial Villas", "lat": 19.055462, "lng": -96.073194
},{
"label": "Flavio Fierro", "lat": 18.922531, "lng": -96.000766
},{
"label": "Tarache", "lat": 18.62526, "lng": -95.795094
},{
"label": "Isla del Sancho", "lat": 18.577327, "lng": -95.778767
},{
"label": "La Rana", "lat": 18.901655, "lng": -95.979898
},{
"label": "El Cacahuante", "lat": 18.64333, "lng": -95.76806
},{
"label": "Vera Sur", "lat": 19.053103, "lng": -96.016967
},{
"label": "La Ramada", "lat": 18.82326, "lng": -95.856713
},{
"label": "Punta de Arenas", "lat": 18.661553, "lng": -95.549618
},{
"label": "Don Abel González", "lat": 18.973753, "lng": -95.971245
},{
"label": "El Faro", "lat": 18.782468, "lng": -95.746159
},{
"label": "La Carreta", "lat": 19.071187, "lng": -96.085728
},{
"label": "Basanta", "lat": 18.683805, "lng": -95.720033
},{
"label": "La Isla", "lat": 18.773203, "lng": -95.773928
},{
"label": "La Chabelita", "lat": 18.953353, "lng": -95.979075
},{
"label": "El Capricho", "lat": 18.931863, "lng": -95.98447
},{
"label": "Chorrera de Gaytán", "lat": 18.716092, "lng": -95.728173
},{
"label": "El Triunfo", "lat": 18.657238, "lng": -95.824673
},{
"label": "Buen País", "lat": 18.820989, "lng": -95.850496
},{
"label": "San Diego (Casa General Serrano)", "lat": 18.914449, "lng": -95.986436
},{
"label": "Las Tunas", "lat": 18.694511, "lng": -95.553131
},{
"label": "El Guayabal", "lat": 18.759555, "lng": -95.747543
},{
"label": "Paso de los Burros", "lat": 18.826252, "lng": -95.9975
},{
"label": "Paso Tío Mauro", "lat": 18.82578, "lng": -95.929911
},{
"label": "Herón Proal", "lat": 19.011964, "lng": -96.097746
},{
"label": "La Palma", "lat": 18.824115, "lng": -95.972558
},{
"label": "Finca el Coquimbo", "lat": 19.054081, "lng": -96.014441
},{
"label": "Conejo Blanco (Conejos)", "lat": 18.709514, "lng": -95.629707
},{
"label": "Santa Arely (Gamboa)", "lat": 18.703646, "lng": -95.592006
},{
"label": "Casa Blanca", "lat": 18.79893, "lng": -95.80469
},{
"label": "Los Cocos", "lat": 18.808222, "lng": -95.826865
},{
"label": "Playa de los Palacios", "lat": 18.76705, "lng": -95.841429
},{
"label": "María del Rosario", "lat": 18.770158, "lng": -95.745416
},{
"label": "Las Palmitas", "lat": 18.756123, "lng": -95.724237
},{
"label": "Víctor Muñoz", "lat": 18.923231, "lng": -96.002333
},{
"label": "María Josefa", "lat": 18.692309, "lng": -95.571827
},{
"label": "Los Chivos (Mate Guayabo)", "lat": 18.937209, "lng": -95.969919
},{
"label": "Motzorongo", "lat": 18.77972, "lng": -95.78167
},{
"label": "San Carlos", "lat": 18.729528, "lng": -95.670065
},{
"label": "Palmira", "lat": 19.057994, "lng": -96.046
},{
"label": "Puerta Ecológica de Sotavento", "lat": 18.791273, "lng": -95.796744
},{
"label": "Seabron", "lat": 18.936353, "lng": -95.999569
},{
"label": "La Paulita", "lat": 18.817236, "lng": -95.84225
},{
"label": "Capricho", "lat": 18.796917, "lng": -95.804594
},{
"label": "La Blandilla", "lat": 18.814066, "lng": -95.985479
},{
"label": "San José (La Arenera)", "lat": 19.071875, "lng": -96.088882
},{
"label": "La Envidia", "lat": 18.726735, "lng": -95.656282
},{
"label": "Chocotán", "lat": 18.741142, "lng": -95.715979
},{
"label": "El Canelo", "lat": 18.894374, "lng": -95.948546
},{
"label": "La Nueva Esperanza", "lat": 18.926033, "lng": -95.991444
},{
"label": "Puerta Negra", "lat": 18.791101, "lng": -95.795549
},{
"label": "Punta Chica", "lat": 18.78147, "lng": -95.780639
},{
"label": "El Maguey", "lat": 18.975836, "lng": -96.024495
},{
"label": "Paso el Platanar", "lat": 18.661688, "lng": -95.845766
},{
"label": "Plaza de Armas", "lat": 18.659129, "lng": -95.766323
},{
"label": "Colonia Unidad Antorchista", "lat": 19.053218, "lng": -96.069496
},{
"label": "Punta de Lagarto", "lat": 18.74167, "lng": -95.82028
},{
"label": "Rancho de la Aguada (Los Ases)", "lat": 18.580775, "lng": -95.782656
},{
"label": "Palma Sola", "lat": 18.679991, "lng": -95.756657
},{
"label": "La Casa de Piedra", "lat": 19.055237, "lng": -96.045357
},{
"label": "La Piedra", "lat": 18.934536, "lng": -96.013643
},{
"label": "El Cocal", "lat": 18.785504, "lng": -95.791708
},{
"label": "Lucerillo", "lat": 18.670336, "lng": -95.535054
},{
"label": "Los Pajarillos (Corcobado)", "lat": 18.850403, "lng": -95.958581
},{
"label": "Fraccionamiento los Manantiales Residencial", "lat": 19.053518, "lng": -96.076495
},{
"label": "Instituto Tecnológico Superior de Alvarado", "lat": 18.789261, "lng": -95.75729
},{
"label": "Mandinga y Cardón", "lat": 18.908011, "lng": -96.010079
},{
"label": "Punta Valiente", "lat": 18.718661, "lng": -95.647831
},{
"label": "Playuelas", "lat": 18.834223, "lng": -95.941307
},{
"label": "Las Escolleras", "lat": 18.774808, "lng": -95.748382
},{
"label": "Alto Simón", "lat": 18.767552, "lng": -95.722321
},{
"label": "La Bota", "lat": 18.922063, "lng": -95.99272
},{
"label": "La Granjita", "lat": 18.923078, "lng": -96.002064
},{
"label": "Fraccionamiento Dos Riberas", "lat": 19.077353, "lng": -96.102002
},{
"label": "Puente de la Carreta", "lat": 18.883158, "lng": -95.945979
},{
"label": "Kar-Sol", "lat": 18.896423, "lng": -95.950423
},{
"label": "Cenzontle", "lat": 18.699256, "lng": -95.776844
},{
"label": "Fraccionamiento los Manantiales", "lat": 19.055438, "lng": -96.074105
},{
"label": "Residencial Playa Dorada", "lat": 19.060119, "lng": -96.061465
},{
"label": "Isleta de los Chivos", "lat": 18.73333, "lng": -95.82528
},{
"label": "Gamboa", "lat": 18.697953, "lng": -95.519239
},{
"label": "Monte Pío", "lat": 18.866164, "lng": -95.949087
},{
"label": "Salinas", "lat": 18.890086, "lng": -95.943349
},{
"label": "Feed Lost Tiburón", "lat": 18.950876, "lng": -96.00255
},{
"label": "San Alberto", "lat": 18.676254, "lng": -95.545941
},{
"label": "Casita Blanca", "lat": 19.055, "lng": -96.03333
},{
"label": "El Nacaste", "lat": 18.701424, "lng": -95.80736
},{
"label": "El Zapote", "lat": 19.004626, "lng": -95.989388
},{
"label": "Playa Cházaro", "lat": 19.055401, "lng": -96.022274
},{
"label": "Villa Rica [Clud de Golf]", "lat": 19.079294, "lng": -96.108553
},{
"label": "Maravatío", "lat": 18.714815, "lng": -95.640605
},{
"label": "Finca la Mariola", "lat": 19.089326, "lng": -96.104984
},{
"label": "Cerro Colorado", "lat": 18.828108, "lng": -95.914457
},{
"label": "Paso Salinas", "lat": 18.901411, "lng": -95.939933
},{
"label": "Santa María", "lat": 19.053406, "lng": -96.032533
},{
"label": "Loma de la Cruz", "lat": 18.951779, "lng": -95.999782
},{
"label": "La Gaviota", "lat": 19.054232, "lng": -96.029188
},{
"label": "Tecolapilla", "lat": 18.653829, "lng": -95.550247
},{
"label": "Gabriel Vázquez Peña", "lat": 18.901629, "lng": -95.966123
},{
"label": "Llano Grande (Arroyo el Diablo)", "lat": 18.85995, "lng": -95.957207
},{
"label": "Los Pinos", "lat": 18.673864, "lng": -95.547301
},{
"label": "Marcos Torres", "lat": 19.060337, "lng": -96.095529
},{
"label": "Moral y Mosquitero", "lat": 18.796785, "lng": -95.887951
},{
"label": "Tatana Beach", "lat": 19.055023, "lng": -96.018423
},{
"label": "Pikilín", "lat": 19.052461, "lng": -96.010492
},{
"label": "Los Moralitos", "lat": 18.877177, "lng": -95.981121
},{
"label": "Palo de Argolla", "lat": 18.734956, "lng": -95.870749
},{
"label": "La Miel", "lat": 18.898532, "lng": -95.955936
},{
"label": "El Nanchal", "lat": 18.806473, "lng": -95.929121
},{
"label": "Paso de la Calentura", "lat": 18.807289, "lng": -95.952828
},{
"label": "Antón Lizardo", "lat": 19.057974, "lng": -95.988262
},{
"label": "Las Palomas", "lat": 19.05494, "lng": -96.027731
},{
"label": "Macuile", "lat": 18.69919, "lng": -95.68315
},{
"label": "Las Maravillas", "lat": 18.660075, "lng": -95.766759
},{
"label": "Real Mandinga", "lat": 19.048183, "lng": -96.059001
},{
"label": "Parada de los Toros", "lat": 18.76667, "lng": -95.78389
},{
"label": "Cenón", "lat": 18.672854, "lng": -95.548869
},{
"label": "La Cruz", "lat": 18.688882, "lng": -95.565293
},{
"label": "El Ciruelo", "lat": 18.711949, "lng": -95.623842
},{
"label": "Giraluna", "lat": 19.057371, "lng": -96.043691
},{
"label": "El Perol (Leo)", "lat": 19.056466, "lng": -96.062624
},{
"label": "Mary", "lat": 18.82528, "lng": -95.85
},{
"label": "Palma Soriano", "lat": 18.904704, "lng": -95.965724
},{
"label": "El Platanar", "lat": 18.702689, "lng": -95.607772
},{
"label": "Juana María", "lat": 18.832316, "lng": -95.888301
},{
"label": "El Oasis", "lat": 18.67544, "lng": -95.717512
},{
"label": "La Tunilla", "lat": 18.704578, "lng": -95.640673
},{
"label": "La Concha", "lat": 19.055063, "lng": -96.025308
},{
"label": "Rene Montalvo", "lat": 18.916776, "lng": -96.005611
},{
"label": "Camaronera", "lat": 18.837938, "lng": -95.875434
},{
"label": "El Corte", "lat": 18.943542, "lng": -95.982893
},{
"label": "Ciénega del Sur", "lat": 18.691486, "lng": -95.522937
},{
"label": "San Francisco", "lat": 18.681826, "lng": -95.524055
},{
"label": "Paso Nacional", "lat": 18.767111, "lng": -95.748925
},{
"label": "La Raice", "lat": 19.040587, "lng": -96.061882
},{
"label": "Punta Brava", "lat": 18.673314, "lng": -95.884303
},{
"label": "La Isleta de los Naranjos", "lat": 18.70169, "lng": -95.780151
},{
"label": "Punta de Limón", "lat": 18.69601, "lng": -95.880555
},{
"label": "Monte Alto", "lat": 18.693056, "lng": -95.565422
},{
"label": "Fraccionamiento Lomas de la Rioja", "lat": 19.052456, "lng": -96.061122
},{
"label": "El Baulito", "lat": 18.75167, "lng": -95.84028
},{
"label": "El Bambino", "lat": 19.05667, "lng": -96.05944
},{
"label": "Banus", "lat": 19.054289, "lng": -96.067457
},{
"label": "Kilómetro Cuatro", "lat": 19.069441, "lng": -96.083469
},{
"label": "Juan Pérez", "lat": 18.730614, "lng": -95.731095
},{
"label": "Isla Playa Tortuga", "lat": 18.767046, "lng": -95.767494
},{
"label": "Los Jácome", "lat": 18.73, "lng": -95.68167
},{
"label": "El Manguito (Los Mangos)", "lat": 19.044886, "lng": -95.986246
},{
"label": "Paraíso del Estero (La Burbuja)", "lat": 19.088814, "lng": -96.104194
},{
"label": "El Paraíso", "lat": 18.910877, "lng": -95.97777
},{
"label": "El Rosario", "lat": 18.68985, "lng": -95.568188
},{
"label": "El Pozo", "lat": 18.875217, "lng": -95.921999
},{
"label": "Rincón de la Palma", "lat": 18.820594, "lng": -95.957021
},{
"label": "El Rastro", "lat": 18.783472, "lng": -95.785371
},{
"label": "Casimiro Cano", "lat": 18.91861, "lng": -96.00417
},{
"label": "Rincón del Conchal", "lat": 19.082445, "lng": -96.109175
},{
"label": "Isla del Amor", "lat": 19.091694, "lng": -96.100524
},{
"label": "Cecilia Guillén", "lat": 19.051712, "lng": -96.017437
},{
"label": "Desviación Ciénega del Sur", "lat": 18.666904, "lng": -95.551202
},{
"label": "La Lucha", "lat": 18.83278, "lng": -95.8675
},{
"label": "Buena Vista", "lat": 19.054583, "lng": -96.055012
},{
"label": "Las Gaviotas", "lat": 18.829877, "lng": -95.858028
},{
"label": "Fraccionamiento las Lomas", "lat": 19.070214, "lng": -96.09692
},{
"label": "San Pedro Joluca", "lat": 18.892988, "lng": -96.003511
},{
"label": "Playa Sol", "lat": 19.05517, "lng": -96.028445
},{
"label": "Puerto Escondido", "lat": 18.694365, "lng": -95.577895
},{
"label": "Santa Catarina", "lat": 18.696502, "lng": -95.789416
},{
"label": "San Antonio Flota", "lat": 18.649128, "lng": -95.767943
},{
"label": "Boca de Puquita", "lat": 18.750529, "lng": -95.783484
},{
"label": "El Pijul", "lat": 18.928376, "lng": -95.976953
},{
"label": "El Alguacil", "lat": 19.039484, "lng": -96.016345
},{
"label": "Finca Altamira", "lat": 18.792919, "lng": -95.799478
},{
"label": "Las Conchitas", "lat": 18.853036, "lng": -95.896233
},{
"label": "Fraccionamiento el Sendero Residencial", "lat": 19.069753, "lng": -96.080485
},{
"label": "El Callejón", "lat": 18.900789, "lng": -95.962484
},{
"label": "El Hato", "lat": 18.971199, "lng": -96.000696
},{
"label": "Mata Alta", "lat": 18.997261, "lng": -96.030542
},{
"label": "Popuyeca", "lat": 18.628378, "lng": -95.882013
},{
"label": "El Shadai", "lat": 18.949373, "lng": -96.002504
},{
"label": "Nuevo Progreso", "lat": 18.664272, "lng": -95.550889
},{
"label": "San Jerónimo", "lat": 18.972502, "lng": -95.968181
},{
"label": "Playa Azul", "lat": 18.882511, "lng": -95.926947
},{
"label": "Suchita", "lat": 18.666068, "lng": -95.775595
},{
"label": "Paso de la Culata", "lat": 18.873381, "lng": -95.947729
},{
"label": "Lomas de Zamorano (Epitacio Zamorano)", "lat": 18.993824, "lng": -96.005049
},{
"label": "Sinatín", "lat": 19.056565, "lng": -96.042386
},{
"label": "Juan Hernández Márquez (Chelino)", "lat": 18.929159, "lng": -96.013478
},{
"label": "Las Barrancas", "lat": 18.999609, "lng": -95.966779
},{
"label": "La Planada (Los Carriles)", "lat": 18.680979, "lng": -95.544337
},{
"label": "Condominios Cormorán", "lat": 19.090768, "lng": -96.103448
},{
"label": "Vista Bella", "lat": 19.076993, "lng": -96.096428
},{
"label": "La Camaya", "lat": 18.828403, "lng": -95.865119
},{
"label": "La Boyera", "lat": 18.730379, "lng": -95.789744
},{
"label": "La Isletilla", "lat": 18.779334, "lng": -95.787566
},{
"label": "La Candelaria", "lat": 18.780571, "lng": -95.779197
},{
"label": "El Martillo", "lat": 19.035432, "lng": -95.985216
},{
"label": "El Bayo", "lat": 18.98527, "lng": -95.970505
},{
"label": "El Pirata", "lat": 18.8, "lng": -95.80833
},{
"label": "Santa Rita", "lat": 18.669702, "lng": -95.54992
},{
"label": "Buenos Aires", "lat": 18.91583, "lng": -96.00667
},{
"label": "El Moral", "lat": 19.053895, "lng": -96.057694
},{
"label": "La Sabaneta (Colonia Adolfo Ruiz Cortines)", "lat": 19.053957, "lng": -95.997951
},{
"label": "El Tecomate", "lat": 18.76657, "lng": -95.735487
},{
"label": "Casa Verde", "lat": 18.69999, "lng": -95.597964
},{
"label": "La Granja (Los Órganos)", "lat": 18.67399, "lng": -95.551344
},{
"label": "Román Galván", "lat": 18.681339, "lng": -95.527196
},{
"label": "Cancún Bell", "lat": 19.090308, "lng": -96.104628
},{
"label": "El Gaucho", "lat": 19.054646, "lng": -96.049339
},{
"label": "El Sabañón", "lat": 19.057016, "lng": -95.999224
},{
"label": "El Rincón del Plumaje", "lat": 19.024647, "lng": -96.011033
},{
"label": "San Rafael", "lat": 18.726185, "lng": -95.660154
},{
"label": "El Cucho", "lat": 18.901351, "lng": -95.958568
},{
"label": "Paso de los Cántaros", "lat": 18.760625, "lng": -95.849635
},{
"label": "Costa de la Palma", "lat": 18.771965, "lng": -95.871854
},{
"label": "Punta de Gamboa (Campo Verde)", "lat": 18.696682, "lng": -95.585248
},{
"label": "Bahía", "lat": 18.797376, "lng": -95.813916
},{
"label": "Cala Larga", "lat": 18.724283, "lng": -95.789737
},{
"label": "Santa María Buena Vista", "lat": 19.035519, "lng": -96.036986
},{
"label": "El Porvenir", "lat": 18.949875, "lng": -95.974468
},{
"label": "El Jiote", "lat": 18.819326, "lng": -95.995063
},{
"label": "Don Miguel", "lat": 18.944067, "lng": -96.013934
},{
"label": "El Callejón (Cuatro Vientos)", "lat": 19.022268, "lng": -95.987571
},{
"label": "Mata de Uva", "lat": 19.034875, "lng": -95.969502
},{
"label": "Rancho Nuevo", "lat": 19.0575, "lng": -96.06667
},{
"label": "Punta de Tía Pancha", "lat": 18.735998, "lng": -95.821575
},{
"label": "San José", "lat": 18.683254, "lng": -95.560847
},{
"label": "La Laguna", "lat": 18.773863, "lng": -95.885489
},{
"label": "Mata de Silla", "lat": 18.898019, "lng": -96.026043
},{
"label": "Mocambo", "lat": 18.823938, "lng": -95.924709
},{
"label": "Constanza", "lat": 18.70184, "lng": -95.726818
},{
"label": "El Mirador", "lat": 19.05472, "lng": -96.04472
},{
"label": "La Sabanilla", "lat": 18.74778, "lng": -95.74278
},{
"label": "Playas del Conchal", "lat": 19.07748, "lng": -96.089814
},{
"label": "Las Conchas", "lat": 18.876347, "lng": -95.918988
},{
"label": "Jesús de Guadalupe Fierro Martínez", "lat": 18.923259, "lng": -96.001932
},{
"label": "El Toro", "lat": 18.743154, "lng": -95.750393
},{
"label": "Cerro Rojas", "lat": 18.68028, "lng": -95.75667
},{
"label": "José Luis Uscanga", "lat": 19.065521, "lng": -96.091771
},{
"label": "El Remolino", "lat": 18.993202, "lng": -95.989116
},{
"label": "Laguna los Uveros (Los Uveros)", "lat": 18.878193, "lng": -95.954661
},{
"label": "Fernando Chimbensem", "lat": 18.91528, "lng": -96.00611
},{
"label": "Los Chupirules", "lat": 19.054995, "lng": -96.019593
},{
"label": "La Guadalupe", "lat": 18.678962, "lng": -95.558761
},{
"label": "El Navegante", "lat": 18.964905, "lng": -95.982476
},{
"label": "El Cocuite", "lat": 18.709814, "lng": -95.634593
},{
"label": "Oliverio Martínez Torres (Casa Trailer)", "lat": 18.929145, "lng": -96.008252
},{
"label": "La Providencia", "lat": 18.955057, "lng": -95.999311
},{
"label": "María Luisa", "lat": 18.888145, "lng": -95.933448
},{
"label": "Margarito García", "lat": 18.915295, "lng": -96.008559
},{
"label": "Ruisán", "lat": 18.784039, "lng": -95.784358
},{
"label": "Laguna de Corniz", "lat": 18.704524, "lng": -95.800905
},{
"label": "Punta Marcial", "lat": 18.624657, "lng": -95.894309
},{
"label": "Rosamar", "lat": 19.053891, "lng": -96.031251
},{
"label": "María Teresa", "lat": 18.954066, "lng": -96.001188
},{
"label": "El Paso del Llano", "lat": 18.918501, "lng": -95.991469
},{
"label": "Costa de San Juan", "lat": 18.717045, "lng": -95.825468
},{
"label": "Playa de la Libertad", "lat": 19.083238, "lng": -96.097877
},{
"label": "Rincón de la Lechería", "lat": 18.714234, "lng": -95.851102
},{
"label": "San Bruno", "lat": 18.71528, "lng": -95.65083
},{
"label": "Chorrera de Tío Liano", "lat": 18.760693, "lng": -95.881947
},{
"label": "La Manta", "lat": 18.690519, "lng": -95.730136
},{
"label": "Paso Cabresto", "lat": 18.878448, "lng": -95.960013
},{
"label": "Colonia Vicente Pérez", "lat": 19.049583, "lng": -95.98999
},{
"label": "Finca San Luis", "lat": 18.686418, "lng": -95.563332
},{
"label": "Los Laureles", "lat": 19.007253, "lng": -96.034943
},{
"label": "Mandinga y Matoza", "lat": 19.050418, "lng": -96.074885
},{
"label": "Martín Prieto", "lat": 18.678516, "lng": -95.717883
},{
"label": "Varadero la Suriana", "lat": 19.091228, "lng": -96.103193
},{
"label": "Punta de Plata", "lat": 18.728895, "lng": -95.680819
},{
"label": "Lomas del Sol", "lat": 19.065394, "lng": -96.070858
},{
"label": "Las Pintas", "lat": 18.720879, "lng": -95.728142
},{
"label": "Villa del Río", "lat": 19.091163, "lng": -96.105659
},{
"label": "San Marcos", "lat": 18.681474, "lng": -95.527631
},{
"label": "El Conchal", "lat": 19.084816, "lng": -96.103048
},{
"label": "San Juan", "lat": 18.971963, "lng": -95.971164
},{
"label": "Arbolillo", "lat": 18.816738, "lng": -95.836377
},{
"label": "El Nanche", "lat": 18.86564, "lng": -95.916603
},{
"label": "La Loma", "lat": 18.893668, "lng": -95.948919
},{
"label": "San José (San Felipe)", "lat": 19.052359, "lng": -96.017129
},{
"label": "El Federal", "lat": 18.949511, "lng": -95.979191
},{
"label": "La Esperanza", "lat": 18.794567, "lng": -95.805214
},{
"label": "La Boca del Estero", "lat": 18.727668, "lng": -95.721148
},{
"label": "Las Brisas", "lat": 18.787343, "lng": -95.768428
},{
"label": "Santa Rosa de Lima", "lat": 18.766039, "lng": -95.731441
},{
"label": "Juan Martínez", "lat": 18.91583, "lng": -96.0075
},{
"label": "La Mojarra", "lat": 18.616823, "lng": -95.799806
},{
"label": "Finca Robson", "lat": 19.086314, "lng": -96.104727
},{
"label": "Los Gauchos", "lat": 19.050793, "lng": -96.010723
},{
"label": "El Mangal", "lat": 19.038762, "lng": -95.97591
},{
"label": "Ricardo Vinicio Ruiz Ramón", "lat": 18.779779, "lng": -95.774483
},{
"label": "Procopio Cruz", "lat": 19.017959, "lng": -96.031298
}]