[{
"label": "El Rincón", "lat": 18.664076, "lng": -97.168771
},{
"label": "Tepexititla", "lat": 18.690926, "lng": -97.128226
},{
"label": "Acultzinapa (San Miguelito)", "lat": 18.669391, "lng": -97.161048
},{
"label": "Cuautlamanca", "lat": 18.690189, "lng": -97.093249
},{
"label": "Ixtacabatempa", "lat": 18.685218, "lng": -97.089136
},{
"label": "Atetecochco", "lat": 18.694053, "lng": -97.081275
},{
"label": "Terrero", "lat": 18.682085, "lng": -97.161521
},{
"label": "Tlaxcantitla", "lat": 18.701603, "lng": -97.122015
},{
"label": "Loma Linda", "lat": 18.725872, "lng": -97.130297
},{
"label": "Zihuateo", "lat": 18.671186, "lng": -97.10556
},{
"label": "Uitziquiapa", "lat": 18.661071, "lng": -97.087829
},{
"label": "Capultitla Eyitepec", "lat": 18.659113, "lng": -97.119296
},{
"label": "Atlahuilco", "lat": 18.697427, "lng": -97.090686
},{
"label": "Zacatlamanca", "lat": 18.67351, "lng": -97.135511
},{
"label": "Ocotlajapa", "lat": 18.658831, "lng": -97.102486
},{
"label": "Atezoc", "lat": 18.685098, "lng": -97.107716
},{
"label": "Loma Hotempa", "lat": 18.673829, "lng": -97.180495
},{
"label": "Loma los Pinos", "lat": 18.675335, "lng": -97.135638
},{
"label": "Atlehuaya", "lat": 18.711183, "lng": -97.131045
},{
"label": "Tlalmorado", "lat": 18.679474, "lng": -97.098727
},{
"label": "Tambola (Tampola)", "lat": 18.687391, "lng": -97.114515
},{
"label": "Atlahuilapa", "lat": 18.707728, "lng": -97.08388
},{
"label": "Ocotlamanca", "lat": 18.656113, "lng": -97.132274
},{
"label": "Ameyala", "lat": 18.694873, "lng": -97.132147
},{
"label": "Rincón de Tepexititla", "lat": 18.67804, "lng": -97.134358
},{
"label": "Loma Buena Vista", "lat": 18.667839, "lng": -97.167489
},{
"label": "Zacatla (Tlaltolompa)", "lat": 18.651847, "lng": -97.11448
},{
"label": "Zacamilola", "lat": 18.670439, "lng": -97.083214
},{
"label": "Ticonca", "lat": 18.695562, "lng": -97.124777
},{
"label": "Xochitepec", "lat": 18.68301, "lng": -97.12363
},{
"label": "Abaloma Cuautla", "lat": 18.668171, "lng": -97.075906
},{
"label": "Macuilquila", "lat": 18.679161, "lng": -97.088732
},{
"label": "Xibtla", "lat": 18.674156, "lng": -97.076
},{
"label": "Quechulingo", "lat": 18.665311, "lng": -97.132301
},{
"label": "Tlaxitla", "lat": 18.690168, "lng": -97.105806
},{
"label": "Los Pinos", "lat": 18.693473, "lng": -97.102156
},{
"label": "Vista Hermosa", "lat": 18.718894, "lng": -97.130172
},{
"label": "Xocotehuitzco (Xogmecatla)", "lat": 18.703741, "lng": -97.088575
}]