[{
"label": "Banderilla", "lat": 19.591607, "lng": -96.940884
},{
"label": "Loma Colibrí", "lat": 19.584477, "lng": -96.945489
},{
"label": "El Arenal", "lat": 19.581623, "lng": -96.917646
},{
"label": "Rancho Viejo", "lat": 19.584715, "lng": -96.922301
},{
"label": "Valentín Durán Saldaña", "lat": 19.569238, "lng": -96.958006
},{
"label": "Los Leones", "lat": 19.601981, "lng": -96.944161
},{
"label": "El Paraíso", "lat": 19.577474, "lng": -96.911921
},{
"label": "La Planta [Estación de Radio]", "lat": 19.575444, "lng": -96.908125
},{
"label": "Tejería", "lat": 19.601933, "lng": -96.918811
},{
"label": "El Boquerón", "lat": 19.59805, "lng": -96.955137
},{
"label": "Santa Mónica", "lat": 19.599378, "lng": -96.919297
},{
"label": "Antonio Tablada", "lat": 19.57671, "lng": -96.967528
},{
"label": "La Llave del Palenquillo", "lat": 19.5775, "lng": -96.93972
},{
"label": "Vía Pública", "lat": 19.597104, "lng": -96.952286
},{
"label": "Fidel Olivo (Suchiapan)", "lat": 19.575894, "lng": -96.959011
},{
"label": "Xaltepec", "lat": 19.599709, "lng": -96.932389
},{
"label": "Guillermo Aburto", "lat": 19.57667, "lng": -96.93972
},{
"label": "Quinta las Bugambilias", "lat": 19.583616, "lng": -96.969269
},{
"label": "Los Alcatraces", "lat": 19.582865, "lng": -96.968155
},{
"label": "Alberto Servín", "lat": 19.571707, "lng": -96.948796
},{
"label": "Monte Calvario", "lat": 19.584924, "lng": -96.974407
},{
"label": "Colonia Fredepo", "lat": 19.577246, "lng": -96.910256
},{
"label": "El Jardín", "lat": 19.579058, "lng": -96.967763
},{
"label": "Jota Erre", "lat": 19.580802, "lng": -96.95263
},{
"label": "La Providencia", "lat": 19.590282, "lng": -96.929843
},{
"label": "Antonio Martínez Hernández", "lat": 19.57528, "lng": -96.94222
},{
"label": "Doctor Rubén Madrigal (Los Limones)", "lat": 19.574372, "lng": -96.956158
},{
"label": "La Martinica", "lat": 19.584245, "lng": -96.943553
},{
"label": "Don Gato", "lat": 19.575684, "lng": -96.905683
},{
"label": "Los Deseos", "lat": 19.583028, "lng": -96.923081
},{
"label": "Las Águilas", "lat": 19.582921, "lng": -96.941966
},{
"label": "La Mesa", "lat": 19.578654, "lng": -96.945806
},{
"label": "Juan Linas Rivera (Suchiapan)", "lat": 19.571403, "lng": -96.954047
},{
"label": "El Águila Real", "lat": 19.578968, "lng": -96.943532
},{
"label": "La Arboleda", "lat": 19.578867, "lng": -96.913947
},{
"label": "La Haciendita", "lat": 19.573258, "lng": -96.90503
},{
"label": "Rafael Caballero", "lat": 19.58437, "lng": -96.954055
}]