[{
"label": "San José", "lat": 20.890383, "lng": -98.218325
},{
"label": "El Ojital", "lat": 20.844128, "lng": -98.172003
},{
"label": "El Manantial", "lat": 20.781918, "lng": -98.209203
},{
"label": "Tlamaya", "lat": 20.785324, "lng": -98.194874
},{
"label": "Ixtacahuayo", "lat": 20.76521, "lng": -98.193887
},{
"label": "Ahuapilol", "lat": 20.899439, "lng": -98.241477
},{
"label": "Pilpuerta", "lat": 20.780811, "lng": -98.118239
},{
"label": "Ahuatitla", "lat": 20.747388, "lng": -98.201048
},{
"label": "Flores Magón", "lat": 20.89539, "lng": -98.227306
},{
"label": "Atoska", "lat": 20.840702, "lng": -98.258466
},{
"label": "Tepetzintla", "lat": 20.759501, "lng": -98.194234
},{
"label": "Xochioloco", "lat": 20.85777, "lng": -98.236839
},{
"label": "Xiloxochico", "lat": 20.782379, "lng": -98.206655
},{
"label": "Hueycuatitla", "lat": 20.867805, "lng": -98.175213
},{
"label": "Cuexcontitla", "lat": 20.854268, "lng": -98.202079
},{
"label": "La Curva", "lat": 20.870018, "lng": -98.185771
},{
"label": "Chila", "lat": 20.784475, "lng": -98.182298
},{
"label": "Macuiltonalixco", "lat": 20.842416, "lng": -98.220711
},{
"label": "Tolaco", "lat": 20.821572, "lng": -98.22313
},{
"label": "Coyolpani", "lat": 20.7575, "lng": -98.16778
},{
"label": "Santa Lucía", "lat": 20.865345, "lng": -98.216607
},{
"label": "Doroteo Arango", "lat": 20.888524, "lng": -98.223868
},{
"label": "Tamalcuatzintla", "lat": 20.815687, "lng": -98.172418
},{
"label": "Escuatitla", "lat": 20.756383, "lng": -98.196205
},{
"label": "El Puente", "lat": 20.822504, "lng": -98.173639
},{
"label": "Paltzoquitempa", "lat": 20.801865, "lng": -98.175516
},{
"label": "Poncojtla", "lat": 20.867788, "lng": -98.252384
},{
"label": "El Chote", "lat": 20.891285, "lng": -98.213669
},{
"label": "Tlatosca", "lat": 20.809363, "lng": -98.151578
},{
"label": "Tlachiquith", "lat": 20.831233, "lng": -98.15817
},{
"label": "Huiloapa", "lat": 20.875376, "lng": -98.248691
},{
"label": "Otlayo", "lat": 20.752921, "lng": -98.197511
},{
"label": "El Crucero", "lat": 20.774728, "lng": -98.197964
},{
"label": "Palma Real", "lat": 20.806264, "lng": -98.135386
},{
"label": "Patlahapa", "lat": 20.773218, "lng": -98.200231
},{
"label": "Acoyotla", "lat": 20.79, "lng": -98.20556
},{
"label": "Calaco", "lat": 20.88596, "lng": -98.185543
},{
"label": "Cececapa", "lat": 20.832816, "lng": -98.179983
},{
"label": "Ejido Coachumo", "lat": 20.869364, "lng": -98.219188
},{
"label": "Atlamáxatl", "lat": 20.74139, "lng": -98.19667
},{
"label": "Coyoltzintla (Amolo)", "lat": 20.74222, "lng": -98.17333
},{
"label": "Ojital", "lat": 20.884439, "lng": -98.195069
},{
"label": "Tlazolajco", "lat": 20.848471, "lng": -98.254358
},{
"label": "Tlaltzintla", "lat": 20.768815, "lng": -98.197293
},{
"label": "Otlamalácatl", "lat": 20.833233, "lng": -98.223529
},{
"label": "Otlatempa", "lat": 20.809534, "lng": -98.179997
},{
"label": "Amecatipa", "lat": 20.770447, "lng": -98.100584
},{
"label": "Colonia Independencia (Los Humildes)", "lat": 20.890983, "lng": -98.207186
},{
"label": "Chichilzóquitl", "lat": 20.79455, "lng": -98.183757
},{
"label": "La Reforma", "lat": 20.816127, "lng": -98.14645
},{
"label": "Huexoco", "lat": 20.815431, "lng": -98.179483
},{
"label": "El Estero Chico", "lat": 20.785959, "lng": -98.232726
},{
"label": "Atlalco", "lat": 20.774919, "lng": -98.108294
},{
"label": "Tlatlapango Grande", "lat": 20.827158, "lng": -98.15531
},{
"label": "Tlalcuapa", "lat": 20.860615, "lng": -98.231741
},{
"label": "Tolico Quirasco", "lat": 20.766324, "lng": -98.125859
},{
"label": "La Lima", "lat": 20.878346, "lng": -98.201943
},{
"label": "Tolico de Zapata", "lat": 20.766457, "lng": -98.129015
},{
"label": "El Tamarindo", "lat": 20.791228, "lng": -98.232536
},{
"label": "El Ojite", "lat": 20.76361, "lng": -98.16833
},{
"label": "Azoquitipa", "lat": 20.779823, "lng": -98.199684
},{
"label": "Pahuatitla", "lat": 20.890628, "lng": -98.250181
},{
"label": "La Vega", "lat": 20.877863, "lng": -98.195356
},{
"label": "Tlatlapango Chico", "lat": 20.837137, "lng": -98.161397
},{
"label": "Acxitla", "lat": 20.856762, "lng": -98.231039
},{
"label": "El Terrero", "lat": 20.883998, "lng": -98.235817
},{
"label": "Tzicatipa", "lat": 20.820067, "lng": -98.218833
},{
"label": "Coyoltlaltzintla (Tlacomol)", "lat": 20.750429, "lng": -98.184758
},{
"label": "Bellavista", "lat": 20.890202, "lng": -98.213181
},{
"label": "Copalcuatitla", "lat": 20.823097, "lng": -98.202927
},{
"label": "Tlalmaya", "lat": 20.786582, "lng": -98.142954
},{
"label": "El Nogal (Hueyáhuatl)", "lat": 20.771544, "lng": -98.195727
},{
"label": "Benito Juárez", "lat": 20.886561, "lng": -98.205445
},{
"label": "La Revancha", "lat": 20.801187, "lng": -98.196961
},{
"label": "Tenantitla", "lat": 20.771087, "lng": -98.143808
},{
"label": "Tlajcocuatitla", "lat": 20.7912, "lng": -98.213609
},{
"label": "El Paraje", "lat": 20.837013, "lng": -98.168896
},{
"label": "Primo Verdad (San Miguel)", "lat": 20.821978, "lng": -98.214887
},{
"label": "Yupiltitla", "lat": 20.842589, "lng": -98.253593
},{
"label": "Rancho Nuevo", "lat": 20.761158, "lng": -98.194858
},{
"label": "Coachumo Común", "lat": 20.867258, "lng": -98.221155
},{
"label": "Tecacahuaco", "lat": 20.78472, "lng": -98.21444
}]