[{
"label": "Palo Gacho", "lat": 19.111072, "lng": -97.196133
},{
"label": "Cruz Verde", "lat": 19.138047, "lng": -97.108135
},{
"label": "Calcahualco", "lat": 19.122291, "lng": -97.085264
},{
"label": "La Mesa de Atotonilco", "lat": 19.148979, "lng": -97.184169
},{
"label": "Barranca de Jamapa", "lat": 19.148238, "lng": -97.147194
},{
"label": "Ahuihuixtla", "lat": 19.132277, "lng": -97.057273
},{
"label": "Nueva Vaquería", "lat": 19.093833, "lng": -97.211788
},{
"label": "Itzapa", "lat": 19.155658, "lng": -97.157353
},{
"label": "Tecpanquiahuac", "lat": 19.138363, "lng": -97.134855
},{
"label": "San José Xiteco", "lat": 19.158326, "lng": -97.112307
},{
"label": "Xamatícpac", "lat": 19.135571, "lng": -97.078784
},{
"label": "El Mirador", "lat": 19.157331, "lng": -97.071559
},{
"label": "Luis Rodríguez García", "lat": 19.15222, "lng": -97.16111
},{
"label": "Las Cabañas de Nueva Vaquería", "lat": 19.097887, "lng": -97.21689
},{
"label": "Tres de Mayo", "lat": 19.132792, "lng": -97.131408
},{
"label": "San Miguel Xiteco", "lat": 19.148604, "lng": -97.113816
},{
"label": "San Isidro", "lat": 19.129288, "lng": -97.097563
},{
"label": "Buena Vista", "lat": 19.153187, "lng": -97.068791
},{
"label": "Atotonilco", "lat": 19.148671, "lng": -97.189435
},{
"label": "Ahuatepec", "lat": 19.136262, "lng": -97.09116
},{
"label": "Totozinapa", "lat": 19.126479, "lng": -97.166147
},{
"label": "San José Xamatícpac", "lat": 19.14392, "lng": -97.082644
},{
"label": "Tecuanapa", "lat": 19.116619, "lng": -97.17104
},{
"label": "El Terrero", "lat": 19.13314, "lng": -97.102569
},{
"label": "Xilomichi", "lat": 19.133379, "lng": -97.140364
},{
"label": "Tepetlapa (San Antonio Tepetlapa)", "lat": 19.121888, "lng": -97.193854
},{
"label": "Maquixtla", "lat": 19.137225, "lng": -97.141721
},{
"label": "Teopantitla", "lat": 19.149642, "lng": -97.172201
},{
"label": "San Francisco", "lat": 19.154971, "lng": -97.139854
},{
"label": "San Miguel Tlacotiopa", "lat": 19.111661, "lng": -97.204941
},{
"label": "Dos Caminos", "lat": 19.119206, "lng": -97.177785
},{
"label": "Acomulco", "lat": 19.142329, "lng": -97.144373
},{
"label": "Nuevo Jacal", "lat": 19.111945, "lng": -97.222687
},{
"label": "Chichinaxco", "lat": 19.146201, "lng": -97.145912
},{
"label": "Maquilixhuatla", "lat": 19.150905, "lng": -97.159895
},{
"label": "Acatícpac", "lat": 19.147294, "lng": -97.098898
},{
"label": "Atola", "lat": 19.141283, "lng": -97.128205
},{
"label": "Excola", "lat": 19.139445, "lng": -97.120276
},{
"label": "El Rincón de Atotonilco", "lat": 19.151059, "lng": -97.198904
}]