[{
"label": "Valle Esmeralda", "lat": 21.155457, "lng": -97.760511
},{
"label": "Juan Felipe", "lat": 21.155517, "lng": -97.767855
},{
"label": "Huasteca [Gas]", "lat": 21.156882, "lng": -97.757043
},{
"label": "La Loma Bonita", "lat": 21.194106, "lng": -97.824947
},{
"label": "Finca Pacheco", "lat": 21.163966, "lng": -97.738459
},{
"label": "El Calvario", "lat": 21.156253, "lng": -97.751606
},{
"label": "Zoilita", "lat": 21.222166, "lng": -97.766846
},{
"label": "Cuartel", "lat": 21.162448, "lng": -97.754112
},{
"label": "Hugo Segura", "lat": 21.138603, "lng": -97.75139
},{
"label": "San Benito", "lat": 21.179852, "lng": -97.755588
},{
"label": "El Mirador", "lat": 21.200757, "lng": -97.752974
},{
"label": "El Rastro", "lat": 21.174638, "lng": -97.729537
},{
"label": "Cerro Azul Viejo", "lat": 21.197816, "lng": -97.713329
},{
"label": "Tamalinillo", "lat": 21.221087, "lng": -97.794792
},{
"label": "Pedro Rendón", "lat": 21.141594, "lng": -97.753253
},{
"label": "El Moralillo", "lat": 21.185955, "lng": -97.812349
},{
"label": "El Corralito", "lat": 21.178948, "lng": -97.778558
},{
"label": "La Pedrera (La Quebradora)", "lat": 21.138858, "lng": -97.760561
},{
"label": "La Adelaida", "lat": 21.155095, "lng": -97.74456
},{
"label": "Ampliación el Mirador", "lat": 21.204336, "lng": -97.748096
},{
"label": "Presa Moralillo", "lat": 21.178817, "lng": -97.797315
},{
"label": "Colonia Cardenista Antonio Luna Andrade", "lat": 21.189552, "lng": -97.758415
},{
"label": "La Herradura", "lat": 21.193359, "lng": -97.761956
},{
"label": "Fraccionamiento el Sacrificio", "lat": 21.159777, "lng": -97.756624
},{
"label": "Condado Western", "lat": 21.138514, "lng": -97.752482
},{
"label": "Ejido Xilitla", "lat": 21.205526, "lng": -97.820767
},{
"label": "Bateria Moralillo", "lat": 21.191204, "lng": -97.81639
},{
"label": "El Girasol", "lat": 21.220556, "lng": -97.76056
},{
"label": "Santa Victoria", "lat": 21.159468, "lng": -97.770672
},{
"label": "Ampliación Benito Juárez", "lat": 21.190921, "lng": -97.756193
},{
"label": "Santiago Cárdenas", "lat": 21.213352, "lng": -97.829404
},{
"label": "Colonia Clouthier", "lat": 21.191156, "lng": -97.765361
},{
"label": "Rancho Huilotitla", "lat": 21.227546, "lng": -97.827143
},{
"label": "Las Borrachas", "lat": 21.150175, "lng": -97.748027
},{
"label": "Rancho la Campechana (San Carlos)", "lat": 21.209976, "lng": -97.824721
},{
"label": "Finca Divino Niño", "lat": 21.139214, "lng": -97.752974
},{
"label": "La Tumbaga (La Joya)", "lat": 21.190697, "lng": -97.780702
},{
"label": "Lázaro Cárdenas", "lat": 21.211429, "lng": -97.750287
},{
"label": "El Carril", "lat": 21.166915, "lng": -97.772482
},{
"label": "Las Frutas", "lat": 21.206876, "lng": -97.749236
},{
"label": "Los Alacranes", "lat": 21.170032, "lng": -97.748415
},{
"label": "Axoquitla", "lat": 21.182651, "lng": -97.834662
},{
"label": "Juan Felipe [Estación de Bombas]", "lat": 21.138299, "lng": -97.763331
},{
"label": "Carlos Obeles Benavides", "lat": 21.133638, "lng": -97.747762
},{
"label": "El Urbalejo", "lat": 21.190547, "lng": -97.77833
},{
"label": "San Marino (El Chapoteadero)", "lat": 21.139765, "lng": -97.752116
},{
"label": "Los Otates", "lat": 21.162378, "lng": -97.708553
},{
"label": "Cerro Azul", "lat": 21.191467, "lng": -97.742319
},{
"label": "Los Laureles", "lat": 21.181021, "lng": -97.785867
},{
"label": "El Corzo", "lat": 21.192139, "lng": -97.762203
},{
"label": "El Principado", "lat": 21.157423, "lng": -97.758249
},{
"label": "Piedra Labrada", "lat": 21.192115, "lng": -97.792756
},{
"label": "Buenos Aires", "lat": 21.185378, "lng": -97.726073
},{
"label": "Colonia la Puerta [Sub-Estación Eléctrica]", "lat": 21.174414, "lng": -97.756582
},{
"label": "Don Adrián", "lat": 21.161987, "lng": -97.758294
},{
"label": "Los Milagros", "lat": 21.145057, "lng": -97.747482
},{
"label": "La Campechana", "lat": 21.21154, "lng": -97.823935
},{
"label": "San Juan", "lat": 21.170227, "lng": -97.754441
},{
"label": "La Puerta", "lat": 21.17485, "lng": -97.74894
},{
"label": "Colonia Morelos (El Veinticinco)", "lat": 21.165304, "lng": -97.736137
},{
"label": "El Chaparral", "lat": 21.139999, "lng": -97.750523
},{
"label": "San Carlos (Guardaganado)", "lat": 21.194318, "lng": -97.818982
},{
"label": "La Guadalupana", "lat": 21.191384, "lng": -97.759755
},{
"label": "Santa Rosa (Santa Mercedes)", "lat": 21.192058, "lng": -97.776476
},{
"label": "Gustavo Cobos", "lat": 21.163832, "lng": -97.776116
},{
"label": "La Chirris", "lat": 21.191037, "lng": -97.785359
},{
"label": "El Pujido", "lat": 21.200053, "lng": -97.831326
},{
"label": "Los Almendros", "lat": 21.190969, "lng": -97.776843
},{
"label": "Ampliación Lomas Verdes", "lat": 21.206197, "lng": -97.746181
},{
"label": "El Ingenio", "lat": 21.198794, "lng": -97.835591
}]