[{
"label": "El Carmen", "lat": 18.30292, "lng": -95.800253
},{
"label": "La Gloria", "lat": 18.276236, "lng": -95.864547
},{
"label": "La Asunción", "lat": 18.164596, "lng": -95.776283
},{
"label": "Hermanos Blanco", "lat": 18.11539, "lng": -95.820817
},{
"label": "El Chamizal", "lat": 18.297811, "lng": -95.840514
},{
"label": "Las Mesas", "lat": 18.196592, "lng": -95.722169
},{
"label": "Santa Martha", "lat": 18.31304, "lng": -95.83261
},{
"label": "Dos Hermanos", "lat": 18.176516, "lng": -95.808787
},{
"label": "San José (Los Remedios)", "lat": 18.274061, "lng": -95.810398
},{
"label": "San Lorenzo", "lat": 18.295443, "lng": -95.815038
},{
"label": "La Cerquilla", "lat": 18.279389, "lng": -95.818336
},{
"label": "Islita (Isleta)", "lat": 18.311601, "lng": -95.844808
},{
"label": "Chacaltianguis", "lat": 18.305336, "lng": -95.84139
},{
"label": "La Bezana", "lat": 18.198737, "lng": -95.797673
},{
"label": "San Bernardo", "lat": 18.157266, "lng": -95.753645
},{
"label": "Nuevo Horizonte", "lat": 18.200728, "lng": -95.80813
},{
"label": "El Sardinel", "lat": 18.30779, "lng": -95.832968
},{
"label": "Ampliación de Chacaltianguis", "lat": 18.221691, "lng": -95.800791
},{
"label": "Mario Torres Cruz", "lat": 18.289618, "lng": -95.815843
},{
"label": "San Pedro de la Palma", "lat": 18.250746, "lng": -95.827928
},{
"label": "La Guinea", "lat": 18.161319, "lng": -95.848162
},{
"label": "El Aromal", "lat": 18.316629, "lng": -95.834295
},{
"label": "Rancho la Carmelita (Nuevo Progreso)", "lat": 18.15083, "lng": -95.84583
},{
"label": "Mata de Caña", "lat": 18.213498, "lng": -95.838103
},{
"label": "Desviación de Sabanetas", "lat": 18.093702, "lng": -95.816369
},{
"label": "Moisés Torres Cruz", "lat": 18.287526, "lng": -95.817614
},{
"label": "Santa Juliana (Miramontes)", "lat": 18.188004, "lng": -95.822831
},{
"label": "Isabel Bonola", "lat": 18.272818, "lng": -95.850238
},{
"label": "Gróforo Armas Peña", "lat": 18.161151, "lng": -95.810003
},{
"label": "Finca del Carmen", "lat": 18.315591, "lng": -95.822794
},{
"label": "El Encino", "lat": 18.146685, "lng": -95.7822
},{
"label": "San Antonio", "lat": 18.215733, "lng": -95.774379
},{
"label": "Carolino Anaya", "lat": 18.156436, "lng": -95.793757
},{
"label": "El Espinal", "lat": 18.226512, "lng": -95.752403
},{
"label": "Laguna de Lagarto", "lat": 18.217411, "lng": -95.750834
},{
"label": "Palo Alto", "lat": 18.179178, "lng": -95.765737
},{
"label": "Tres Picos", "lat": 18.160302, "lng": -95.778067
},{
"label": "La Sabaneta", "lat": 18.233732, "lng": -95.754435
},{
"label": "La Mata de San Pedro", "lat": 18.198928, "lng": -95.794244
},{
"label": "Cañada del Carrizal (El Encanto)", "lat": 18.253419, "lng": -95.834911
},{
"label": "El Cedral", "lat": 18.314771, "lng": -95.810451
},{
"label": "Moyota", "lat": 18.253696, "lng": -95.904517
},{
"label": "Los Carrera", "lat": 18.156556, "lng": -95.841059
},{
"label": "Soyapa", "lat": 18.3091, "lng": -95.817522
},{
"label": "Agua Salada", "lat": 18.188211, "lng": -95.788833
},{
"label": "Jolote", "lat": 18.268265, "lng": -95.77797
},{
"label": "San Pablo (Campo de Tiro)", "lat": 18.315087, "lng": -95.820891
},{
"label": "Paso el Moral", "lat": 18.302329, "lng": -95.813076
},{
"label": "San Miguel", "lat": 18.313509, "lng": -95.789609
},{
"label": "Paso del Cura", "lat": 18.226688, "lng": -95.803098
},{
"label": "Arroyo del Soldado (Arroyo del Obispo)", "lat": 18.316568, "lng": -95.778304
},{
"label": "Anselma Tioret", "lat": 18.098621, "lng": -95.816219
},{
"label": "Rancho Pita", "lat": 18.104575, "lng": -95.816539
},{
"label": "El Mayor", "lat": 18.17458, "lng": -95.765988
},{
"label": "El Cerro", "lat": 18.305779, "lng": -95.82095
},{
"label": "La Vuelta de Tinaja", "lat": 18.302047, "lng": -95.806245
},{
"label": "San Sebastián", "lat": 18.295382, "lng": -95.841363
},{
"label": "Joachín", "lat": 18.258534, "lng": -95.789261
},{
"label": "Paso de las Carretas", "lat": 18.187859, "lng": -95.808835
},{
"label": "La Guadalupe", "lat": 18.315723, "lng": -95.824339
},{
"label": "Teodoro Torres Peña", "lat": 18.314434, "lng": -95.829224
},{
"label": "El Nacaste", "lat": 18.175201, "lng": -95.777
},{
"label": "Roberto Hernández Guerra", "lat": 18.192487, "lng": -95.818957
},{
"label": "El Zapote", "lat": 18.158187, "lng": -95.745471
},{
"label": "Balmoral", "lat": 18.309554, "lng": -95.836109
},{
"label": "El Jobito", "lat": 18.190537, "lng": -95.805175
},{
"label": "Veinte de Noviembre [Agrícola]", "lat": 18.33207, "lng": -95.836431
},{
"label": "Pepeapa", "lat": 18.258992, "lng": -95.861609
},{
"label": "Hermanos Rodríguez", "lat": 18.179926, "lng": -95.823392
},{
"label": "Cerro Varilla", "lat": 18.331222, "lng": -95.792529
},{
"label": "Miramontes", "lat": 18.236146, "lng": -95.818028
},{
"label": "Vista Hermosa", "lat": 18.168895, "lng": -95.759456
},{
"label": "San Matías", "lat": 18.141515, "lng": -95.828502
},{
"label": "San Pablo", "lat": 18.094385, "lng": -95.825027
},{
"label": "Paso de Palmas", "lat": 18.248997, "lng": -95.817687
},{
"label": "Torno Largo", "lat": 18.271767, "lng": -95.894577
},{
"label": "Soledad San Pedro", "lat": 18.205346, "lng": -95.801154
},{
"label": "Paso la Lucha", "lat": 18.318999, "lng": -95.840309
},{
"label": "Arroyo Negro", "lat": 18.277836, "lng": -95.815421
},{
"label": "La Torre", "lat": 18.100591, "lng": -95.819891
},{
"label": "El Tejuate", "lat": 18.232146, "lng": -95.788167
},{
"label": "El Mango", "lat": 18.146698, "lng": -95.831604
},{
"label": "Las Sabanetas", "lat": 18.126163, "lng": -95.822881
},{
"label": "El Chaparral", "lat": 18.182181, "lng": -95.819067
},{
"label": "Arroyo Claro", "lat": 18.15192, "lng": -95.808976
},{
"label": "Palmichal", "lat": 18.267102, "lng": -95.76141
},{
"label": "El Sandial", "lat": 18.151487, "lng": -95.830596
},{
"label": "La Luz", "lat": 18.293819, "lng": -95.844521
},{
"label": "La Lira", "lat": 18.25446, "lng": -95.809266
},{
"label": "La Atalaya", "lat": 18.166945, "lng": -95.809384
},{
"label": "Tío Campo", "lat": 18.283136, "lng": -95.790614
},{
"label": "Loma del Carmen", "lat": 18.217271, "lng": -95.804989
},{
"label": "Loma de las Negras", "lat": 18.196421, "lng": -95.824173
},{
"label": "Ex-Hacienda de Uluapan", "lat": 18.171951, "lng": -95.800809
},{
"label": "El Encanto", "lat": 18.255127, "lng": -95.846567
},{
"label": "Laguna del Burro", "lat": 18.242976, "lng": -95.789501
},{
"label": "Rancho la Pasadita (De la Muerte)", "lat": 18.29056, "lng": -95.79056
}]