[{
"label": "El Cerrito (Barrio de Guadalupe)", "lat": 19.013811, "lng": -97.038904
},{
"label": "Tepexilotla", "lat": 18.982639, "lng": -97.087876
},{
"label": "Rincón Pintor", "lat": 18.996227, "lng": -97.058531
},{
"label": "San José Neria", "lat": 18.99482, "lng": -97.0002
},{
"label": "La Hermita", "lat": 18.997138, "lng": -97.02161
},{
"label": "El Cerrito (Toyapa)", "lat": 19.00702, "lng": -97.04218
},{
"label": "El Zempalehua", "lat": 18.993037, "lng": -97.089017
},{
"label": "La Flor del Llano (Rosa Mística)", "lat": 19.017445, "lng": -97.025737
},{
"label": "Cruz Blanca", "lat": 19.023887, "lng": -97.028909
},{
"label": "Xonotzintla (El Chinene)", "lat": 18.973759, "lng": -97.032745
},{
"label": "Carrizal", "lat": 18.976317, "lng": -97.083949
},{
"label": "Chocamán", "lat": 19.010871, "lng": -97.033238
},{
"label": "El Vainillo", "lat": 19.014113, "lng": -97.017749
},{
"label": "Tetla", "lat": 18.987948, "lng": -97.060707
},{
"label": "La Parada de Neria (Parada la Palma)", "lat": 18.975934, "lng": -97.018819
},{
"label": "Xonotzintla", "lat": 18.999311, "lng": -97.041817
},{
"label": "La Joya", "lat": 18.982511, "lng": -97.071117
},{
"label": "La Cantera (Analco)", "lat": 19.005926, "lng": -97.036326
},{
"label": "Calaquioco", "lat": 19.030203, "lng": -97.035036
},{
"label": "El Jonote", "lat": 18.985304, "lng": -97.018437
},{
"label": "Tepepixco", "lat": 18.986764, "lng": -97.069414
}]