[{
"label": "Chumatlán", "lat": 20.207533, "lng": -97.594636
},{
"label": "Colonia la Vega", "lat": 20.231987, "lng": -97.577081
},{
"label": "El Zapote", "lat": 20.213693, "lng": -97.585372
},{
"label": "Lázaro Cárdenas (Santana)", "lat": 20.225, "lng": -97.59306
},{
"label": "Las Letras", "lat": 20.20068, "lng": -97.596959
},{
"label": "La Vega", "lat": 20.234422, "lng": -97.573141
},{
"label": "Miguel Vega", "lat": 20.226179, "lng": -97.579364
}]