[{
"label": "La Palma", "lat": 19.642691, "lng": -96.941374
},{
"label": "Las Coles", "lat": 19.703357, "lng": -96.960811
},{
"label": "La Ventana", "lat": 19.712736, "lng": -96.961074
},{
"label": "Paxtepec", "lat": 19.648118, "lng": -96.925286
},{
"label": "Coacoatzintla", "lat": 19.653106, "lng": -96.945141
},{
"label": "Cumbres del Ciprés", "lat": 19.687327, "lng": -96.951483
},{
"label": "La Librería", "lat": 19.659907, "lng": -96.957169
},{
"label": "Chapultepec", "lat": 19.678193, "lng": -96.940948
},{
"label": "Casa Blanca", "lat": 19.657144, "lng": -96.922002
},{
"label": "Pueblo Viejo", "lat": 19.672988, "lng": -96.967468
},{
"label": "Rancho el Chirimoyo", "lat": 19.660358, "lng": -96.949955
},{
"label": "Colonia San Miguel", "lat": 19.661925, "lng": -96.946816
},{
"label": "Los Planes (Cerro Gordo)", "lat": 19.663845, "lng": -96.925492
},{
"label": "Chayotepec", "lat": 19.653348, "lng": -96.959678
},{
"label": "Metlapiles", "lat": 19.709102, "lng": -96.953819
},{
"label": "El Aguacate", "lat": 19.713358, "lng": -96.972878
},{
"label": "Río de Amoles", "lat": 19.665838, "lng": -96.940181
},{
"label": "Rincón de Chapultepec", "lat": 19.69549, "lng": -96.935303
},{
"label": "Tlachinola", "lat": 19.646276, "lng": -96.956225
},{
"label": "Molcatlán", "lat": 19.679251, "lng": -96.934024
},{
"label": "La Magdalena", "lat": 19.723644, "lng": -96.984812
},{
"label": "Aguacate", "lat": 19.640373, "lng": -96.94987
},{
"label": "Rancho Nuevo", "lat": 19.686772, "lng": -96.940349
}]