[{
"label": "Coetzala", "lat": 18.785636, "lng": -96.916692
},{
"label": "Cuesta de San Pedro", "lat": 18.774608, "lng": -96.925571
},{
"label": "Puente Viejo", "lat": 18.786125, "lng": -96.911291
},{
"label": "Coetzapotitla", "lat": 18.75891, "lng": -96.931616
},{
"label": "Mirador de San Antonio", "lat": 18.76444, "lng": -96.93333
}]