[{
"label": "Diecisiete de Enero", "lat": 18.760576, "lng": -96.775802
},{
"label": "Siete de Enero", "lat": 18.757855, "lng": -96.770826
},{
"label": "Las Palmas", "lat": 18.766591, "lng": -96.776331
},{
"label": "Emiliano Zapata", "lat": 18.757309, "lng": -96.784508
},{
"label": "Los Ángeles", "lat": 18.752899, "lng": -96.782216
},{
"label": "Rancho Filmar", "lat": 18.780158, "lng": -96.871589
},{
"label": "Cobos García (San Nicolás)", "lat": 18.786917, "lng": -96.895275
},{
"label": "El Puente", "lat": 18.750603, "lng": -96.792099
},{
"label": "El Zapote", "lat": 18.759096, "lng": -96.76256
},{
"label": "La Manzana", "lat": 18.771258, "lng": -96.873622
},{
"label": "La Esperanza", "lat": 18.751436, "lng": -96.784644
},{
"label": "Barrio Guadalupe", "lat": 18.788078, "lng": -96.875079
},{
"label": "Colonia Cinco de Mayo", "lat": 18.751495, "lng": -96.786423
},{
"label": "Cuichapa", "lat": 18.77351, "lng": -96.869224
},{
"label": "Toluquilla Buena Vista", "lat": 18.747772, "lng": -96.743611
},{
"label": "La Aguja", "lat": 18.776455, "lng": -96.877661
},{
"label": "El Refugio", "lat": 18.766276, "lng": -96.858181
},{
"label": "La Laja", "lat": 18.762078, "lng": -96.804897
},{
"label": "Francisco I. Madero", "lat": 18.752565, "lng": -96.789085
},{
"label": "Dos Caminos", "lat": 18.770739, "lng": -96.85281
},{
"label": "Loma del Carmen", "lat": 18.789661, "lng": -96.891528
},{
"label": "Providencia", "lat": 18.753855, "lng": -96.77186
},{
"label": "Ejido la Laja", "lat": 18.755731, "lng": -96.787649
},{
"label": "Los Pinos", "lat": 18.75416, "lng": -96.788516
},{
"label": "Santa Inés", "lat": 18.755899, "lng": -96.791392
}]