[{
"label": "El Manantial", "lat": 18.814536, "lng": -96.750023
},{
"label": "Piedra Móvil", "lat": 18.752342, "lng": -96.609736
},{
"label": "San Felipe", "lat": 18.761463, "lng": -96.479035
},{
"label": "Plan de Ayala", "lat": 18.812661, "lng": -96.737183
},{
"label": "El Dorado", "lat": 18.804051, "lng": -96.723944
},{
"label": "Rincón Zapote", "lat": 18.751151, "lng": -96.719115
},{
"label": "División del Norte (Santa Rosa)", "lat": 18.829456, "lng": -96.727641
},{
"label": "El Gavilán", "lat": 18.74473, "lng": -96.557469
},{
"label": "La Gloria", "lat": 18.746973, "lng": -96.598622
},{
"label": "Santo Tomás", "lat": 18.807286, "lng": -96.708347
},{
"label": "Río Seco", "lat": 18.820124, "lng": -96.706913
},{
"label": "Rancho Zapata", "lat": 18.800541, "lng": -96.720181
},{
"label": "Ejido Cuitláhuac (Ejido el Centro)", "lat": 18.837213, "lng": -96.694472
},{
"label": "La Curva", "lat": 18.795985, "lng": -96.705364
},{
"label": "Kilómetro Veintisiete (Dos Caminos Cuitlahuac)", "lat": 18.80127, "lng": -96.707646
},{
"label": "El Faisán", "lat": 18.749862, "lng": -96.529457
},{
"label": "Rancho Totonacapan", "lat": 18.757762, "lng": -96.477954
},{
"label": "El Trópico", "lat": 18.755772, "lng": -96.665143
},{
"label": "Ignacio Vallarta Norte", "lat": 18.793644, "lng": -96.774864
},{
"label": "Mata Verde (Bella Vista)", "lat": 18.78475, "lng": -96.713509
},{
"label": "Copalillo", "lat": 18.762924, "lng": -96.493072
},{
"label": "La Granja", "lat": 18.793251, "lng": -96.74557
},{
"label": "Buena Vista", "lat": 18.791113, "lng": -96.708271
},{
"label": "El Coyol", "lat": 18.772276, "lng": -96.700011
},{
"label": "El Jarocho", "lat": 18.744334, "lng": -96.615721
},{
"label": "Macedonio Mendoza", "lat": 18.752356, "lng": -96.714852
},{
"label": "Wenceslao Victoria Soto", "lat": 18.810965, "lng": -96.755588
},{
"label": "Playa Cariño", "lat": 18.750636, "lng": -96.518885
},{
"label": "La Higuera", "lat": 18.757487, "lng": -96.662593
},{
"label": "La Pochota", "lat": 18.827994, "lng": -96.721963
},{
"label": "Tenchipe", "lat": 18.79994, "lng": -96.714942
},{
"label": "Comején", "lat": 18.741833, "lng": -96.567239
},{
"label": "El Crucero", "lat": 18.806581, "lng": -96.704075
},{
"label": "La Pitahaya (La Luz)", "lat": 18.769441, "lng": -96.691168
},{
"label": "San Antonio [Granja Avícola]", "lat": 18.752264, "lng": -96.650679
},{
"label": "Los Pinos", "lat": 18.771198, "lng": -96.480171
},{
"label": "Rancho Minerva", "lat": 18.741412, "lng": -96.560602
},{
"label": "Ampliación Mata Naranjo", "lat": 18.80402, "lng": -96.72549
},{
"label": "Agua Escondida", "lat": 18.743773, "lng": -96.575463
},{
"label": "Juventina Flores García", "lat": 18.826281, "lng": -96.718671
},{
"label": "San Simón", "lat": 18.783308, "lng": -96.695388
},{
"label": "Caruza Bella", "lat": 18.757219, "lng": -96.608332
},{
"label": "San José de Abajo", "lat": 18.776257, "lng": -96.777469
},{
"label": "Ampliación Manantial", "lat": 18.837582, "lng": -96.703131
},{
"label": "La Panelera", "lat": 18.825718, "lng": -96.725715
},{
"label": "San Juan de la Punta", "lat": 18.820249, "lng": -96.713384
},{
"label": "El Encinal", "lat": 18.789158, "lng": -96.754155
},{
"label": "Valparaíso", "lat": 18.74394, "lng": -96.56724
},{
"label": "Tres Encinos", "lat": 18.745763, "lng": -96.625
},{
"label": "Trapiche Meza", "lat": 18.814947, "lng": -96.70881
},{
"label": "Puente Chico", "lat": 18.844511, "lng": -96.707737
},{
"label": "Pitic", "lat": 18.756435, "lng": -96.660611
},{
"label": "Mata de Caña", "lat": 18.791417, "lng": -96.700273
},{
"label": "San Francisco (Mata Clara)", "lat": 18.814115, "lng": -96.747054
},{
"label": "Puente Quebrado", "lat": 18.755854, "lng": -96.742734
},{
"label": "Mata Naranjo (El Nanche)", "lat": 18.777527, "lng": -96.714717
},{
"label": "Chema Morales", "lat": 18.757459, "lng": -96.73713
},{
"label": "Ampliación Dos Caminos", "lat": 18.794504, "lng": -96.694621
},{
"label": "Buenos Aires", "lat": 18.800413, "lng": -96.703004
},{
"label": "San Ángel", "lat": 18.818076, "lng": -96.751771
},{
"label": "El Tamarindo", "lat": 18.809919, "lng": -96.737701
},{
"label": "El Cuajilote", "lat": 18.751662, "lng": -96.705717
},{
"label": "La Quebradora", "lat": 18.748305, "lng": -96.638719
},{
"label": "Cerro Alto (El Reventón)", "lat": 18.756201, "lng": -96.505166
},{
"label": "La Loma", "lat": 18.801548, "lng": -96.702643
},{
"label": "Rancho Castillo", "lat": 18.745299, "lng": -96.573231
},{
"label": "El Trébol de Copalillo", "lat": 18.76021, "lng": -96.499166
},{
"label": "Fraccionamiento San Francisco", "lat": 18.805311, "lng": -96.718492
},{
"label": "El Mango de Don Bartolo", "lat": 18.761429, "lng": -96.674628
},{
"label": "La Represa", "lat": 18.791631, "lng": -96.732961
},{
"label": "El Maguey", "lat": 18.833039, "lng": -96.734239
},{
"label": "San Rafael", "lat": 18.750503, "lng": -96.647713
},{
"label": "El Francés", "lat": 18.816431, "lng": -96.705364
},{
"label": "Cuitláhuac", "lat": 18.814539, "lng": -96.722323
},{
"label": "Piedra Gorda", "lat": 18.753041, "lng": -96.690648
},{
"label": "San Bernardo (Mata Pescador)", "lat": 18.750484, "lng": -96.539178
},{
"label": "Sicomoro", "lat": 18.737925, "lng": -96.554426
},{
"label": "El Relámpago", "lat": 18.751566, "lng": -96.652399
},{
"label": "San José (Piedras Negras)", "lat": 18.749433, "lng": -96.633161
},{
"label": "Las Nueces", "lat": 18.75135, "lng": -96.630178
},{
"label": "Ignacio Vallarta Sur", "lat": 18.790894, "lng": -96.777284
},{
"label": "Dos Caminos", "lat": 18.787904, "lng": -96.694142
},{
"label": "Anexo Dos Caminos (La Primavera)", "lat": 18.758307, "lng": -96.677488
},{
"label": "El Júcaro", "lat": 18.748054, "lng": -96.630996
},{
"label": "Palma Sola", "lat": 18.746417, "lng": -96.596456
},{
"label": "Sancampus", "lat": 18.76034, "lng": -96.502318
},{
"label": "Chocoatole", "lat": 18.737736, "lng": -96.544921
},{
"label": "La Piedra", "lat": 18.74439, "lng": -96.602507
},{
"label": "Xochipico", "lat": 18.827604, "lng": -96.735771
},{
"label": "La Bloquera", "lat": 18.798656, "lng": -96.709452
},{
"label": "Silviano Osorio", "lat": 18.77372, "lng": -96.703885
},{
"label": "El Polvorón", "lat": 18.820513, "lng": -96.738093
},{
"label": "El Limón", "lat": 18.748706, "lng": -96.547195
}]