[{
"label": "El Rincón", "lat": 20.296829, "lng": -97.426862
},{
"label": "Las Pilas", "lat": 20.256011, "lng": -97.439401
},{
"label": "La Luna", "lat": 20.174897, "lng": -97.489672
},{
"label": "Colonia Guadalupe de Hidalgo", "lat": 20.243213, "lng": -97.476107
},{
"label": "La Laguna", "lat": 20.282277, "lng": -97.437075
},{
"label": "Arenal", "lat": 20.268962, "lng": -97.592472
},{
"label": "El Recuerdo", "lat": 20.277426, "lng": -97.497533
},{
"label": "Zacate Limón", "lat": 20.225459, "lng": -97.52458
},{
"label": "San Leoncio Jamaya", "lat": 20.31284, "lng": -97.578723
},{
"label": "Cuajilotes", "lat": 20.243459, "lng": -97.471095
},{
"label": "La Noria", "lat": 20.274883, "lng": -97.560508
},{
"label": "Odilia Cruz", "lat": 20.33771, "lng": -97.545457
},{
"label": "El Pacífico", "lat": 20.274422, "lng": -97.570732
},{
"label": "El Mirador", "lat": 20.229709, "lng": -97.471993
},{
"label": "Lagos Negros", "lat": 20.270279, "lng": -97.402015
},{
"label": "Poza Larga Zapotal", "lat": 20.326013, "lng": -97.475076
},{
"label": "El Cerro", "lat": 20.277523, "lng": -97.406989
},{
"label": "Buenavista", "lat": 20.296945, "lng": -97.503687
},{
"label": "Arturo Fernández Pérez", "lat": 20.352527, "lng": -97.546287
},{
"label": "El Oriente", "lat": 20.267134, "lng": -97.471754
},{
"label": "Los Ángeles", "lat": 20.258824, "lng": -97.410282
},{
"label": "Colonia Santa Cruz", "lat": 20.303612, "lng": -97.436987
},{
"label": "El Destierro", "lat": 20.275103, "lng": -97.44506
},{
"label": "Cerro de Arena", "lat": 20.279372, "lng": -97.576546
},{
"label": "La Guadalupe", "lat": 20.299183, "lng": -97.427088
},{
"label": "Jamaya", "lat": 20.354411, "lng": -97.559362
},{
"label": "El Zapotal", "lat": 20.317881, "lng": -97.458031
},{
"label": "El Zapote", "lat": 20.273293, "lng": -97.530179
},{
"label": "Santa Catarina", "lat": 20.296399, "lng": -97.480211
},{
"label": "Comalteco", "lat": 20.252362, "lng": -97.473079
},{
"label": "Colonia Mediodía", "lat": 20.282134, "lng": -97.456686
},{
"label": "Garranchos", "lat": 20.230394, "lng": -97.471095
},{
"label": "Francisco Rivera", "lat": 20.323139, "lng": -97.562604
},{
"label": "El Tacusco", "lat": 20.241242, "lng": -97.402963
},{
"label": "Colonia Cuauhtémoc", "lat": 20.221917, "lng": -97.482763
},{
"label": "Santa Teresita", "lat": 20.277226, "lng": -97.518523
},{
"label": "El Peladero", "lat": 20.302834, "lng": -97.414581
},{
"label": "Santa María", "lat": 20.286645, "lng": -97.411815
},{
"label": "Las Lechuguillas", "lat": 20.236858, "lng": -97.470908
},{
"label": "San Pedro Miradores", "lat": 20.190486, "lng": -97.477914
},{
"label": "La Herradura (Pablo Pérez)", "lat": 20.326933, "lng": -97.544071
},{
"label": "Miguel Alemán Valdés", "lat": 20.258308, "lng": -97.452701
},{
"label": "Los Cerritos", "lat": 20.249533, "lng": -97.410889
},{
"label": "El Peñón", "lat": 20.261357, "lng": -97.430234
},{
"label": "Puerto Naranjos", "lat": 20.261074, "lng": -97.460879
},{
"label": "Los Guajes", "lat": 20.277749, "lng": -97.501434
},{
"label": "Ojo de Agua", "lat": 20.269233, "lng": -97.524644
},{
"label": "El Tablón", "lat": 20.252961, "lng": -97.415218
},{
"label": "Rancho Miahuapillan", "lat": 20.329043, "lng": -97.540876
},{
"label": "Armando Salinas", "lat": 20.302345, "lng": -97.438793
},{
"label": "Dos Equis", "lat": 20.320493, "lng": -97.544813
},{
"label": "Santa Domitila", "lat": 20.255906, "lng": -97.428833
},{
"label": "El Maple", "lat": 20.353199, "lng": -97.570891
},{
"label": "Zapote Chico", "lat": 20.318282, "lng": -97.564008
},{
"label": "Cinco de Octubre", "lat": 20.27165, "lng": -97.523777
},{
"label": "Melchor Ocampo", "lat": 20.344236, "lng": -97.534217
},{
"label": "Fidel Guajardo", "lat": 20.243471, "lng": -97.407358
},{
"label": "Oriente Meridiano", "lat": 20.288001, "lng": -97.486577
},{
"label": "Santa Emilia", "lat": 20.207863, "lng": -97.471884
},{
"label": "Oriente Medio Día", "lat": 20.274966, "lng": -97.483355
},{
"label": "El Ermitaño", "lat": 20.207651, "lng": -97.511712
},{
"label": "Lechuguillas", "lat": 20.243737, "lng": -97.480328
},{
"label": "Los Laureles", "lat": 20.218307, "lng": -97.478827
},{
"label": "Benito Picaso", "lat": 20.262518, "lng": -97.4057
},{
"label": "Espinal", "lat": 20.259428, "lng": -97.398514
},{
"label": "Finca Juan Fernández", "lat": 20.333577, "lng": -97.56214
},{
"label": "Loma del Muerto San Francisco", "lat": 20.30559, "lng": -97.549744
},{
"label": "Santa Isabel", "lat": 20.192666, "lng": -97.529114
},{
"label": "Santa Isabel Cruz", "lat": 20.185458, "lng": -97.513232
},{
"label": "Finca Santa Isabel", "lat": 20.199719, "lng": -97.475186
},{
"label": "El Ciruelo", "lat": 20.304429, "lng": -97.475846
},{
"label": "El Caimán", "lat": 20.268928, "lng": -97.597783
},{
"label": "Poza Larga Miradores", "lat": 20.153428, "lng": -97.506535
},{
"label": "Rancho Nuevo Ojite", "lat": 20.212065, "lng": -97.47307
},{
"label": "Rancho Miahuapan", "lat": 20.290686, "lng": -97.547148
},{
"label": "Entabladero", "lat": 20.27596, "lng": -97.548858
},{
"label": "El Canelo", "lat": 20.285305, "lng": -97.428187
},{
"label": "La Nueva Esperanza", "lat": 20.258655, "lng": -97.389715
},{
"label": "Armadillos (Beto González)", "lat": 20.16611, "lng": -97.49333
},{
"label": "Chapultepec", "lat": 20.205218, "lng": -97.545092
},{
"label": "Gallegos Fernández Pérez", "lat": 20.3425, "lng": -97.55806
},{
"label": "Ejido Comalteco", "lat": 20.233316, "lng": -97.4727
},{
"label": "San Francisco", "lat": 20.29475, "lng": -97.539382
},{
"label": "Arroyo Colorado", "lat": 20.235458, "lng": -97.470094
},{
"label": "Las Mercedes", "lat": 20.26878, "lng": -97.519142
},{
"label": "Nuevo Ojite", "lat": 20.217295, "lng": -97.474989
},{
"label": "Loma Bonita", "lat": 20.308067, "lng": -97.441829
},{
"label": "Rancho Zapotal", "lat": 20.313469, "lng": -97.447839
},{
"label": "El Siete", "lat": 20.270364, "lng": -97.460312
},{
"label": "Las Grullas", "lat": 20.303054, "lng": -97.447382
},{
"label": "Armando Garrido", "lat": 20.305874, "lng": -97.464513
},{
"label": "San José del Meridiano", "lat": 20.277748, "lng": -97.492396
},{
"label": "Santiago Fernández Pérez", "lat": 20.345916, "lng": -97.548394
}]