[{
"label": "La Isleta de Panamá (Punta Isleta)", "lat": 18.601844, "lng": -95.898254
},{
"label": "La Calzada del Naranjo", "lat": 18.644499, "lng": -95.934293
},{
"label": "Zanja del Barro", "lat": 18.717864, "lng": -96.029421
},{
"label": "Lobato y Totulco (Rancho Nuevo)", "lat": 18.647326, "lng": -95.956093
},{
"label": "Ampliación Palma Cuata", "lat": 18.656761, "lng": -96.007317
},{
"label": "El Juile", "lat": 18.528078, "lng": -95.962808
},{
"label": "El Obispo", "lat": 18.663045, "lng": -95.891266
},{
"label": "Nuevo Zapotal", "lat": 18.605469, "lng": -96.028833
},{
"label": "El Salto", "lat": 18.651215, "lng": -96.039091
},{
"label": "Zacate Colorado Primero (El Moral)", "lat": 18.668536, "lng": -95.992847
},{
"label": "Caño Lagarto", "lat": 18.64361, "lng": -96.0125
},{
"label": "Paso el Mirón", "lat": 18.567729, "lng": -96.014738
},{
"label": "Los Naranjos", "lat": 18.599449, "lng": -95.922648
},{
"label": "Sabaneta", "lat": 18.697357, "lng": -95.989937
},{
"label": "Villanueva", "lat": 18.692204, "lng": -95.989697
},{
"label": "El Jobo", "lat": 18.770424, "lng": -95.955111
},{
"label": "Zacate Colorado Segundo (Fraternidad)", "lat": 18.68362, "lng": -95.971901
},{
"label": "Emiliano Zapata", "lat": 18.730916, "lng": -95.944821
},{
"label": "La Brena", "lat": 18.634853, "lng": -95.990519
},{
"label": "Moyotla", "lat": 18.72231, "lng": -96.01531
},{
"label": "Potrero Nuevo", "lat": 18.668118, "lng": -96.018609
},{
"label": "Piedra de Azúcar", "lat": 18.73406, "lng": -95.944298
},{
"label": "Pozo de Arena", "lat": 18.631256, "lng": -95.97541
},{
"label": "Los Candadillos", "lat": 18.706608, "lng": -95.944379
},{
"label": "El Zapotal Número Uno", "lat": 18.708987, "lng": -96.02479
},{
"label": "El Zapote", "lat": 18.735531, "lng": -95.961361
},{
"label": "Palma de Coco", "lat": 18.678662, "lng": -95.948875
},{
"label": "El Dormido", "lat": 18.59472, "lng": -95.98194
},{
"label": "La Cerquilla", "lat": 18.722318, "lng": -95.946196
},{
"label": "Caño María", "lat": 18.606956, "lng": -95.972736
},{
"label": "Cerro de la Palma", "lat": 18.667941, "lng": -95.928723
},{
"label": "Caño Lima", "lat": 18.609701, "lng": -95.982957
},{
"label": "La Chamuscada", "lat": 18.519883, "lng": -95.977236
},{
"label": "El Ojochal", "lat": 18.709161, "lng": -96.038867
},{
"label": "Tarcazalapa (El Reacomodo)", "lat": 18.737281, "lng": -95.947441
},{
"label": "Laguna San Marcos", "lat": 18.602114, "lng": -95.934881
},{
"label": "Los Tonamiles", "lat": 18.581599, "lng": -96.027699
},{
"label": "Nuevo Paso Limón", "lat": 18.60807, "lng": -96.027356
},{
"label": "El Castillo", "lat": 18.533024, "lng": -95.984649
},{
"label": "La Campana", "lat": 18.701299, "lng": -96.034299
},{
"label": "Boca el Zapote", "lat": 18.713931, "lng": -95.885207
},{
"label": "Nuevo Santa Rosa", "lat": 18.604034, "lng": -96.026974
},{
"label": "La Encantada", "lat": 18.745541, "lng": -95.977984
},{
"label": "La Aduana", "lat": 18.586368, "lng": -95.992443
},{
"label": "Palma Cuata", "lat": 18.69161, "lng": -96.018869
},{
"label": "El Camarón", "lat": 18.544423, "lng": -95.948429
},{
"label": "Vainillal (El Vainillal)", "lat": 18.745638, "lng": -95.950623
},{
"label": "Ignacio de la Llave", "lat": 18.724306, "lng": -95.985635
},{
"label": "Paso Jacinto", "lat": 18.586344, "lng": -95.931583
},{
"label": "Arroyo Hondo", "lat": 18.605773, "lng": -95.911579
},{
"label": "Santa Gertrudis", "lat": 18.683618, "lng": -95.889129
},{
"label": "El Huracán", "lat": 18.7175, "lng": -95.89861
},{
"label": "Punta Limón", "lat": 18.693518, "lng": -95.886941
},{
"label": "El Aguacate", "lat": 18.7126, "lng": -95.961944
},{
"label": "El Mangal", "lat": 18.729201, "lng": -95.971383
},{
"label": "Rincón del Tigre", "lat": 18.736842, "lng": -95.994507
},{
"label": "Paso de las Mulas", "lat": 18.730556, "lng": -96.003285
},{
"label": "El Salitral", "lat": 18.657482, "lng": -95.992762
}]