[{
"label": "Xixilacatla", "lat": 19.352286, "lng": -97.037792
},{
"label": "Don Vicente", "lat": 19.358504, "lng": -97.127153
},{
"label": "San José", "lat": 19.364511, "lng": -97.11535
},{
"label": "Aquiquizapan", "lat": 19.36361, "lng": -97.08056
},{
"label": "El Rocío", "lat": 19.344964, "lng": -97.104763
},{
"label": "La Raya", "lat": 19.291362, "lng": -97.014919
},{
"label": "Amatitla", "lat": 19.290015, "lng": -96.977164
},{
"label": "Buenavista", "lat": 19.376252, "lng": -97.109656
},{
"label": "Doña Lupe", "lat": 19.338423, "lng": -97.051135
},{
"label": "Xivizil", "lat": 19.298656, "lng": -97.009331
},{
"label": "Nueva Villa", "lat": 19.338876, "lng": -97.038102
},{
"label": "Comaxilhuatla", "lat": 19.30116, "lng": -97.02528
},{
"label": "Tecpitla", "lat": 19.305753, "lng": -97.016303
},{
"label": "La Perla", "lat": 19.327338, "lng": -97.063387
},{
"label": "Los Carriles", "lat": 19.343857, "lng": -97.105978
},{
"label": "Atlivayán", "lat": 19.418037, "lng": -97.103798
},{
"label": "Ixhuacán de los Reyes", "lat": 19.355946, "lng": -97.11528
},{
"label": "La Alameda", "lat": 19.384596, "lng": -97.036724
},{
"label": "Amatla", "lat": 19.330675, "lng": -97.05189
},{
"label": "Cocoxatla", "lat": 19.395334, "lng": -97.044732
},{
"label": "Atecaxil", "lat": 19.374154, "lng": -97.077144
},{
"label": "Chichicazapa", "lat": 19.356196, "lng": -97.071235
},{
"label": "El Futuro", "lat": 19.388713, "lng": -97.128033
},{
"label": "El Aguacate (Catarino Ruiz)", "lat": 19.395672, "lng": -97.133807
},{
"label": "Las Galeras (Las Pastorías)", "lat": 19.423417, "lng": -97.153443
},{
"label": "Tlaltetela", "lat": 19.331018, "lng": -97.065452
},{
"label": "Nepalcuautla", "lat": 19.3125, "lng": -97.09
},{
"label": "Tizapa", "lat": 19.338528, "lng": -97.077178
},{
"label": "Atula", "lat": 19.346049, "lng": -97.071418
},{
"label": "Villa Nueva", "lat": 19.310083, "lng": -97.034553
},{
"label": "Los Martínez", "lat": 19.416891, "lng": -97.124347
},{
"label": "Vista Hermosa", "lat": 19.402858, "lng": -97.106009
},{
"label": "Xoyatitla", "lat": 19.330509, "lng": -97.094654
},{
"label": "Las Nubes (Paso Triste)", "lat": 19.358675, "lng": -97.121624
},{
"label": "Caltzontepec", "lat": 19.395334, "lng": -97.139879
},{
"label": "El Arenal", "lat": 19.333144, "lng": -97.085402
},{
"label": "Mecamilpa", "lat": 19.33375, "lng": -97.065308
},{
"label": "El Carrizal", "lat": 19.411476, "lng": -97.126613
},{
"label": "Tlatexcalitic", "lat": 19.339539, "lng": -97.101904
},{
"label": "Texacobat", "lat": 19.34551, "lng": -97.078891
},{
"label": "Los Rodríguez", "lat": 19.401554, "lng": -97.138383
},{
"label": "Los Laureles", "lat": 19.43058, "lng": -97.143012
},{
"label": "Tetlaxca", "lat": 19.346476, "lng": -97.055673
},{
"label": "El Manzano", "lat": 19.364454, "lng": -97.130203
},{
"label": "El Olmo", "lat": 19.338836, "lng": -97.032511
},{
"label": "El Establo", "lat": 19.416293, "lng": -97.147291
},{
"label": "Marintla", "lat": 19.375713, "lng": -97.072796
},{
"label": "Vacapa", "lat": 19.368982, "lng": -97.079935
},{
"label": "Barranca Grande", "lat": 19.322713, "lng": -97.042671
},{
"label": "Rancho Guadalupe", "lat": 19.357794, "lng": -97.127128
},{
"label": "Barranca Nueva", "lat": 19.337446, "lng": -97.036463
},{
"label": "Acuitlatipan", "lat": 19.339419, "lng": -97.103971
},{
"label": "Ahuayacan", "lat": 19.343701, "lng": -97.09402
},{
"label": "Tecuanapa", "lat": 19.337206, "lng": -97.129254
},{
"label": "Cerro Boludo", "lat": 19.394626, "lng": -97.113232
},{
"label": "Finca Xalatla", "lat": 19.335689, "lng": -97.048098
},{
"label": "Tlalchy", "lat": 19.382084, "lng": -97.078218
},{
"label": "Pocitos", "lat": 19.327962, "lng": -97.034934
},{
"label": "Xixitla", "lat": 19.340379, "lng": -97.033469
},{
"label": "Piedra Grande", "lat": 19.34528, "lng": -97.06278
},{
"label": "Agua Bendita", "lat": 19.354538, "lng": -97.102886
},{
"label": "Coyopolan", "lat": 19.369246, "lng": -97.062797
},{
"label": "Monte Grande", "lat": 19.398698, "lng": -97.071013
}]