[{
"label": "Campamento México Verde", "lat": 19.355341, "lng": -96.78868
},{
"label": "Rivera del Río", "lat": 19.329653, "lng": -96.764775
},{
"label": "Campamento 360", "lat": 19.344444, "lng": -96.764722
},{
"label": "Campamento la Aldea", "lat": 19.348995, "lng": -96.773548
},{
"label": "Villa Pinome", "lat": 19.348217, "lng": -96.7702
},{
"label": "Arroyo Hediondo", "lat": 19.347628, "lng": -96.774056
},{
"label": "Tetela", "lat": 19.327755, "lng": -96.728031
},{
"label": "Zapotal", "lat": 19.334977, "lng": -96.757328
},{
"label": "Simoney", "lat": 19.34889, "lng": -96.77944
},{
"label": "La Guadalupana", "lat": 19.350607, "lng": -96.77958
},{
"label": "Santa María Tatetla", "lat": 19.273939, "lng": -96.71314
},{
"label": "Campamento el Chipichipi", "lat": 19.345396, "lng": -96.772126
},{
"label": "Campamento Contra Corriente", "lat": 19.344431, "lng": -96.767585
},{
"label": "Tacotalpan", "lat": 19.375609, "lng": -96.754953
},{
"label": "Jalcomulco", "lat": 19.331686, "lng": -96.761823
}]