[{
"label": "Úrsulo Galván", "lat": 19.096822, "lng": -96.350087
},{
"label": "Curva del Paso Real", "lat": 19.196588, "lng": -96.343046
},{
"label": "Paso Seco", "lat": 19.162527, "lng": -96.374138
},{
"label": "Loma de Lele", "lat": 19.052773, "lng": -96.295628
},{
"label": "Paso Serrano", "lat": 19.185955, "lng": -96.381458
},{
"label": "Rancho Norma", "lat": 19.107615, "lng": -96.324283
},{
"label": "Colonia el Mango (Anexo de la Cantera)", "lat": 19.056048, "lng": -96.338405
},{
"label": "El Pozo", "lat": 19.142936, "lng": -96.299941
},{
"label": "San Diego", "lat": 19.042214, "lng": -96.356499
},{
"label": "La Flecha", "lat": 19.060596, "lng": -96.370911
},{
"label": "La Polvareda", "lat": 19.127015, "lng": -96.363425
},{
"label": "Belisario Domínguez (La Burrera)", "lat": 19.171251, "lng": -96.336831
},{
"label": "San Luis", "lat": 19.080636, "lng": -96.356562
},{
"label": "Las Amazonas", "lat": 19.146161, "lng": -96.325049
},{
"label": "Izotillo", "lat": 19.069324, "lng": -96.33852
},{
"label": "Felipe Carrillo Puerto", "lat": 19.076884, "lng": -96.307296
},{
"label": "San Martín del Yagual", "lat": 18.980934, "lng": -96.315083
},{
"label": "Cerro del Maíz", "lat": 19.103996, "lng": -96.265981
},{
"label": "La Florida", "lat": 19.043164, "lng": -96.301407
},{
"label": "Cruz Verde", "lat": 19.158529, "lng": -96.322063
},{
"label": "Tenenexpan", "lat": 19.141684, "lng": -96.394354
},{
"label": "Loma de Piedra", "lat": 19.187721, "lng": -96.310476
},{
"label": "Piedra Parada", "lat": 19.179146, "lng": -96.403012
},{
"label": "Mario Peréz", "lat": 19.047676, "lng": -96.382551
},{
"label": "Paso Irala", "lat": 19.176561, "lng": -96.323666
},{
"label": "Manuel Hernández", "lat": 19.080408, "lng": -96.349475
},{
"label": "El Jícaro", "lat": 19.096547, "lng": -96.309966
},{
"label": "Paso Limón", "lat": 19.027453, "lng": -96.384481
},{
"label": "Portezuelo", "lat": 19.152908, "lng": -96.300485
},{
"label": "La Lima", "lat": 19.155346, "lng": -96.330976
},{
"label": "Mata María", "lat": 19.149861, "lng": -96.322109
},{
"label": "Rasga Bandera", "lat": 19.000326, "lng": -96.315957
},{
"label": "San Cenobio", "lat": 19.042279, "lng": -96.390733
},{
"label": "San Antonio", "lat": 19.154071, "lng": -96.341829
},{
"label": "El Corsario", "lat": 19.097895, "lng": -96.343073
},{
"label": "La Cantera", "lat": 19.039928, "lng": -96.334906
},{
"label": "San Rafael", "lat": 19.065501, "lng": -96.331708
},{
"label": "Alta Luz", "lat": 19.180456, "lng": -96.431407
},{
"label": "Gustavo Suárez (Santa Ana)", "lat": 19.08849, "lng": -96.3009
},{
"label": "Benito Juárez", "lat": 19.150977, "lng": -96.308382
},{
"label": "Enrique López", "lat": 19.150654, "lng": -96.366913
},{
"label": "La Martucha", "lat": 19.078554, "lng": -96.292363
},{
"label": "El Porvenir", "lat": 19.124553, "lng": -96.278276
},{
"label": "Tepetate", "lat": 19.196101, "lng": -96.333625
},{
"label": "Manlio Fabio Altamirano", "lat": 19.094434, "lng": -96.33323
},{
"label": "Danilo de Diego", "lat": 19.159821, "lng": -96.322478
},{
"label": "Rancho Nuevo", "lat": 19.025617, "lng": -96.357877
},{
"label": "La Venta", "lat": 19.070803, "lng": -96.305403
},{
"label": "El Plumaje", "lat": 19.14498, "lng": -96.369807
},{
"label": "Loma del Faro", "lat": 19.105818, "lng": -96.386324
},{
"label": "Paso Moral", "lat": 19.183029, "lng": -96.420779
},{
"label": "La Amistad", "lat": 19.079065, "lng": -96.343189
},{
"label": "San José", "lat": 19.091462, "lng": -96.347266
},{
"label": "Rancho Dailu", "lat": 19.179412, "lng": -96.33407
},{
"label": "Ignacio Bernal", "lat": 19.057837, "lng": -96.379924
},{
"label": "San Andrés", "lat": 19.063972, "lng": -96.367061
},{
"label": "Colonia el Espinal de Ceballos", "lat": 19.065869, "lng": -96.281481
},{
"label": "Cuatro Vientos", "lat": 19.066284, "lng": -96.357102
},{
"label": "Loma de Avispa", "lat": 19.152296, "lng": -96.359536
},{
"label": "Pedro Reyes", "lat": 19.091441, "lng": -96.343616
},{
"label": "Mata Corderos", "lat": 19.116086, "lng": -96.279277
},{
"label": "Loma del Reparo", "lat": 19.091481, "lng": -96.389957
},{
"label": "La Coruña", "lat": 19.163829, "lng": -96.33661
},{
"label": "Paso de los Indios", "lat": 19.136822, "lng": -96.347451
},{
"label": "Paso Frijol", "lat": 19.054058, "lng": -96.332013
},{
"label": "Apan", "lat": 19.053218, "lng": -96.387172
},{
"label": "Paso Real", "lat": 19.183354, "lng": -96.362099
},{
"label": "Plataforma", "lat": 19.07006, "lng": -96.371761
},{
"label": "Saturnino Contreras López", "lat": 19.081453, "lng": -96.327003
},{
"label": "El Yagual", "lat": 18.995363, "lng": -96.314595
},{
"label": "La Y Griega", "lat": 19.096322, "lng": -96.32124
},{
"label": "El Piojo", "lat": 19.090829, "lng": -96.367497
},{
"label": "Los Morales", "lat": 19.053159, "lng": -96.385576
},{
"label": "Colonia GAGSA (La Pedrera)", "lat": 19.182339, "lng": -96.324422
},{
"label": "Juan Meza", "lat": 19.085139, "lng": -96.33082
},{
"label": "El Buzón", "lat": 19.157415, "lng": -96.350336
},{
"label": "Fortunato (Camino Real)", "lat": 19.105712, "lng": -96.325977
},{
"label": "Mata Loma", "lat": 19.131224, "lng": -96.295884
},{
"label": "El Cedralito", "lat": 19.06131, "lng": -96.283304
},{
"label": "Loma de los Carmona", "lat": 19.10608, "lng": -96.393299
},{
"label": "Las Trancas (La Ordeña)", "lat": 19.085119, "lng": -96.35183
},{
"label": "Finca el Farolito", "lat": 19.156668, "lng": -96.342935
},{
"label": "El Espinal de Ceballos", "lat": 19.094871, "lng": -96.270425
},{
"label": "Loma Blanca", "lat": 19.058894, "lng": -96.37654
},{
"label": "Paso Limón (Paso Mulato)", "lat": 19.03065, "lng": -96.371824
},{
"label": "Colonia Francisco Villa", "lat": 19.045567, "lng": -96.323481
},{
"label": "La Firmeza", "lat": 19.181101, "lng": -96.389377
},{
"label": "Loma de Santa María", "lat": 19.052104, "lng": -96.309183
},{
"label": "Villa del Río", "lat": 19.064921, "lng": -96.328571
},{
"label": "La Quinta Chilla", "lat": 19.076275, "lng": -96.351116
},{
"label": "Mata Bruja (El Naranjal)", "lat": 19.028771, "lng": -96.331925
},{
"label": "El Ciruelo", "lat": 19.072906, "lng": -96.362718
},{
"label": "Francisco J. Moreno", "lat": 19.123227, "lng": -96.322353
},{
"label": "Paso Solís", "lat": 19.052367, "lng": -96.322465
},{
"label": "La Mariposa", "lat": 19.030711, "lng": -96.316668
},{
"label": "Miguel Alemán", "lat": 19.051787, "lng": -96.387996
},{
"label": "Esteban Marín Espinoza", "lat": 19.077527, "lng": -96.323119
},{
"label": "El Cacahuatal", "lat": 19.188336, "lng": -96.351903
},{
"label": "Ampliación las Remojadas", "lat": 19.066029, "lng": -96.37044
},{
"label": "La Esperanza", "lat": 19.016349, "lng": -96.328152
},{
"label": "Paso Higuera (Mirador y Anexos)", "lat": 19.015429, "lng": -96.319296
},{
"label": "Chihuahua", "lat": 19.191119, "lng": -96.323055
},{
"label": "Isidoro Ameca", "lat": 19.144681, "lng": -96.345276
},{
"label": "El Trichoriu", "lat": 19.104936, "lng": -96.328396
},{
"label": "San Juan de Estancia", "lat": 19.138489, "lng": -96.333727
},{
"label": "La Capilla", "lat": 19.129062, "lng": -96.355388
},{
"label": "El Sauce", "lat": 19.100559, "lng": -96.366669
}]