[{
"label": "Lázaro Cárdenas", "lat": 20.243688, "lng": -97.652125
},{
"label": "Ricardo Flores Magón", "lat": 20.192874, "lng": -97.619688
},{
"label": "La Escalera", "lat": 20.196431, "lng": -97.679017
},{
"label": "El Xululun", "lat": 20.207796, "lng": -97.68872
},{
"label": "Rancho Alegre", "lat": 20.207694, "lng": -97.638566
},{
"label": "Agua Azul", "lat": 20.225934, "lng": -97.662331
},{
"label": "Colonia Zaragoza", "lat": 20.242058, "lng": -97.653052
},{
"label": "El Zapote", "lat": 20.207681, "lng": -97.686386
},{
"label": "La Ceiba", "lat": 20.194249, "lng": -97.639095
},{
"label": "Los Serafines", "lat": 20.242121, "lng": -97.668574
},{
"label": "Mecatlán", "lat": 20.210656, "lng": -97.68174
},{
"label": "Manantiales", "lat": 20.196731, "lng": -97.610236
},{
"label": "Cuhuixanath", "lat": 20.216336, "lng": -97.650343
},{
"label": "Las Flores", "lat": 20.192616, "lng": -97.647835
},{
"label": "Puxtla", "lat": 20.228191, "lng": -97.671156
},{
"label": "Los Jiménez (La Fábrica)", "lat": 20.238368, "lng": -97.654524
},{
"label": "La Cruz", "lat": 20.200392, "lng": -97.670468
},{
"label": "Naranjales", "lat": 20.207041, "lng": -97.658729
}]