[{
"label": "Ejido Moloacán", "lat": 17.946847, "lng": -94.338946
},{
"label": "La Alberca", "lat": 18.003646, "lng": -94.225474
},{
"label": "La Parcela", "lat": 17.939659, "lng": -94.244158
},{
"label": "El Macayo", "lat": 17.929735, "lng": -94.256399
},{
"label": "Parcela Industrial de las Viudas", "lat": 17.963981, "lng": -94.288835
},{
"label": "Soyata", "lat": 17.996054, "lng": -94.338714
},{
"label": "San Valentín", "lat": 17.958038, "lng": -94.2813
},{
"label": "Kilómetro Diecinueve", "lat": 17.979744, "lng": -94.236329
},{
"label": "Siete Leguas", "lat": 18.074831, "lng": -94.323977
},{
"label": "El Trébol", "lat": 17.994338, "lng": -94.259068
},{
"label": "El Paraíso", "lat": 17.996989, "lng": -94.300985
},{
"label": "Los Pipianes", "lat": 18.011082, "lng": -94.226802
},{
"label": "El Rosario", "lat": 17.925461, "lng": -94.290699
},{
"label": "Ignacio López Jiménez", "lat": 18.00749, "lng": -94.227911
},{
"label": "Mozomboa", "lat": 18.024615, "lng": -94.220194
},{
"label": "El Taconazo", "lat": 18.011588, "lng": -94.326523
},{
"label": "La Primavera", "lat": 17.912652, "lng": -94.284946
},{
"label": "El Amate", "lat": 17.96887, "lng": -94.228912
},{
"label": "Rancho Uribe", "lat": 17.954051, "lng": -94.29428
},{
"label": "Acalapa Uno", "lat": 17.994908, "lng": -94.267947
},{
"label": "San Isidro", "lat": 17.943916, "lng": -94.229603
},{
"label": "La Joya", "lat": 18.005526, "lng": -94.318966
},{
"label": "Dos Hermanos", "lat": 17.981069, "lng": -94.237808
},{
"label": "Kilómetro Veinte", "lat": 18.013756, "lng": -94.326782
},{
"label": "El Búfalo", "lat": 17.991907, "lng": -94.286933
},{
"label": "Don Fausto", "lat": 17.927611, "lng": -94.319188
},{
"label": "Rancho Morelia", "lat": 17.987423, "lng": -94.216136
},{
"label": "Colonia la Florida", "lat": 17.911295, "lng": -94.2574
},{
"label": "Finca Margarita", "lat": 18.013025, "lng": -94.319394
},{
"label": "San Ignacio (Los Nava)", "lat": 17.927264, "lng": -94.279813
},{
"label": "Cuichapa", "lat": 17.939054, "lng": -94.279414
},{
"label": "Kilómetro Cinco", "lat": 17.904959, "lng": -94.28801
},{
"label": "Alberto Villagómez", "lat": 17.997715, "lng": -94.23641
},{
"label": "Ejido Tierra y Hogar", "lat": 17.930156, "lng": -94.298912
},{
"label": "El Triunfo", "lat": 17.987481, "lng": -94.242401
},{
"label": "Los Siete Hermanos", "lat": 17.956019, "lng": -94.27926
},{
"label": "Los Magueyes", "lat": 17.95709, "lng": -94.288688
},{
"label": "Porfirio Acosta", "lat": 17.981227, "lng": -94.246684
},{
"label": "El Uvero", "lat": 17.993733, "lng": -94.28204
},{
"label": "El Guayabal", "lat": 18.003038, "lng": -94.332177
},{
"label": "La Esmeralda (El Banco)", "lat": 17.995441, "lng": -94.212659
},{
"label": "Santa Rosa", "lat": 18.089069, "lng": -94.314216
},{
"label": "La Palma", "lat": 17.953568, "lng": -94.219455
},{
"label": "La Abeja", "lat": 17.982558, "lng": -94.247913
},{
"label": "El Arenalito", "lat": 18.00167, "lng": -94.335108
},{
"label": "El Arenal", "lat": 17.997655, "lng": -94.335721
},{
"label": "El Capullo", "lat": 17.9425, "lng": -94.29861
},{
"label": "Casa Blanca", "lat": 18.071548, "lng": -94.319693
},{
"label": "El Nogal", "lat": 17.92211, "lng": -94.259975
},{
"label": "San Nicolás", "lat": 18.071665, "lng": -94.298718
},{
"label": "Los Mangos", "lat": 17.924618, "lng": -94.321448
},{
"label": "Las Palmitas", "lat": 17.959162, "lng": -94.227258
},{
"label": "El Reboso", "lat": 18.065227, "lng": -94.323789
},{
"label": "Nuevo Teapa", "lat": 18.075542, "lng": -94.320754
},{
"label": "Olga Pérez López", "lat": 17.934279, "lng": -94.276552
},{
"label": "El Rubí", "lat": 17.960781, "lng": -94.221061
},{
"label": "La Nueva Esperanza", "lat": 18.00387, "lng": -94.314621
},{
"label": "La Esmeralda", "lat": 17.959724, "lng": -94.216415
},{
"label": "Palma de Mayorca", "lat": 18.003919, "lng": -94.336694
},{
"label": "Carlos Castellanos Flores", "lat": 17.949484, "lng": -94.258102
},{
"label": "San Rafael", "lat": 17.953017, "lng": -94.301761
},{
"label": "El Tequila (Colonia Ruiz Cortines)", "lat": 17.98833, "lng": -94.19917
},{
"label": "El Bramador", "lat": 17.948576, "lng": -94.297947
},{
"label": "El Alacrán", "lat": 17.951677, "lng": -94.274836
},{
"label": "La Trinidad", "lat": 17.939658, "lng": -94.328891
},{
"label": "Los Campos", "lat": 18.0, "lng": -94.30944
},{
"label": "La Reata", "lat": 17.979767, "lng": -94.222438
},{
"label": "Encarnación del Toro", "lat": 17.928845, "lng": -94.273857
},{
"label": "San Juan de los Reyes (Los Caimanes)", "lat": 18.069318, "lng": -94.2586
},{
"label": "San Rafa", "lat": 17.953202, "lng": -94.213133
},{
"label": "Cuichapa [Distribuidora Industrial]", "lat": 17.920378, "lng": -94.322234
},{
"label": "El Porvenir", "lat": 17.943464, "lng": -94.246046
},{
"label": "El Cocal", "lat": 17.948865, "lng": -94.268959
},{
"label": "San Lorenzo Mezcalapa", "lat": 17.935523, "lng": -94.296463
},{
"label": "La Bombilla", "lat": 18.003179, "lng": -94.228507
},{
"label": "Kilómetro Treinta y Nueve (Ejido Cuichapa)", "lat": 17.937487, "lng": -94.236136
},{
"label": "Tres Hermanos", "lat": 17.950699, "lng": -94.263422
},{
"label": "El Cabrio", "lat": 18.041608, "lng": -94.236333
},{
"label": "El Grullo", "lat": 18.016153, "lng": -94.330138
},{
"label": "Los Gavilanes", "lat": 17.968527, "lng": -94.270956
},{
"label": "Los Mechones", "lat": 17.960871, "lng": -94.275151
},{
"label": "Santa Ana", "lat": 17.934391, "lng": -94.30853
},{
"label": "San Andrés", "lat": 17.999304, "lng": -94.306839
},{
"label": "José del Carmen", "lat": 17.90361, "lng": -94.29167
},{
"label": "Trancas Viejas", "lat": 17.996936, "lng": -94.29587
},{
"label": "Los Naranjos", "lat": 17.993959, "lng": -94.285274
},{
"label": "Las Claves", "lat": 18.003326, "lng": -94.282356
},{
"label": "Tres JJJ", "lat": 17.930657, "lng": -94.2758
},{
"label": "San Miguel", "lat": 17.930119, "lng": -94.342478
},{
"label": "Ejido Popotla", "lat": 18.01917, "lng": -94.31694
},{
"label": "El Mirador", "lat": 17.975943, "lng": -94.232077
},{
"label": "Pedro Porra", "lat": 17.919523, "lng": -94.284878
},{
"label": "La Esperanza (Cantarranas)", "lat": 17.99083, "lng": -94.33806
},{
"label": "Los Portales", "lat": 18.001103, "lng": -94.257109
},{
"label": "Tlacuilolapan", "lat": 17.977239, "lng": -94.264986
},{
"label": "Carlos Salinas de Gortari (El Tigre)", "lat": 18.028366, "lng": -94.251913
},{
"label": "Las Gardenias", "lat": 18.006218, "lng": -94.316555
},{
"label": "La Perla", "lat": 17.97401, "lng": -94.278676
},{
"label": "La Guadalupe", "lat": 17.992546, "lng": -94.275833
},{
"label": "La Nueva Era (Las Isabeles)", "lat": 18.001606, "lng": -94.307451
},{
"label": "Rancho Alegre", "lat": 17.997892, "lng": -94.302961
},{
"label": "El Arenal Dos", "lat": 17.94049, "lng": -94.340857
},{
"label": "La Y Griega", "lat": 17.918129, "lng": -94.325543
},{
"label": "Nuevo Teapa (Santa Cecilia)", "lat": 18.073991, "lng": -94.275755
},{
"label": "Humberto de León", "lat": 17.956601, "lng": -94.272088
},{
"label": "El Kilómetro Seis", "lat": 17.963554, "lng": -94.275783
},{
"label": "Acalapa Dos (Kilómetro 17)", "lat": 17.970311, "lng": -94.22826
},{
"label": "La Providencia", "lat": 17.916243, "lng": -94.283099
},{
"label": "El Mirador (Nueva Era)", "lat": 18.005743, "lng": -94.312504
},{
"label": "Rancho Tu Recuerdo", "lat": 17.973867, "lng": -94.246284
},{
"label": "San Pedro", "lat": 17.92361, "lng": -94.29111
},{
"label": "Los Borregos", "lat": 17.950227, "lng": -94.233302
},{
"label": "Tres Marías (Tres Glorias)", "lat": 17.980334, "lng": -94.235409
},{
"label": "Armando Téllez", "lat": 18.011185, "lng": -94.243212
},{
"label": "La Iguana", "lat": 17.974198, "lng": -94.212456
},{
"label": "Moloacán", "lat": 17.988772, "lng": -94.347082
},{
"label": "Los Pinos", "lat": 18.029466, "lng": -94.234009
},{
"label": "El Centenario", "lat": 18.00395, "lng": -94.316322
},{
"label": "Acalapa Tres", "lat": 17.95437, "lng": -94.25983
},{
"label": "Nueva Palma Sola", "lat": 18.002284, "lng": -94.299547
},{
"label": "Andrés Castellanos", "lat": 17.945595, "lng": -94.25135
},{
"label": "Tres Potrillos", "lat": 18.007115, "lng": -94.282049
},{
"label": "El Mayoral", "lat": 17.908664, "lng": -94.328584
},{
"label": "Ejido Arroyo Blanco (El Ágata)", "lat": 17.997983, "lng": -94.246759
},{
"label": "La Ceiba", "lat": 17.973789, "lng": -94.270337
},{
"label": "Las Tres Marías", "lat": 17.912549, "lng": -94.261064
},{
"label": "Tacomango", "lat": 17.937653, "lng": -94.31571
},{
"label": "Miguel López", "lat": 17.9801, "lng": -94.20458
},{
"label": "San Martín", "lat": 17.9085, "lng": -94.323343
},{
"label": "Las Bugambilias", "lat": 17.897417, "lng": -94.282728
},{
"label": "Don Claudio", "lat": 17.993176, "lng": -94.309602
},{
"label": "El Arenal Uno", "lat": 17.937994, "lng": -94.335392
},{
"label": "San Judas Tadeo", "lat": 17.990699, "lng": -94.255177
},{
"label": "Las Palomas", "lat": 18.070611, "lng": -94.297268
},{
"label": "Rancho Farina", "lat": 17.984323, "lng": -94.245222
},{
"label": "Fernando Piedra Torres", "lat": 17.919259, "lng": -94.256974
},{
"label": "La Tolva", "lat": 17.989432, "lng": -94.271653
},{
"label": "El Vergel", "lat": 17.914253, "lng": -94.285618
},{
"label": "Rancho Chamuco", "lat": 17.979945, "lng": -94.240743
},{
"label": "Las Flores", "lat": 17.95417, "lng": -94.27889
},{
"label": "El Rodeo", "lat": 17.982168, "lng": -94.256619
},{
"label": "El Tamarindo", "lat": 17.999814, "lng": -94.230551
},{
"label": "El Sacrificio", "lat": 17.946969, "lng": -94.270683
},{
"label": "Mónico Vargas", "lat": 17.989678, "lng": -94.240013
},{
"label": "San Juan", "lat": 17.979949, "lng": -94.250343
},{
"label": "El Juguete", "lat": 18.069209, "lng": -94.311846
},{
"label": "La Salud (Palo Gordo Kilómetro 16)", "lat": 17.962313, "lng": -94.223503
},{
"label": "El Milagro", "lat": 17.971907, "lng": -94.254436
},{
"label": "Los Dos Hermanos", "lat": 17.946586, "lng": -94.293743
},{
"label": "La Hulera", "lat": 17.928803, "lng": -94.306107
},{
"label": "La Esperanza", "lat": 17.949571, "lng": -94.268349
},{
"label": "El Suspiro", "lat": 17.945815, "lng": -94.298881
},{
"label": "El Relicario", "lat": 17.932274, "lng": -94.295591
},{
"label": "San Francisco", "lat": 17.961245, "lng": -94.325963
},{
"label": "Francisco Villa", "lat": 18.01193, "lng": -94.292718
},{
"label": "La Soledad", "lat": 17.951606, "lng": -94.227144
},{
"label": "Loma Bonita", "lat": 18.005576, "lng": -94.32451
},{
"label": "NCPE General Lázaro Cárdenas", "lat": 17.976202, "lng": -94.338547
},{
"label": "Manuel Almanza", "lat": 18.095754, "lng": -94.302536
},{
"label": "Severo Reyes Valencia", "lat": 17.92389, "lng": -94.24861
}]