[{
"label": "Santa Cecilia", "lat": 17.916923, "lng": -94.887367
},{
"label": "Punta de Oro", "lat": 17.8675, "lng": -94.92139
},{
"label": "El Divino Niño", "lat": 17.922526, "lng": -94.877346
},{
"label": "Los Amigos [Granja Avícola]", "lat": 17.925259, "lng": -94.926122
},{
"label": "Estotoapan", "lat": 17.926869, "lng": -94.919919
},{
"label": "El Campero", "lat": 17.928182, "lng": -94.924182
},{
"label": "La Lupita", "lat": 17.927356, "lng": -94.910813
},{
"label": "Oluta", "lat": 17.928185, "lng": -94.896944
},{
"label": "El Manguito", "lat": 17.951787, "lng": -94.891763
},{
"label": "La Victoria", "lat": 17.92667, "lng": -94.88333
},{
"label": "San Joaquín", "lat": 17.89722, "lng": -94.94583
},{
"label": "La Gran J", "lat": 17.90417, "lng": -94.89139
},{
"label": "El Dorado", "lat": 17.912028, "lng": -94.937156
},{
"label": "El Novillero", "lat": 17.919804, "lng": -94.899707
},{
"label": "Correa de Abajo", "lat": 17.874377, "lng": -94.862601
},{
"label": "La Discordia", "lat": 17.941168, "lng": -94.882389
},{
"label": "Las Perlas", "lat": 17.90611, "lng": -94.89
},{
"label": "Sabaneta", "lat": 17.9257, "lng": -94.880802
},{
"label": "La Gloria", "lat": 17.89222, "lng": -94.89444
},{
"label": "El Mirador", "lat": 17.932513, "lng": -94.882319
},{
"label": "El Framboyán", "lat": 17.91105, "lng": -94.886317
},{
"label": "El Silbato", "lat": 17.888072, "lng": -94.87163
},{
"label": "Los Limones", "lat": 17.916571, "lng": -94.891116
},{
"label": "Buenavista", "lat": 17.953312, "lng": -94.869286
},{
"label": "San Ricardo", "lat": 17.907945, "lng": -94.877053
},{
"label": "San Jerónimo [Granja]", "lat": 17.921169, "lng": -94.887915
},{
"label": "Unidad Deportiva", "lat": 17.931233, "lng": -94.904922
},{
"label": "Los Laureles (La Normal)", "lat": 17.94306, "lng": -94.89361
},{
"label": "Marcelino Guillén", "lat": 17.868101, "lng": -94.907319
},{
"label": "La Yeguada", "lat": 17.876151, "lng": -94.923343
},{
"label": "Tres Ceibas", "lat": 17.866036, "lng": -94.903411
},{
"label": "Santa Teresa", "lat": 17.933908, "lng": -94.891073
},{
"label": "El Chorro", "lat": 17.919263, "lng": -94.884761
},{
"label": "Guadalupe Salcedo", "lat": 17.924623, "lng": -94.910434
},{
"label": "La Providencia", "lat": 17.907286, "lng": -94.882875
},{
"label": "El Cerrito", "lat": 17.889737, "lng": -94.893262
},{
"label": "Santa Fe", "lat": 17.926319, "lng": -94.878977
},{
"label": "Santa Teresita", "lat": 17.933013, "lng": -94.880016
},{
"label": "Santa María", "lat": 17.919139, "lng": -94.871296
},{
"label": "Colonia Esmeralda", "lat": 17.928704, "lng": -94.910451
},{
"label": "Colonia Olmeca", "lat": 17.936713, "lng": -94.908346
},{
"label": "Los Pinos", "lat": 17.924473, "lng": -94.927432
},{
"label": "San Ángel [Hotel]", "lat": 17.95278, "lng": -94.88278
},{
"label": "Ojapa", "lat": 17.899664, "lng": -94.867354
},{
"label": "La Colina Azul", "lat": 17.951223, "lng": -94.864341
},{
"label": "Rancho Santa Martha", "lat": 17.9225, "lng": -94.91917
},{
"label": "Rancho Retagio", "lat": 17.917553, "lng": -94.899408
},{
"label": "Santa Rosa", "lat": 17.954541, "lng": -94.858926
},{
"label": "Mundo Nuevo", "lat": 17.946815, "lng": -94.899253
},{
"label": "La Palma", "lat": 17.882723, "lng": -94.892394
},{
"label": "La Ciudad de los Niños [Albergue]", "lat": 17.923119, "lng": -94.874621
},{
"label": "Las Ánimas", "lat": 17.916574, "lng": -94.926535
},{
"label": "Samuel Blanco", "lat": 17.920593, "lng": -94.923633
},{
"label": "Finca Pineda [Restaurante]", "lat": 17.93179, "lng": -94.906534
},{
"label": "La Malinche", "lat": 17.902128, "lng": -94.877325
},{
"label": "Casa Blanca", "lat": 17.88836, "lng": -94.873327
},{
"label": "El Catorce", "lat": 17.919681, "lng": -94.870249
},{
"label": "Correa", "lat": 17.863782, "lng": -94.892429
},{
"label": "Las Bugambilias", "lat": 17.908046, "lng": -94.885374
},{
"label": "El Colorado", "lat": 17.947346, "lng": -94.882839
},{
"label": "San Martín", "lat": 17.935932, "lng": -94.855468
},{
"label": "Fiesta [Auto Hotel]", "lat": 17.953752, "lng": -94.863647
},{
"label": "La Macaya", "lat": 17.915033, "lng": -94.883441
},{
"label": "Los Laureles", "lat": 17.937966, "lng": -94.906416
},{
"label": "Predio Santa Sofía", "lat": 17.877983, "lng": -94.926324
},{
"label": "Loma Linda", "lat": 17.899023, "lng": -94.876615
},{
"label": "El Retiro", "lat": 17.887378, "lng": -94.86935
},{
"label": "Los Mangos", "lat": 17.954459, "lng": -94.857003
},{
"label": "El Ángel Gabriel", "lat": 17.938404, "lng": -94.882998
},{
"label": "El Encino", "lat": 17.871287, "lng": -94.910829
},{
"label": "San Carlos", "lat": 17.923135, "lng": -94.927524
},{
"label": "Zanja de Arena", "lat": 17.871734, "lng": -94.922696
},{
"label": "La Cruz", "lat": 17.90781, "lng": -94.88898
},{
"label": "Tenejapa", "lat": 17.893181, "lng": -94.869722
},{
"label": "Patolman", "lat": 17.951115, "lng": -94.868686
},{
"label": "San Antonio", "lat": 17.953534, "lng": -94.872339
},{
"label": "El Rubí", "lat": 17.933507, "lng": -94.908477
},{
"label": "Édiz Castillo Cruz", "lat": 17.901712, "lng": -94.912123
},{
"label": "La Cumbre", "lat": 17.919056, "lng": -94.866521
},{
"label": "La Divina Providencia", "lat": 17.92972, "lng": -94.91611
},{
"label": "Prolongación Hidalgo", "lat": 17.926635, "lng": -94.883861
},{
"label": "La Esperanza", "lat": 17.937756, "lng": -94.857381
},{
"label": "El Santísimo (San Manuel)", "lat": 17.909812, "lng": -94.907987
},{
"label": "Kilómetro Uno Carr. Acayucan Coatzacoalcos", "lat": 17.952106, "lng": -94.890611
},{
"label": "Ceiba Gacho", "lat": 17.895981, "lng": -94.891446
},{
"label": "Santa Elvia", "lat": 17.923682, "lng": -94.87461
},{
"label": "La Soledad", "lat": 17.873027, "lng": -94.892741
},{
"label": "La Gloria Dos", "lat": 17.885611, "lng": -94.893956
},{
"label": "Los Beduinos", "lat": 17.94444, "lng": -94.88278
},{
"label": "Los Leales", "lat": 17.914116, "lng": -94.886789
},{
"label": "El Porvenir", "lat": 17.94935, "lng": -94.881569
},{
"label": "Parada del Agente Viajero", "lat": 17.919468, "lng": -94.878086
},{
"label": "Rancho Salazar", "lat": 17.931634, "lng": -94.877279
},{
"label": "Los Tucanes", "lat": 17.906969, "lng": -94.880782
},{
"label": "Santa Anita", "lat": 17.9475, "lng": -94.88278
},{
"label": "Quinta el Zafiro", "lat": 17.93083, "lng": -94.90582
}]