[{
"label": "Faustino Enríquez", "lat": 21.889053, "lng": -98.098836
},{
"label": "Los Sierra", "lat": 21.797801, "lng": -97.758179
},{
"label": "Las Garzas", "lat": 21.719958, "lng": -98.045092
},{
"label": "El Canal", "lat": 21.750647, "lng": -98.097764
},{
"label": "Rancho Correa", "lat": 21.835049, "lng": -98.025355
},{
"label": "San Alfonso", "lat": 21.738351, "lng": -98.044121
},{
"label": "El Guayal", "lat": 21.650578, "lng": -97.925924
},{
"label": "El Jobo", "lat": 21.499034, "lng": -97.879706
},{
"label": "El Encantado", "lat": 21.789735, "lng": -97.916058
},{
"label": "El Faisán", "lat": 21.820486, "lng": -97.766422
},{
"label": "El Coyol", "lat": 21.478306, "lng": -97.869293
},{
"label": "Pedernal", "lat": 21.666998, "lng": -97.809255
},{
"label": "Palma Echada", "lat": 21.737303, "lng": -98.050112
},{
"label": "Las Rosas", "lat": 21.598725, "lng": -97.841218
},{
"label": "El Arbolito", "lat": 21.557701, "lng": -97.909845
},{
"label": "Campanario", "lat": 21.873512, "lng": -97.807704
},{
"label": "El Bohío", "lat": 21.776878, "lng": -97.993869
},{
"label": "Los Tulipanes", "lat": 21.681423, "lng": -98.111957
},{
"label": "La Medalla", "lat": 21.926633, "lng": -98.023081
},{
"label": "La Viuda", "lat": 21.777714, "lng": -98.083876
},{
"label": "Santa Fe", "lat": 21.678226, "lng": -98.090199
},{
"label": "El Capricho", "lat": 21.616473, "lng": -97.903291
},{
"label": "Puesto de Vigilancia (Isla Juan A. Ramírez)", "lat": 21.873146, "lng": -97.700139
},{
"label": "Las Adjuntas", "lat": 21.47731, "lng": -97.950981
},{
"label": "Kilómetro Cuarenta", "lat": 21.875673, "lng": -98.032876
},{
"label": "Divisiones", "lat": 21.534644, "lng": -97.844049
},{
"label": "García Covarrubias Uno", "lat": 21.627544, "lng": -97.910604
},{
"label": "Coloma", "lat": 21.847028, "lng": -97.890409
},{
"label": "La Palma", "lat": 21.846556, "lng": -98.059249
},{
"label": "El Copal (San Antonio)", "lat": 21.61905, "lng": -97.781641
},{
"label": "El Pato", "lat": 21.67055, "lng": -97.846105
},{
"label": "Palmas Pegadas", "lat": 21.745734, "lng": -97.964032
},{
"label": "Nuevo Santander", "lat": 21.68108, "lng": -97.855001
},{
"label": "Mosongo", "lat": 21.477925, "lng": -97.895401
},{
"label": "El Chijol", "lat": 21.849252, "lng": -98.067442
},{
"label": "La Garrocha", "lat": 21.631359, "lng": -97.911929
},{
"label": "Tancachil", "lat": 21.665528, "lng": -97.985706
},{
"label": "Granadilla Dos", "lat": 21.626925, "lng": -97.719302
},{
"label": "La Rusia", "lat": 21.882382, "lng": -97.954594
},{
"label": "El Púlpito", "lat": 21.616213, "lng": -97.965086
},{
"label": "La Estrella (San Ramón)", "lat": 21.847877, "lng": -97.964746
},{
"label": "Las Chacas", "lat": 21.623997, "lng": -97.876966
},{
"label": "Linda Vista", "lat": 21.717346, "lng": -97.793436
},{
"label": "Las Palmas Ocho", "lat": 21.71857, "lng": -98.038274
},{
"label": "José Luis Cervantes", "lat": 21.676458, "lng": -97.951178
},{
"label": "El Maguey", "lat": 21.449126, "lng": -97.882781
},{
"label": "Santa Diana", "lat": 21.758212, "lng": -97.852934
},{
"label": "Cuelmoloy", "lat": 21.52199, "lng": -97.920208
},{
"label": "El Cedral", "lat": 21.670328, "lng": -97.737813
},{
"label": "El Pocito", "lat": 21.503016, "lng": -97.942362
},{
"label": "El Cuarenta", "lat": 21.658555, "lng": -97.678847
},{
"label": "Paso Chacas", "lat": 21.682387, "lng": -97.806868
},{
"label": "Agua Marina", "lat": 21.774416, "lng": -97.859923
},{
"label": "El Manantial", "lat": 21.571419, "lng": -97.893672
},{
"label": "El Lindero", "lat": 21.630989, "lng": -97.870519
},{
"label": "La Fortaleza", "lat": 21.740316, "lng": -97.935082
},{
"label": "El Trébol (Rancho Pichucalco)", "lat": 21.807647, "lng": -97.77704
},{
"label": "Mata de Lima", "lat": 21.643316, "lng": -97.690044
},{
"label": "Los Framboyanes", "lat": 21.573173, "lng": -97.86783
},{
"label": "Alto del Moralito", "lat": 21.706064, "lng": -97.821032
},{
"label": "Loma Rica", "lat": 21.77804, "lng": -98.019796
},{
"label": "Rancho Tancled", "lat": 21.885483, "lng": -97.749337
},{
"label": "Constantino Pérez", "lat": 21.764737, "lng": -98.006231
},{
"label": "Tobalillo", "lat": 21.53811, "lng": -97.887471
},{
"label": "Las Gardenias", "lat": 21.602529, "lng": -97.872379
},{
"label": "Poza del Llano", "lat": 21.497639, "lng": -97.808493
},{
"label": "El Uveral", "lat": 21.437979, "lng": -97.8425
},{
"label": "Cinco Hermanos", "lat": 21.865025, "lng": -97.955667
},{
"label": "Pasarones", "lat": 21.656242, "lng": -97.924535
},{
"label": "Alto de los Ciruelos (La Conserva)", "lat": 21.662412, "lng": -97.863772
},{
"label": "El Esterillo", "lat": 21.831993, "lng": -97.935354
},{
"label": "El Guasimal", "lat": 21.658171, "lng": -97.880323
},{
"label": "La Cuchilla", "lat": 21.491519, "lng": -97.883824
},{
"label": "El Interés", "lat": 21.83921, "lng": -97.949488
},{
"label": "El Potrillo", "lat": 21.54512, "lng": -97.864463
},{
"label": "Traslomita", "lat": 21.470604, "lng": -97.89112
},{
"label": "La Maceta", "lat": 21.612515, "lng": -97.976782
},{
"label": "Los Montes", "lat": 21.482364, "lng": -97.844341
},{
"label": "Vista Hermosa", "lat": 21.541884, "lng": -97.745655
},{
"label": "Los Corchos", "lat": 21.878401, "lng": -97.73459
},{
"label": "Arturo Ortega", "lat": 21.64795, "lng": -97.691091
},{
"label": "Cue de la Machorra", "lat": 21.500854, "lng": -97.946669
},{
"label": "El Dos Copas", "lat": 21.716255, "lng": -97.965584
},{
"label": "El Confite", "lat": 21.55707, "lng": -97.938896
},{
"label": "Los Tres Polluelos", "lat": 21.667082, "lng": -97.780424
},{
"label": "Belisario Domínguez (San Gregorio)", "lat": 21.685194, "lng": -97.697682
},{
"label": "Los Linderos", "lat": 21.729738, "lng": -98.052193
},{
"label": "Villa Juárez", "lat": 21.561561, "lng": -97.922268
},{
"label": "Los Patitos", "lat": 21.717694, "lng": -97.821452
},{
"label": "Miralomas", "lat": 21.866421, "lng": -97.985199
},{
"label": "El Manzano", "lat": 21.919465, "lng": -98.071773
},{
"label": "El Espíritu", "lat": 21.512015, "lng": -97.872607
},{
"label": "El Tepetate", "lat": 21.670889, "lng": -97.731199
},{
"label": "El Vergel", "lat": 21.716122, "lng": -98.068802
},{
"label": "Las Flores", "lat": 21.602314, "lng": -97.847842
},{
"label": "Ejido Cebadilla (El Chichonal)", "lat": 21.8837, "lng": -98.004714
},{
"label": "La Limonaria", "lat": 21.627983, "lng": -97.958199
},{
"label": "La Arena", "lat": 21.639586, "lng": -97.700849
},{
"label": "La Casita", "lat": 21.881327, "lng": -98.034304
},{
"label": "El Beneficio", "lat": 21.71335, "lng": -98.137382
},{
"label": "Víctor Hernández del Ángel", "lat": 21.660469, "lng": -97.984058
},{
"label": "El Jazmín", "lat": 21.710054, "lng": -98.119706
},{
"label": "El Suspiro", "lat": 21.729681, "lng": -97.824687
},{
"label": "San Raymundo Loma Alta", "lat": 21.591875, "lng": -97.884129
},{
"label": "San Francisco", "lat": 21.616, "lng": -97.758561
},{
"label": "La Soledad", "lat": 21.54531, "lng": -97.899952
},{
"label": "Romerillos (Isla Juan A. Ramírez)", "lat": 21.79566, "lng": -97.676897
},{
"label": "El Encanto", "lat": 21.70643, "lng": -97.798889
},{
"label": "El Tratamiento", "lat": 21.875116, "lng": -97.746579
},{
"label": "Las Mandarinas", "lat": 21.479824, "lng": -97.896167
},{
"label": "La Enramada", "lat": 21.447263, "lng": -97.874125
},{
"label": "El Recuerdo", "lat": 21.566773, "lng": -97.938616
},{
"label": "Moralito", "lat": 21.549689, "lng": -97.872204
},{
"label": "El Clavelito", "lat": 21.609446, "lng": -97.85617
},{
"label": "El Paraíso", "lat": 21.522319, "lng": -97.949409
},{
"label": "Rancho Sinaí", "lat": 21.460591, "lng": -97.899578
},{
"label": "Las Moras", "lat": 21.510583, "lng": -97.92138
},{
"label": "El Kelly", "lat": 21.700228, "lng": -97.973639
},{
"label": "El Pinolillo", "lat": 21.835902, "lng": -97.953126
},{
"label": "Paso Nuevo", "lat": 21.635542, "lng": -97.76736
},{
"label": "La Lucha", "lat": 21.669348, "lng": -98.103668
},{
"label": "Las Gaviotas", "lat": 21.684241, "lng": -97.758799
},{
"label": "Santa Teresa", "lat": 21.76769, "lng": -98.052948
},{
"label": "Loma de la Ternera", "lat": 21.441992, "lng": -97.915066
},{
"label": "El Satélite", "lat": 21.908042, "lng": -98.030397
},{
"label": "Los Cubes", "lat": 21.681729, "lng": -98.068523
},{
"label": "La Pala", "lat": 21.668801, "lng": -97.984935
},{
"label": "Caracol San Manuel", "lat": 21.458999, "lng": -97.927121
},{
"label": "Mala Zanja", "lat": 21.659385, "lng": -97.736163
},{
"label": "San Ramón", "lat": 21.718725, "lng": -97.930203
},{
"label": "La Paloma (Rancho Paty)", "lat": 21.865105, "lng": -97.783196
},{
"label": "Las Breas", "lat": 21.585704, "lng": -97.952759
},{
"label": "Lutero Saldaña", "lat": 21.624244, "lng": -97.73039
},{
"label": "Monte Chiquito", "lat": 21.477739, "lng": -97.939617
},{
"label": "Nuevo Reposo", "lat": 21.500591, "lng": -97.881419
},{
"label": "El Martillo", "lat": 21.702698, "lng": -97.901802
},{
"label": "Los Aguilares", "lat": 21.703949, "lng": -97.887285
},{
"label": "La Risa", "lat": 21.814294, "lng": -97.974116
},{
"label": "El Moral", "lat": 21.703484, "lng": -98.058185
},{
"label": "La Tima", "lat": 21.907644, "lng": -98.015817
},{
"label": "El Edén", "lat": 21.803694, "lng": -97.959885
},{
"label": "Punta de Palomas (Isla Pérez)", "lat": 21.759081, "lng": -97.625009
},{
"label": "El Milagro (La Chuparrosa)", "lat": 21.590362, "lng": -97.903547
},{
"label": "Peña Negra", "lat": 21.709364, "lng": -97.880953
},{
"label": "La Mona", "lat": 21.521732, "lng": -97.900832
},{
"label": "La Peñita", "lat": 21.516414, "lng": -97.879676
},{
"label": "Santa Mariquita", "lat": 21.837467, "lng": -97.794561
},{
"label": "El Pabellón", "lat": 21.648596, "lng": -97.943739
},{
"label": "El Nopal", "lat": 21.935474, "lng": -98.023896
},{
"label": "El Alacrán", "lat": 21.904235, "lng": -97.817707
},{
"label": "Poza del Tule", "lat": 21.823359, "lng": -97.788521
},{
"label": "El Almendro", "lat": 21.566653, "lng": -97.919878
},{
"label": "Cerro Miranda", "lat": 21.714139, "lng": -97.788611
},{
"label": "El Vale", "lat": 21.853769, "lng": -98.019796
},{
"label": "Dolor de Cabeza (Isla Juan A. Ramírez)", "lat": 21.769516, "lng": -97.644841
},{
"label": "El Tablazo", "lat": 21.804423, "lng": -97.748284
},{
"label": "San José", "lat": 21.612324, "lng": -97.955884
},{
"label": "Mis Dos Amores", "lat": 21.909507, "lng": -97.734237
},{
"label": "Rincón Hondo", "lat": 21.673991, "lng": -97.836334
},{
"label": "Iglesia Vieja", "lat": 21.711902, "lng": -97.862922
},{
"label": "San Antonio Tamijui", "lat": 21.622918, "lng": -97.744281
},{
"label": "El Pretil", "lat": 21.492594, "lng": -97.937149
},{
"label": "La Perla", "lat": 21.794669, "lng": -97.937866
},{
"label": "Martha Belia", "lat": 21.838044, "lng": -97.776808
},{
"label": "Poza de la Piedra", "lat": 21.869155, "lng": -97.866026
},{
"label": "Higo Mocho", "lat": 21.47636, "lng": -97.923589
},{
"label": "La Buena Fe", "lat": 21.810437, "lng": -97.929392
},{
"label": "Lomas Limpias", "lat": 21.559355, "lng": -97.923807
},{
"label": "San Abraham", "lat": 21.507951, "lng": -97.900682
},{
"label": "Rincón Largo", "lat": 21.62454, "lng": -97.921754
},{
"label": "Los Cerritos", "lat": 21.677221, "lng": -97.819154
},{
"label": "El Huasteco", "lat": 21.505556, "lng": -97.914532
},{
"label": "La Camilla (Isla Juan A. Ramírez)", "lat": 21.785635, "lng": -97.671157
},{
"label": "La Ilusión", "lat": 21.451126, "lng": -97.886141
},{
"label": "San Vicente", "lat": 21.719839, "lng": -98.09161
},{
"label": "Laguna del Tule", "lat": 21.536808, "lng": -97.959906
},{
"label": "Coronel Francisco Esteban Mascareñas", "lat": 21.680121, "lng": -97.858461
},{
"label": "Españita", "lat": 21.752149, "lng": -97.737731
},{
"label": "Tres Potrillos", "lat": 21.493287, "lng": -97.827331
},{
"label": "Rafael Moreno Olivares", "lat": 21.586596, "lng": -97.749753
},{
"label": "Las Limonarias", "lat": 21.530981, "lng": -97.913544
},{
"label": "San Pablo", "lat": 21.654844, "lng": -97.79872
},{
"label": "San Javier", "lat": 21.876736, "lng": -97.853383
},{
"label": "El Regalo", "lat": 21.620217, "lng": -97.859653
},{
"label": "Las Bugambilias", "lat": 21.469209, "lng": -97.892354
},{
"label": "El Caracol", "lat": 21.457454, "lng": -97.921728
},{
"label": "Los Laureles", "lat": 21.577839, "lng": -97.888606
},{
"label": "El Chalahuite", "lat": 21.637688, "lng": -97.773498
},{
"label": "Marciano del Ángel", "lat": 21.715851, "lng": -98.062461
},{
"label": "Estación Chapancal", "lat": 21.907654, "lng": -98.032384
},{
"label": "El Palmito", "lat": 21.754239, "lng": -97.815709
},{
"label": "Alto de la Ceniza", "lat": 21.584122, "lng": -97.815909
},{
"label": "Guayales", "lat": 21.745481, "lng": -98.007897
},{
"label": "La Peña", "lat": 21.456162, "lng": -97.944913
},{
"label": "El Presidente", "lat": 21.913919, "lng": -97.732701
},{
"label": "Ilusión", "lat": 21.495686, "lng": -97.811046
},{
"label": "Santa Isabel", "lat": 21.694376, "lng": -97.743678
},{
"label": "La Gloria (La Sierrita)", "lat": 21.864527, "lng": -98.01729
},{
"label": "La Cirila", "lat": 21.534557, "lng": -97.898541
},{
"label": "Mata el Bejuco", "lat": 21.946176, "lng": -98.04982
},{
"label": "María de los Ángeles", "lat": 21.913744, "lng": -97.771543
},{
"label": "El Anhelo", "lat": 21.881773, "lng": -97.961497
},{
"label": "Andrés Lozano Betancourt", "lat": 21.566301, "lng": -97.837143
},{
"label": "Tanciatot", "lat": 21.798137, "lng": -98.103529
},{
"label": "La Jabonera (Isla Juan A. Ramírez)", "lat": 21.750169, "lng": -97.621842
},{
"label": "Cuatro Palmas Otatal", "lat": 21.554255, "lng": -97.835285
},{
"label": "Loma del Escarbado", "lat": 21.702882, "lng": -98.112314
},{
"label": "Buenos Aires (El Higo)", "lat": 21.418459, "lng": -97.956385
},{
"label": "El Aguacate", "lat": 21.650918, "lng": -97.777431
},{
"label": "El Retorno", "lat": 21.548258, "lng": -97.834771
},{
"label": "El Ocho", "lat": 21.480341, "lng": -97.940731
},{
"label": "Eulogio Solís (El Chaparral)", "lat": 21.655011, "lng": -97.95667
},{
"label": "Las Margaritas (La Bolsa)", "lat": 21.624714, "lng": -97.968207
},{
"label": "El Sitio", "lat": 21.555209, "lng": -97.969584
},{
"label": "El Sauce", "lat": 21.810388, "lng": -97.94086
},{
"label": "Punta de Loma Alta", "lat": 21.598691, "lng": -97.898859
},{
"label": "El Joss", "lat": 21.6479, "lng": -97.835148
},{
"label": "Rancho Xóchitl", "lat": 21.654471, "lng": -97.699708
},{
"label": "El Salto", "lat": 21.668184, "lng": -97.899447
},{
"label": "San Raymundo", "lat": 21.589378, "lng": -97.840468
},{
"label": "Nahuatlán", "lat": 21.921021, "lng": -98.048286
},{
"label": "San Martín Viñas", "lat": 21.711421, "lng": -98.09292
},{
"label": "La Ensenada", "lat": 21.908151, "lng": -97.870806
},{
"label": "El Quebrache", "lat": 21.531347, "lng": -97.789763
},{
"label": "El Oriente", "lat": 21.692647, "lng": -98.06215
},{
"label": "Santa Martha", "lat": 21.850789, "lng": -97.984218
},{
"label": "Rosa Fe", "lat": 21.609486, "lng": -97.748293
},{
"label": "Los Pocitos", "lat": 21.909765, "lng": -98.020239
},{
"label": "Raymundo Delgado", "lat": 21.633569, "lng": -97.826736
},{
"label": "El Otate", "lat": 21.649146, "lng": -97.815641
},{
"label": "Santa Alicia", "lat": 21.747316, "lng": -98.042874
},{
"label": "San Luis", "lat": 21.916069, "lng": -97.762058
},{
"label": "Taninul", "lat": 21.519077, "lng": -97.869103
},{
"label": "Las Imeldas", "lat": 21.895889, "lng": -97.991484
},{
"label": "La Fortuna", "lat": 21.580596, "lng": -97.837727
},{
"label": "El Jagüey", "lat": 21.677312, "lng": -97.926383
},{
"label": "Rosario Quelantaén", "lat": 21.730004, "lng": -97.832846
},{
"label": "El Coyolar", "lat": 21.931079, "lng": -97.980725
},{
"label": "Algodonal", "lat": 21.681542, "lng": -98.12144
},{
"label": "Sotero Ortiz", "lat": 21.584209, "lng": -97.801303
},{
"label": "Los Brazos", "lat": 21.72338, "lng": -97.828933
},{
"label": "Los Piales", "lat": 21.859459, "lng": -97.9852
},{
"label": "Cuatro Caminos", "lat": 21.506459, "lng": -97.919111
},{
"label": "Las Hermanas", "lat": 21.718607, "lng": -97.888128
},{
"label": "El Capullo", "lat": 21.545068, "lng": -97.911936
},{
"label": "Las Isabelas", "lat": 21.831111, "lng": -98.025833
},{
"label": "Cruz Blanca", "lat": 21.637114, "lng": -97.939586
},{
"label": "Mirador Viejo", "lat": 21.738264, "lng": -98.098399
},{
"label": "Santa Clara", "lat": 21.517856, "lng": -97.824888
},{
"label": "San Ernesto", "lat": 21.753831, "lng": -98.11706
},{
"label": "El Dátil", "lat": 21.471898, "lng": -97.883741
},{
"label": "Doña Esther", "lat": 21.793685, "lng": -97.835415
},{
"label": "El Venadito", "lat": 21.622668, "lng": -97.939992
},{
"label": "La Isleta", "lat": 21.453713, "lng": -97.972468
},{
"label": "San Carlos", "lat": 21.837376, "lng": -98.022594
},{
"label": "Paso Piedras", "lat": 21.638922, "lng": -97.837219
},{
"label": "La Azucena", "lat": 21.70283, "lng": -97.796
},{
"label": "El Torito", "lat": 21.443076, "lng": -97.879569
},{
"label": "Arroyo Viejo", "lat": 21.695189, "lng": -97.830146
},{
"label": "Víctor Santiago", "lat": 21.582865, "lng": -97.837788
},{
"label": "Santa Oralia", "lat": 21.751771, "lng": -98.121297
},{
"label": "Palma Sola", "lat": 21.533914, "lng": -97.756728
},{
"label": "La Piedra", "lat": 21.693281, "lng": -97.714007
},{
"label": "El Tesoro", "lat": 21.824611, "lng": -97.941195
},{
"label": "El Cantil", "lat": 21.832508, "lng": -98.079573
},{
"label": "La Peñita (Las Lajas)", "lat": 21.562643, "lng": -97.934801
},{
"label": "El Triangulito", "lat": 21.714441, "lng": -97.991719
},{
"label": "Otatal", "lat": 21.55985, "lng": -97.831658
},{
"label": "El Coposo", "lat": 21.829827, "lng": -97.921534
},{
"label": "Los Lirios", "lat": 21.735178, "lng": -98.087919
},{
"label": "Tres Hermanos", "lat": 21.458329, "lng": -97.918981
},{
"label": "Los Canales", "lat": 21.737403, "lng": -98.133842
},{
"label": "Santa Anita", "lat": 21.896245, "lng": -97.908733
},{
"label": "San Luciano", "lat": 21.825626, "lng": -97.731666
},{
"label": "El Escondido", "lat": 21.763143, "lng": -98.030727
},{
"label": "El Horcón (Isla Juan A. Ramírez)", "lat": 21.812449, "lng": -97.680433
},{
"label": "El Capitán", "lat": 21.738712, "lng": -97.838078
},{
"label": "Cabeza de Vaca", "lat": 21.644024, "lng": -97.8336
},{
"label": "El Galeno", "lat": 21.740123, "lng": -97.945906
},{
"label": "Cuauhtémoc Toledo", "lat": 21.713729, "lng": -97.940554
},{
"label": "Santa Leticia", "lat": 21.697511, "lng": -97.861472
},{
"label": "Palmarillo", "lat": 21.441673, "lng": -97.949741
},{
"label": "Los Naranjos", "lat": 21.671876, "lng": -97.891448
},{
"label": "La Nueva Reforma", "lat": 21.794588, "lng": -97.887414
},{
"label": "La Espiga (La Tortilla)", "lat": 21.839009, "lng": -97.967463
},{
"label": "El Gavilán", "lat": 21.671082, "lng": -97.767026
},{
"label": "Crisóforo Delgado", "lat": 21.751984, "lng": -98.121056
},{
"label": "La Lima (El Jobo)", "lat": 21.416645, "lng": -97.956136
},{
"label": "Chijolar", "lat": 21.654484, "lng": -97.901164
},{
"label": "Mata de Jacube", "lat": 21.948537, "lng": -98.033079
},{
"label": "Colonia las Palmeras", "lat": 21.681634, "lng": -97.860227
},{
"label": "Piedra de Cal", "lat": 21.65058, "lng": -97.85063
},{
"label": "Palma Echada II", "lat": 21.738811, "lng": -98.035798
},{
"label": "Dolor de Cabeza", "lat": 21.641527, "lng": -97.925766
},{
"label": "El Zorro", "lat": 21.824348, "lng": -97.771042
},{
"label": "Las Lilas", "lat": 21.780102, "lng": -97.710794
},{
"label": "Raúl Zarate", "lat": 21.641913, "lng": -97.884773
},{
"label": "Ampliación el Anono (Pinta Monos)", "lat": 21.550165, "lng": -97.736818
},{
"label": "Alto del Tigre", "lat": 21.642035, "lng": -97.670101
},{
"label": "El Polvorín", "lat": 21.826381, "lng": -98.022455
},{
"label": "Loma el Higo", "lat": 21.550868, "lng": -97.932004
},{
"label": "El Canario", "lat": 21.419378, "lng": -97.949894
},{
"label": "Hermanos Hernández", "lat": 21.679249, "lng": -97.946272
},{
"label": "La Muralla", "lat": 21.485437, "lng": -97.921191
},{
"label": "Rancho Viejo", "lat": 21.871363, "lng": -97.948891
},{
"label": "Tan-Yam", "lat": 21.688136, "lng": -97.860212
},{
"label": "Kilómetro Cuarenta y Uno", "lat": 21.864519, "lng": -98.019662
},{
"label": "Rancho Nuevo (Santa Dalia)", "lat": 21.680378, "lng": -97.951465
},{
"label": "Maracuyá", "lat": 21.607849, "lng": -97.828984
},{
"label": "Piedra Labrada", "lat": 21.510824, "lng": -97.915485
},{
"label": "Martín Viñas", "lat": 21.710322, "lng": -98.096046
},{
"label": "San Ángel", "lat": 21.735274, "lng": -97.890306
},{
"label": "La Amapola", "lat": 21.446641, "lng": -97.913906
},{
"label": "El Sacrificio", "lat": 21.506423, "lng": -97.896669
},{
"label": "La Rosa", "lat": 21.804586, "lng": -97.989143
},{
"label": "Los Ebanitos", "lat": 21.924345, "lng": -98.035838
},{
"label": "La Gota", "lat": 21.721162, "lng": -97.990065
},{
"label": "El Desengaño", "lat": 21.505452, "lng": -97.886973
},{
"label": "La Posada", "lat": 21.849209, "lng": -97.798941
},{
"label": "El Coyote", "lat": 21.532158, "lng": -97.884727
},{
"label": "El Relicario", "lat": 21.733947, "lng": -97.971145
},{
"label": "Tres Higos", "lat": 21.494677, "lng": -97.919263
},{
"label": "La Laja", "lat": 21.680539, "lng": -97.694936
},{
"label": "Las Borregas (Las Rosas)", "lat": 21.46764, "lng": -97.925872
},{
"label": "La Puente Chiquita", "lat": 21.6766, "lng": -97.79095
},{
"label": "Montenegro", "lat": 21.534089, "lng": -97.767726
},{
"label": "La Gramilla", "lat": 21.736555, "lng": -97.851342
},{
"label": "Pinos Altos", "lat": 21.574131, "lng": -97.868256
},{
"label": "La Victoria", "lat": 21.657744, "lng": -97.912501
},{
"label": "Los Azahares", "lat": 21.515916, "lng": -97.904009
},{
"label": "Edmundo Barragán", "lat": 21.90274, "lng": -97.923331
},{
"label": "El Rosario", "lat": 21.571696, "lng": -97.842499
},{
"label": "La Sombrilla", "lat": 21.848021, "lng": -98.076229
},{
"label": "San Diego", "lat": 21.558178, "lng": -97.882744
},{
"label": "Caracol Capilla", "lat": 21.462544, "lng": -97.923976
},{
"label": "El Mercado", "lat": 21.501005, "lng": -97.915274
},{
"label": "Potrero las Casas", "lat": 21.663758, "lng": -97.703109
},{
"label": "Buenavista", "lat": 21.539391, "lng": -97.905836
},{
"label": "Voladores", "lat": 21.663373, "lng": -97.953016
},{
"label": "Santa Fe (Isla Juan A. Ramírez)", "lat": 21.774125, "lng": -97.647125
},{
"label": "Buena Vista", "lat": 21.67255, "lng": -97.821643
},{
"label": "La Chaca", "lat": 21.737814, "lng": -98.124865
},{
"label": "Los Cedros", "lat": 21.749962, "lng": -97.841364
},{
"label": "Zanja Honda", "lat": 21.920081, "lng": -98.021699
},{
"label": "Alto los Novios", "lat": 21.807792, "lng": -97.99507
},{
"label": "Los Parajes", "lat": 21.76736, "lng": -97.927782
},{
"label": "La Manzana", "lat": 21.798434, "lng": -97.774409
},{
"label": "La Cuina", "lat": 21.689623, "lng": -98.058133
},{
"label": "Los Naranjos (El Torito)", "lat": 21.450968, "lng": -97.881028
},{
"label": "El Jefe", "lat": 21.812372, "lng": -97.906827
},{
"label": "Las Chaquitas", "lat": 21.824719, "lng": -97.998548
},{
"label": "La Flor", "lat": 21.819657, "lng": -98.021276
},{
"label": "Las Conchitas", "lat": 21.676726, "lng": -98.118772
},{
"label": "El Higo Cofetillo", "lat": 21.433522, "lng": -97.95493
},{
"label": "El Jalisco", "lat": 21.654022, "lng": -97.908155
},{
"label": "Palmas Altas", "lat": 21.68195, "lng": -98.09583
},{
"label": "Alto del Mezquite", "lat": 21.87783, "lng": -97.877451
},{
"label": "San Fernando", "lat": 21.903985, "lng": -97.850519
},{
"label": "El Apuro (El Orejón)", "lat": 21.623378, "lng": -97.911871
},{
"label": "Santa Rosa", "lat": 21.696076, "lng": -98.037931
},{
"label": "Palo Picado", "lat": 21.791092, "lng": -97.882179
},{
"label": "Santa Loris", "lat": 21.864864, "lng": -98.001564
},{
"label": "La Granadilla", "lat": 21.657248, "lng": -97.884452
},{
"label": "El Terminal", "lat": 21.682122, "lng": -98.112059
},{
"label": "Jagüeyes", "lat": 21.775692, "lng": -97.959704
},{
"label": "El Naranjito", "lat": 21.674912, "lng": -97.98215
},{
"label": "Las Palmas", "lat": 21.51267, "lng": -97.827305
},{
"label": "El Bayo", "lat": 21.660515, "lng": -97.876941
},{
"label": "El Pequeño", "lat": 21.855249, "lng": -97.853159
},{
"label": "La Duda", "lat": 21.799485, "lng": -97.942585
},{
"label": "La Magdalena", "lat": 21.615946, "lng": -97.910731
},{
"label": "El Carrizal (Isla Juan A. Ramírez)", "lat": 21.733228, "lng": -97.628796
},{
"label": "Chewis", "lat": 21.769536, "lng": -98.042018
},{
"label": "El Tecomate", "lat": 21.655175, "lng": -97.950337
},{
"label": "Frontón (Isla Frontón)", "lat": 21.795762, "lng": -97.642125
},{
"label": "El Chijolito", "lat": 21.637921, "lng": -97.951102
},{
"label": "Los Reyes", "lat": 21.536723, "lng": -97.851287
},{
"label": "La Maroma", "lat": 21.782769, "lng": -97.752125
},{
"label": "Los Caireles", "lat": 21.602167, "lng": -97.84219
},{
"label": "Santa Trinidad", "lat": 21.682999, "lng": -97.719786
},{
"label": "Las Piedras", "lat": 21.563387, "lng": -97.878527
},{
"label": "La Reforma Tres", "lat": 21.584039, "lng": -97.747506
},{
"label": "Pedro Ramírez", "lat": 21.638105, "lng": -97.837219
},{
"label": "Chaca del Clavo", "lat": 21.816331, "lng": -97.898547
},{
"label": "La Gardenia", "lat": 21.713499, "lng": -97.797546
},{
"label": "El Naranjal", "lat": 21.501731, "lng": -97.967741
},{
"label": "Rancho Nuevo", "lat": 21.724517, "lng": -98.097015
},{
"label": "Paso de Tancolol", "lat": 21.621311, "lng": -97.695278
},{
"label": "Kilómetro Cincuenta y Tres", "lat": 21.76412, "lng": -97.991431
},{
"label": "La Pastilla", "lat": 21.843609, "lng": -97.749764
},{
"label": "San Salvador", "lat": 21.690117, "lng": -97.870441
},{
"label": "Las Delicias", "lat": 21.734347, "lng": -97.872205
},{
"label": "Dos Ebanitos", "lat": 21.424548, "lng": -97.959091
},{
"label": "Los Rosales", "lat": 21.553659, "lng": -97.852014
},{
"label": "El Becerro", "lat": 21.640973, "lng": -97.977532
},{
"label": "El Purgatorio", "lat": 21.554971, "lng": -97.731106
},{
"label": "La Distancia", "lat": 21.681102, "lng": -98.094463
},{
"label": "La Estrella", "lat": 21.944146, "lng": -98.002896
},{
"label": "El Jabo", "lat": 21.672471, "lng": -98.093314
},{
"label": "Los Morales", "lat": 21.665683, "lng": -97.719559
},{
"label": "El Naranjo", "lat": 21.605349, "lng": -97.783378
},{
"label": "La Pluma", "lat": 21.505608, "lng": -97.799517
},{
"label": "Laberinto", "lat": 21.8233, "lng": -97.894382
},{
"label": "San Pedro", "lat": 21.464133, "lng": -97.965373
},{
"label": "Trocadero", "lat": 21.783385, "lng": -97.893749
},{
"label": "El Clavo de Oro", "lat": 21.654194, "lng": -97.707524
},{
"label": "La Sauceda", "lat": 21.837784, "lng": -98.026737
},{
"label": "Los Cuatitos", "lat": 21.478138, "lng": -97.976718
},{
"label": "Los Ojites (Paraíso)", "lat": 21.936746, "lng": -98.059721
},{
"label": "El Clavel", "lat": 21.711332, "lng": -97.988989
},{
"label": "El Jarillal", "lat": 21.552912, "lng": -97.873339
},{
"label": "El Sable", "lat": 21.681254, "lng": -97.962075
},{
"label": "La Arboleda", "lat": 21.741229, "lng": -98.095882
},{
"label": "El Ebanito", "lat": 21.725385, "lng": -98.061287
},{
"label": "Kilómetro Cincuenta y Cinco (El Árbolito)", "lat": 21.750079, "lng": -97.986116
},{
"label": "Cerro del Pozo", "lat": 21.917442, "lng": -97.954885
},{
"label": "San Crisógono", "lat": 21.749674, "lng": -97.699044
},{
"label": "Rancho Vijarras", "lat": 21.494849, "lng": -97.974439
},{
"label": "El Castillo", "lat": 21.4342, "lng": -97.948079
},{
"label": "El Tule", "lat": 21.527512, "lng": -97.950338
},{
"label": "Los Papanes", "lat": 21.898029, "lng": -97.999665
},{
"label": "La Mata del Limón", "lat": 21.711389, "lng": -97.737796
},{
"label": "Palo Azul", "lat": 21.68077, "lng": -97.966602
},{
"label": "La Campechana", "lat": 21.534136, "lng": -97.928562
},{
"label": "El Progreso (Bejuco)", "lat": 21.802287, "lng": -97.951443
},{
"label": "La Ley", "lat": 21.611752, "lng": -97.853377
},{
"label": "El Bordón (El Cepillo)", "lat": 21.695777, "lng": -97.717909
},{
"label": "Uña de Gato", "lat": 21.85075, "lng": -97.772981
},{
"label": "Picholco", "lat": 21.53016, "lng": -97.947668
},{
"label": "La Brecha", "lat": 21.424835, "lng": -97.938491
},{
"label": "La Llave", "lat": 21.88438, "lng": -97.87396
},{
"label": "Santa Patricia", "lat": 21.686093, "lng": -97.957781
},{
"label": "Horconcitos", "lat": 21.854083, "lng": -97.742614
},{
"label": "Los Arbolitos", "lat": 21.775112, "lng": -97.78091
},{
"label": "El As de Oros", "lat": 21.733926, "lng": -98.136939
},{
"label": "San Carlos (El Retiro)", "lat": 21.85032, "lng": -97.929169
},{
"label": "Los Arroyos", "lat": 21.73153, "lng": -97.758441
},{
"label": "El Chapopote", "lat": 21.485008, "lng": -97.953394
},{
"label": "Las Cañas", "lat": 21.617685, "lng": -97.850469
},{
"label": "Altamira", "lat": 21.660566, "lng": -97.96417
},{
"label": "San Lázaro", "lat": 21.493599, "lng": -97.950455
},{
"label": "La Bolsa (Raya la Bolsa)", "lat": 21.935825, "lng": -97.985555
},{
"label": "Culmachete", "lat": 21.763927, "lng": -97.983326
},{
"label": "La Noria", "lat": 21.823749, "lng": -97.950081
},{
"label": "Los Jobos", "lat": 21.84488, "lng": -97.914834
},{
"label": "Hermanos Gómez", "lat": 21.808152, "lng": -97.719343
},{
"label": "Los Higuitos", "lat": 21.67176, "lng": -97.870979
},{
"label": "Alta Vista", "lat": 21.921011, "lng": -98.037266
},{
"label": "Los Limones", "lat": 21.525959, "lng": -97.965972
},{
"label": "Los Cerros", "lat": 21.518723, "lng": -97.8776
},{
"label": "Arroyo San Antonio", "lat": 21.615866, "lng": -97.778783
},{
"label": "Rancho Tamontao", "lat": 21.471774, "lng": -97.851038
},{
"label": "Tamchex", "lat": 21.733746, "lng": -97.898174
},{
"label": "La Semilla", "lat": 21.743278, "lng": -97.931838
},{
"label": "Alto del Pozo Viejo", "lat": 21.654445, "lng": -97.746166
},{
"label": "Las Milpas (Isla Juan A. Ramírez)", "lat": 21.739646, "lng": -97.630888
},{
"label": "Dos Hermanos", "lat": 21.600651, "lng": -97.844591
},{
"label": "La Laguna de Choznoco", "lat": 21.603075, "lng": -97.955076
},{
"label": "Alto el Encantado", "lat": 21.789956, "lng": -97.919482
},{
"label": "El Jardín", "lat": 21.833744, "lng": -97.951587
},{
"label": "El Coral", "lat": 21.553301, "lng": -97.844599
},{
"label": "Las Momias", "lat": 21.876452, "lng": -97.984701
},{
"label": "Los Arrieros", "lat": 21.840841, "lng": -98.023436
},{
"label": "Tampajulán", "lat": 21.648614, "lng": -97.823833
},{
"label": "El Wiski", "lat": 21.712195, "lng": -97.86206
},{
"label": "El Cerro de Mechas", "lat": 21.596668, "lng": -97.918806
},{
"label": "Dos Arbolitos", "lat": 21.721504, "lng": -97.983659
},{
"label": "El Palmar", "lat": 21.600908, "lng": -97.955756
},{
"label": "Santa Irene", "lat": 21.596569, "lng": -97.926004
},{
"label": "El Rosillo", "lat": 21.471161, "lng": -97.949948
},{
"label": "El Olivar", "lat": 21.475305, "lng": -97.843609
},{
"label": "El Uverito", "lat": 21.638933, "lng": -97.919525
},{
"label": "La Florida", "lat": 21.669299, "lng": -97.911314
},{
"label": "Granadillo", "lat": 21.531027, "lng": -97.83853
},{
"label": "El Retoño", "lat": 21.924785, "lng": -98.031344
},{
"label": "El Encino", "lat": 21.580619, "lng": -97.751513
},{
"label": "Palmira", "lat": 21.72156, "lng": -98.118815
},{
"label": "La Ternera", "lat": 21.441376, "lng": -97.921423
},{
"label": "Loma Alta", "lat": 21.751078, "lng": -97.878444
},{
"label": "El Martirio (Kilómetro 75)", "lat": 21.58949, "lng": -97.962604
},{
"label": "La Estrellita (El Uveral)", "lat": 21.685713, "lng": -97.853163
},{
"label": "El Zapotito", "lat": 21.677074, "lng": -97.719558
},{
"label": "El Sesenta", "lat": 21.729183, "lng": -97.700321
},{
"label": "Sal si Puedes (Frutilandia)", "lat": 21.88497, "lng": -97.926265
},{
"label": "Paso del Mante", "lat": 21.638394, "lng": -97.68028
},{
"label": "Dos Caminos", "lat": 21.607991, "lng": -97.887674
},{
"label": "Las Borregas", "lat": 21.462765, "lng": -97.91959
},{
"label": "La Loza", "lat": 21.683534, "lng": -98.121404
},{
"label": "Tancusay (Isla Juan A. Ramírez) [Ganadera]", "lat": 21.730651, "lng": -97.617787
},{
"label": "Lomacruz", "lat": 21.689242, "lng": -97.848858
},{
"label": "Los Zavales", "lat": 21.799647, "lng": -97.799375
},{
"label": "El Limón", "lat": 21.569234, "lng": -97.766656
},{
"label": "La Tulia", "lat": 21.500988, "lng": -97.887801
},{
"label": "El Gran Chaparral", "lat": 21.527258, "lng": -97.918587
},{
"label": "La Bartolina", "lat": 21.684198, "lng": -97.780805
},{
"label": "El Solito", "lat": 21.785897, "lng": -97.988042
},{
"label": "Mata de San José", "lat": 21.697152, "lng": -97.755114
},{
"label": "La Norma", "lat": 21.788323, "lng": -98.044563
},{
"label": "El Rocío", "lat": 21.735499, "lng": -98.003118
},{
"label": "Ave Fénix", "lat": 21.433642, "lng": -97.955156
},{
"label": "San Miguel", "lat": 21.776508, "lng": -98.034574
},{
"label": "Santa Ramona", "lat": 21.608549, "lng": -97.847366
},{
"label": "El Sur", "lat": 21.787806, "lng": -97.874193
},{
"label": "Palihuiche", "lat": 21.822309, "lng": -97.764604
},{
"label": "El Cedrito", "lat": 21.562014, "lng": -97.924198
},{
"label": "El Nivel", "lat": 21.719036, "lng": -97.966599
},{
"label": "Loma Larga", "lat": 21.729063, "lng": -97.979063
},{
"label": "Los Pescadores", "lat": 21.71339, "lng": -98.143138
},{
"label": "El Zapote", "lat": 21.525674, "lng": -97.808464
},{
"label": "Seis Hermanos", "lat": 21.491866, "lng": -97.962049
},{
"label": "Rancho Mileniun", "lat": 21.744443, "lng": -97.712026
},{
"label": "El Chote", "lat": 21.688534, "lng": -97.83717
},{
"label": "El Girasol", "lat": 21.501879, "lng": -97.811891
},{
"label": "El León", "lat": 21.678086, "lng": -97.969757
},{
"label": "Santa Rosa (Los Chotes)", "lat": 21.694491, "lng": -97.766448
},{
"label": "Rancho Encarnación", "lat": 21.911749, "lng": -97.844045
},{
"label": "Potrerillos", "lat": 21.7337, "lng": -97.801004
},{
"label": "El Triángulo", "lat": 21.564724, "lng": -97.927051
},{
"label": "La Quebrachita", "lat": 21.520178, "lng": -97.930089
},{
"label": "Tecomate", "lat": 21.740756, "lng": -98.115374
},{
"label": "El Chijolar", "lat": 21.646116, "lng": -97.922986
},{
"label": "Las Lomas", "lat": 21.762885, "lng": -98.002364
},{
"label": "Las Torres", "lat": 21.914389, "lng": -97.976903
},{
"label": "Los Pinos", "lat": 21.705052, "lng": -97.990216
},{
"label": "San Jorge", "lat": 21.74547, "lng": -97.900952
},{
"label": "Rancho Luna", "lat": 21.508916, "lng": -97.894085
},{
"label": "Palo Gordo", "lat": 21.660579, "lng": -97.806682
},{
"label": "Cazadero", "lat": 21.907339, "lng": -97.771148
},{
"label": "La Sofía", "lat": 21.855337, "lng": -97.737113
},{
"label": "El Mezquital", "lat": 21.53507, "lng": -97.961808
},{
"label": "La Labor", "lat": 21.886423, "lng": -97.873267
},{
"label": "La Ceiba", "lat": 21.684694, "lng": -97.846081
},{
"label": "Presa de Chicayán", "lat": 21.732389, "lng": -98.140246
},{
"label": "San Martín", "lat": 21.757833, "lng": -98.060319
},{
"label": "Potrerillo", "lat": 21.760771, "lng": -97.800401
},{
"label": "Coloradas", "lat": 21.876879, "lng": -98.012384
},{
"label": "Las Maravillas", "lat": 21.559989, "lng": -97.836902
},{
"label": "El Cometa", "lat": 21.475639, "lng": -97.966028
},{
"label": "San Crispín", "lat": 21.831038, "lng": -97.891227
},{
"label": "Agua Nacida", "lat": 21.622151, "lng": -97.794515
},{
"label": "Las Palmas (Divisiones el Metate)", "lat": 21.41286, "lng": -97.96079
},{
"label": "El Progreso", "lat": 21.525848, "lng": -97.940829
},{
"label": "El Mango", "lat": 21.442418, "lng": -97.874438
},{
"label": "Hermanos Medina", "lat": 21.806479, "lng": -97.842205
},{
"label": "Los Chotes", "lat": 21.542897, "lng": -97.891649
},{
"label": "Los Corrales", "lat": 21.765273, "lng": -97.794784
},{
"label": "Felipe del Ángel (La Chuparrosa)", "lat": 21.587066, "lng": -97.910757
},{
"label": "Cerro Paile", "lat": 21.641929, "lng": -97.803693
},{
"label": "Los Fresnos", "lat": 21.677219, "lng": -97.86333
},{
"label": "Ganado Selecto", "lat": 21.830632, "lng": -97.760972
},{
"label": "Los Piñones", "lat": 21.812974, "lng": -97.960402
},{
"label": "Santa Gertrudis", "lat": 21.816995, "lng": -97.808374
},{
"label": "Rancho Copacabana", "lat": 21.787076, "lng": -97.773653
},{
"label": "El Atorón", "lat": 21.52829, "lng": -97.961627
},{
"label": "Victorino Gamboa (El Pabellón)", "lat": 21.645258, "lng": -97.929543
},{
"label": "Estación Cebadilla", "lat": 21.887172, "lng": -98.034612
},{
"label": "Chaca Gorda", "lat": 21.681087, "lng": -98.083395
},{
"label": "Cuesitos", "lat": 21.883457, "lng": -98.007831
},{
"label": "Los Higueros", "lat": 21.632066, "lng": -97.971284
},{
"label": "La Coma", "lat": 21.770579, "lng": -97.703488
},{
"label": "La Mata", "lat": 21.709207, "lng": -97.783108
},{
"label": "El Reposo", "lat": 21.483928, "lng": -97.971629
},{
"label": "El Pozo", "lat": 21.452078, "lng": -97.920606
},{
"label": "La Gloria", "lat": 21.870104, "lng": -97.791748
},{
"label": "La Alcancía", "lat": 21.78163, "lng": -97.776979
},{
"label": "Loma de los Toros", "lat": 21.916046, "lng": -97.987365
},{
"label": "Héctor López", "lat": 21.814572, "lng": -97.859444
},{
"label": "El Manguito (El Chote)", "lat": 21.426695, "lng": -97.939126
},{
"label": "San Isidro", "lat": 21.609631, "lng": -97.89952
},{
"label": "Caballo Bayo", "lat": 21.74176, "lng": -97.807749
},{
"label": "San Dieguito", "lat": 21.524129, "lng": -97.893331
},{
"label": "Reynerito", "lat": 21.613704, "lng": -97.921168
},{
"label": "Ebenezer", "lat": 21.455923, "lng": -97.957473
},{
"label": "Estación Placetas", "lat": 21.627555, "lng": -97.970873
},{
"label": "Loma del Tigre", "lat": 21.924475, "lng": -97.998899
},{
"label": "Las Piochas", "lat": 21.484851, "lng": -97.966518
},{
"label": "Darío González González", "lat": 21.655017, "lng": -97.692683
},{
"label": "El Pirul", "lat": 21.589621, "lng": -97.897274
},{
"label": "Rancho Santellán", "lat": 21.631764, "lng": -97.837486
},{
"label": "El Cinco", "lat": 21.816989, "lng": -97.814101
},{
"label": "El Mejorado", "lat": 21.926494, "lng": -97.950349
},{
"label": "Pablo Ánimas (El Triunfo)", "lat": 21.703912, "lng": -97.969011
},{
"label": "El Conque", "lat": 21.710973, "lng": -97.989656
},{
"label": "El Ebanal", "lat": 21.660998, "lng": -97.866308
},{
"label": "San Francisco (El Rincón)", "lat": 21.478806, "lng": -97.826557
},{
"label": "Terrero", "lat": 21.726596, "lng": -97.828303
},{
"label": "Saúl Flores Rodríguez", "lat": 21.586422, "lng": -97.835293
},{
"label": "El Mirador (Monte Cañón)", "lat": 21.839485, "lng": -97.893254
},{
"label": "Las Palmeras", "lat": 21.683219, "lng": -97.820129
},{
"label": "San Nicolás", "lat": 21.722248, "lng": -97.90411
},{
"label": "Santa Rita", "lat": 21.535769, "lng": -97.874514
},{
"label": "Santa Carlota", "lat": 21.785299, "lng": -97.757321
},{
"label": "Buenos Aires", "lat": 21.812904, "lng": -97.881087
},{
"label": "El Coyolar (Isla Juan A. Ramírez)", "lat": 21.863144, "lng": -97.693976
},{
"label": "Pedro Cárdenas", "lat": 21.642818, "lng": -97.933258
},{
"label": "La Ceiba (Isla Juan A. Ramírez)", "lat": 21.759788, "lng": -97.657673
},{
"label": "Palo Blanco", "lat": 21.64375, "lng": -97.790929
},{
"label": "El Trompito", "lat": 21.760577, "lng": -98.062871
},{
"label": "Magueyes", "lat": 21.908278, "lng": -98.010193
},{
"label": "El Paraíso Dos", "lat": 21.807201, "lng": -97.909762
},{
"label": "El Jaral", "lat": 21.464596, "lng": -97.978512
},{
"label": "Las Nanis", "lat": 21.825968, "lng": -97.815133
},{
"label": "La Retama", "lat": 21.440923, "lng": -97.871927
},{
"label": "The Three Ranch", "lat": 21.717562, "lng": -98.008616
},{
"label": "Los Olivos", "lat": 21.520839, "lng": -97.863493
},{
"label": "San Antonio", "lat": 21.868909, "lng": -98.031561
},{
"label": "Rancho Horconcitos", "lat": 21.819199, "lng": -97.762849
},{
"label": "La Bolsa", "lat": 21.871378, "lng": -97.858982
},{
"label": "Cahuayotes", "lat": 21.872616, "lng": -97.934206
},{
"label": "El Zapote (Verónico Loaiza)", "lat": 21.623434, "lng": -97.730526
},{
"label": "El Renovo", "lat": 21.599108, "lng": -97.910101
},{
"label": "El Texano (El Coyol)", "lat": 21.751067, "lng": -98.076483
},{
"label": "El Porvenir", "lat": 21.858079, "lng": -97.749293
},{
"label": "Altavista", "lat": 21.672611, "lng": -97.798198
},{
"label": "Tres Naranjos", "lat": 21.479996, "lng": -97.931174
},{
"label": "Estación Coronel Mascareñas", "lat": 21.677103, "lng": -97.986915
},{
"label": "Nuevo Pánuco", "lat": 21.842255, "lng": -98.088711
},{
"label": "El Por Hacer", "lat": 21.82364, "lng": -97.924811
},{
"label": "El Higuerón", "lat": 21.536229, "lng": -97.833644
},{
"label": "Los Gavilanes", "lat": 21.930247, "lng": -98.039238
},{
"label": "Santa Ninfa", "lat": 21.528197, "lng": -97.937159
},{
"label": "Colmachete", "lat": 21.752237, "lng": -97.981892
},{
"label": "El Horcón", "lat": 21.659, "lng": -97.822072
},{
"label": "Santa Ofelia (Linda Vista)", "lat": 21.668556, "lng": -97.83134
},{
"label": "San Andrés", "lat": 21.889499, "lng": -97.732571
},{
"label": "El Pequeñito", "lat": 21.937218, "lng": -97.94972
},{
"label": "El Paraíso Uno", "lat": 21.802397, "lng": -97.913314
},{
"label": "Paso de San Andrés", "lat": 21.875505, "lng": -97.704261
},{
"label": "El Mirador", "lat": 21.509229, "lng": -97.949049
},{
"label": "Cruz Chiquita", "lat": 21.637734, "lng": -97.843291
},{
"label": "La Tinaja", "lat": 21.490183, "lng": -97.915822
},{
"label": "Monserrat", "lat": 21.915294, "lng": -97.749414
},{
"label": "Las Hortensias", "lat": 21.593413, "lng": -97.839053
},{
"label": "Tamontao (Paso Real)", "lat": 21.469646, "lng": -97.835161
},{
"label": "Las Viboras", "lat": 21.641943, "lng": -97.912978
},{
"label": "San Vicente (Isla Juan A. Ramírez)", "lat": 21.841797, "lng": -97.685044
},{
"label": "Corozal", "lat": 21.457343, "lng": -97.968281
},{
"label": "El Chintel", "lat": 21.419003, "lng": -97.951626
},{
"label": "Los Aguiluchos", "lat": 21.891674, "lng": -97.959893
},{
"label": "La Sorpresa", "lat": 21.842091, "lng": -97.99666
},{
"label": "Rancho Alegre", "lat": 21.541524, "lng": -97.866983
},{
"label": "La Herradura", "lat": 21.576688, "lng": -97.962405
},{
"label": "Paso Real", "lat": 21.802743, "lng": -98.105029
},{
"label": "Las Piedritas", "lat": 21.768383, "lng": -97.85532
},{
"label": "Paso de Tacho", "lat": 21.914486, "lng": -97.97122
},{
"label": "Agua Mala", "lat": 21.518854, "lng": -97.806067
},{
"label": "Estrella", "lat": 21.535238, "lng": -97.830987
},{
"label": "Poblado Nuevo Chapancal", "lat": 21.904771, "lng": -98.033449
},{
"label": "Palmar Alto", "lat": 21.707229, "lng": -98.077626
},{
"label": "Los Guayales", "lat": 21.803822, "lng": -97.964906
},{
"label": "Santa Cruz", "lat": 21.540331, "lng": -97.948805
},{
"label": "Santa Elena", "lat": 21.86705, "lng": -97.94072
},{
"label": "El Aumento", "lat": 21.505546, "lng": -97.881452
},{
"label": "Emilio Torres Valdez", "lat": 21.574664, "lng": -97.836828
},{
"label": "La Quinta", "lat": 21.641044, "lng": -97.975668
},{
"label": "Chicomongas", "lat": 21.759927, "lng": -97.841514
},{
"label": "La Vía", "lat": 21.728301, "lng": -97.989484
},{
"label": "Las Arboledas", "lat": 21.821811, "lng": -97.806239
},{
"label": "El Carrizal", "lat": 21.656272, "lng": -97.837328
},{
"label": "Punta de Llave", "lat": 21.785219, "lng": -97.866246
},{
"label": "Canta las Piedras", "lat": 21.81484, "lng": -97.718809
},{
"label": "Abel del Ángel", "lat": 21.745558, "lng": -97.976631
},{
"label": "Cué de Piedras", "lat": 21.521594, "lng": -97.942326
},{
"label": "La Reforma", "lat": 21.667219, "lng": -97.969971
},{
"label": "Alto el Pabellón", "lat": 21.645104, "lng": -97.93833
},{
"label": "El Anís", "lat": 21.648959, "lng": -97.911919
},{
"label": "Herminio Hernández", "lat": 21.449465, "lng": -97.91903
},{
"label": "El Crucetal", "lat": 21.557211, "lng": -97.864256
},{
"label": "San Marcos", "lat": 21.668593, "lng": -97.828136
},{
"label": "Quinta los Corona", "lat": 21.805102, "lng": -97.772653
},{
"label": "San Juan", "lat": 21.513394, "lng": -97.891421
},{
"label": "La Rosa II", "lat": 21.818583, "lng": -98.006044
},{
"label": "La Puente", "lat": 21.516261, "lng": -97.971929
},{
"label": "La Loma", "lat": 21.801398, "lng": -97.895798
},{
"label": "San Gabriel", "lat": 21.487264, "lng": -97.906194
},{
"label": "El Laurel", "lat": 21.640546, "lng": -97.858119
},{
"label": "El Rinconcito", "lat": 21.805078, "lng": -97.92471
},{
"label": "Loma de la India", "lat": 21.456348, "lng": -97.952781
},{
"label": "Estación la Puente", "lat": 21.818386, "lng": -98.013158
},{
"label": "Abad Guzmán Rivera (Las Ochenta y Cinco)", "lat": 21.849543, "lng": -98.056122
},{
"label": "La Esperanza", "lat": 21.879455, "lng": -97.783709
},{
"label": "Las Brisas", "lat": 21.45363, "lng": -97.940628
},{
"label": "El Dos", "lat": 21.758941, "lng": -98.065253
},{
"label": "Los Hules", "lat": 21.431931, "lng": -97.959682
},{
"label": "Loma Bonita", "lat": 21.546215, "lng": -97.859213
},{
"label": "Bella Vista", "lat": 21.704966, "lng": -98.104712
},{
"label": "Crucetal (Moralito)", "lat": 21.549866, "lng": -97.871385
},{
"label": "Rancho Nuevo el Sarazo", "lat": 21.610836, "lng": -97.780886
},{
"label": "El Presidio", "lat": 21.679924, "lng": -97.742036
},{
"label": "San Mateo", "lat": 21.428223, "lng": -97.950758
},{
"label": "Dos Potrillos", "lat": 21.700157, "lng": -98.029239
},{
"label": "Isla Burros (Punta del Sur)", "lat": 21.711004, "lng": -97.59885
},{
"label": "Chijolito", "lat": 21.472787, "lng": -97.963813
},{
"label": "Ensueños", "lat": 21.54823, "lng": -97.903628
},{
"label": "La Pradera", "lat": 21.894583, "lng": -97.874554
},{
"label": "Hermanos Juárez", "lat": 21.871169, "lng": -98.031661
},{
"label": "Pasarones Dos", "lat": 21.661318, "lng": -97.90974
},{
"label": "Santa Mónica", "lat": 21.737114, "lng": -98.114564
},{
"label": "La Hormiga", "lat": 21.725314, "lng": -97.965799
},{
"label": "Kilómetro Treinta y Cinco", "lat": 21.915973, "lng": -98.027211
},{
"label": "La Flecha", "lat": 21.543431, "lng": -97.840068
},{
"label": "El Centavo", "lat": 21.715083, "lng": -98.134119
},{
"label": "La Curva", "lat": 21.849473, "lng": -97.910935
},{
"label": "El Horizonte", "lat": 21.727109, "lng": -97.962568
},{
"label": "Rancho del Sauce", "lat": 21.532054, "lng": -97.830073
},{
"label": "La Matita", "lat": 21.481308, "lng": -97.898242
},{
"label": "Monte Calvario", "lat": 21.583295, "lng": -97.782194
},{
"label": "El Coronel", "lat": 21.604795, "lng": -97.750642
},{
"label": "Cinco de Mayo", "lat": 21.653635, "lng": -97.860829
},{
"label": "El Coyolito", "lat": 21.676814, "lng": -98.111369
},{
"label": "Campo Amor", "lat": 21.632434, "lng": -97.872886
},{
"label": "Sirenio Gamboa", "lat": 21.841763, "lng": -98.062582
},{
"label": "El Dormidero", "lat": 21.478791, "lng": -97.926167
},{
"label": "Los Conejos", "lat": 21.731057, "lng": -98.123219
},{
"label": "Cues y Cebadilla", "lat": 21.891129, "lng": -98.007125
},{
"label": "La Floreña", "lat": 21.736623, "lng": -98.081091
},{
"label": "Bonanza", "lat": 21.640256, "lng": -97.870504
},{
"label": "Fracción Llano Grande de Lozano", "lat": 21.606381, "lng": -97.825175
},{
"label": "El Triunfo", "lat": 21.843476, "lng": -97.911676
},{
"label": "Rancho Paraíso", "lat": 21.455477, "lng": -97.875812
},{
"label": "El Doce", "lat": 21.45613, "lng": -97.884361
},{
"label": "Vijarras", "lat": 21.488772, "lng": -97.968899
},{
"label": "El Coyol (Don Venancio)", "lat": 21.755355, "lng": -98.081782
},{
"label": "El Lucero", "lat": 21.537614, "lng": -97.901099
},{
"label": "Ramón del Ángel", "lat": 21.768804, "lng": -97.967569
},{
"label": "Nuestra Señora del Carmen", "lat": 21.626069, "lng": -97.866628
},{
"label": "El Triunfo (Ciro)", "lat": 21.643283, "lng": -97.977911
},{
"label": "Los Manantiales", "lat": 21.842133, "lng": -97.754982
},{
"label": "La Floresta", "lat": 21.835238, "lng": -97.894721
},{
"label": "La Tigra", "lat": 21.944823, "lng": -98.018951
},{
"label": "El Clavo", "lat": 21.709826, "lng": -97.90924
},{
"label": "El Sueño", "lat": 21.682021, "lng": -97.9523
},{
"label": "Enrique Ruiz", "lat": 21.816339, "lng": -98.009023
},{
"label": "El Eucalipto", "lat": 21.497398, "lng": -97.925129
},{
"label": "La More (La Cabaña)", "lat": 21.790201, "lng": -97.774616
},{
"label": "Ozuluama de Mascareñas", "lat": 21.661261, "lng": -97.850506
},{
"label": "La Reforma Dos", "lat": 21.578783, "lng": -97.73414
},{
"label": "El Paisaje", "lat": 21.715024, "lng": -98.110907
},{
"label": "Los Chivos", "lat": 21.558238, "lng": -97.929521
},{
"label": "Santa Elvira", "lat": 21.613776, "lng": -97.890589
},{
"label": "El Chilillo", "lat": 21.476969, "lng": -97.980829
},{
"label": "La Mesa", "lat": 21.76126, "lng": -97.766051
},{
"label": "La Mata de San Pedro", "lat": 21.698573, "lng": -97.938229
},{
"label": "El Cordero", "lat": 21.437846, "lng": -97.938027
},{
"label": "El Herradero", "lat": 21.728221, "lng": -98.099758
},{
"label": "Daniel García", "lat": 21.850578, "lng": -98.088808
},{
"label": "Héctor Elizondo", "lat": 21.896909, "lng": -98.045034
},{
"label": "El Paraíso (La Crema)", "lat": 21.499376, "lng": -97.807314
},{
"label": "Cinco de Oros", "lat": 21.89877, "lng": -97.960845
},{
"label": "El Ciento Cinco", "lat": 21.559873, "lng": -97.941161
},{
"label": "La Quichi", "lat": 21.672966, "lng": -97.808026
},{
"label": "San Tiburcio", "lat": 21.51001, "lng": -97.962059
},{
"label": "Mata de Manantiales", "lat": 21.731791, "lng": -98.084958
},{
"label": "Santo Tomás", "lat": 21.65544, "lng": -97.934689
},{
"label": "Santa Inés (Estación Mincuini)", "lat": 21.585604, "lng": -97.965101
},{
"label": "La Reforma Uno", "lat": 21.576186, "lng": -97.735048
},{
"label": "El Cerro", "lat": 21.700365, "lng": -97.999283
},{
"label": "El Moralillo", "lat": 21.496731, "lng": -97.971955
},{
"label": "Los Cedritos", "lat": 21.453316, "lng": -97.943956
},{
"label": "Quebrachito", "lat": 21.672756, "lng": -97.82699
},{
"label": "Kilómetro 75", "lat": 21.786266, "lng": -97.769867
},{
"label": "Estación los Manantiales", "lat": 21.744, "lng": -97.98671
},{
"label": "Santa Eduviges", "lat": 21.568915, "lng": -97.928241
},{
"label": "Alto del Sombrero", "lat": 21.823069, "lng": -98.03639
},{
"label": "Coyoles", "lat": 21.45009, "lng": -97.967619
},{
"label": "El Alto de San José", "lat": 21.67991, "lng": -97.974669
},{
"label": "El Brillante", "lat": 21.707331, "lng": -97.859411
},{
"label": "Loma de la Cruz", "lat": 21.702873, "lng": -98.107808
},{
"label": "Los Güiles", "lat": 21.697062, "lng": -98.110316
},{
"label": "El Diamante", "lat": 21.563016, "lng": -97.837811
},{
"label": "El Javo (El Higo)", "lat": 21.780177, "lng": -97.805141
},{
"label": "El Espino", "lat": 21.755913, "lng": -97.954644
},{
"label": "La Sierrita", "lat": 21.473591, "lng": -97.87671
},{
"label": "Tres Morillos", "lat": 21.935588, "lng": -97.921213
},{
"label": "Loma Blanca", "lat": 21.862333, "lng": -97.770713
},{
"label": "Juan Román (Isla Juan A. Ramírez)", "lat": 21.746704, "lng": -97.650036
},{
"label": "Lagunillas", "lat": 21.774267, "lng": -97.906478
},{
"label": "Las Torres (Microondas)", "lat": 21.808793, "lng": -97.780739
},{
"label": "El Durazno", "lat": 21.785836, "lng": -97.995193
},{
"label": "Las Cruces", "lat": 21.660108, "lng": -97.757194
},{
"label": "Rancho Placetas", "lat": 21.934785, "lng": -97.932595
},{
"label": "El Ajuar", "lat": 21.806091, "lng": -97.928891
},{
"label": "Santa Andrea", "lat": 21.833406, "lng": -97.933604
},{
"label": "La Frontera", "lat": 21.821109, "lng": -97.839341
},{
"label": "El Tamarindo", "lat": 21.506454, "lng": -97.922823
},{
"label": "Rancho del Arroyo", "lat": 21.671651, "lng": -98.008584
},{
"label": "Cucharas", "lat": 21.617926, "lng": -97.661627
},{
"label": "El Chaparral", "lat": 21.849752, "lng": -97.995222
},{
"label": "El Estribillo", "lat": 21.663673, "lng": -97.810059
},{
"label": "La Orquídea", "lat": 21.720924, "lng": -97.974647
},{
"label": "La Almeja", "lat": 21.843987, "lng": -97.876917
},{
"label": "Rancho Ventilla", "lat": 21.869303, "lng": -97.746846
},{
"label": "Los Ébanos", "lat": 21.529648, "lng": -97.892432
},{
"label": "Los Nobles", "lat": 21.930369, "lng": -98.068806
},{
"label": "Clemente Alvarado", "lat": 21.688441, "lng": -97.940068
},{
"label": "Mi Ensueño", "lat": 21.747946, "lng": -98.115393
},{
"label": "La Central", "lat": 21.62107, "lng": -97.892629
},{
"label": "El Principio", "lat": 21.634377, "lng": -97.901716
},{
"label": "Plan de Ayala", "lat": 21.868537, "lng": -97.734827
},{
"label": "La Calle (Isla Juan A. Ramírez)", "lat": 21.760245, "lng": -97.636705
},{
"label": "El Tianguis", "lat": 21.686479, "lng": -97.89621
},{
"label": "La Fe", "lat": 21.486467, "lng": -97.821692
},{
"label": "La Estancia", "lat": 21.626461, "lng": -97.782996
},{
"label": "El Framboyán", "lat": 21.499337, "lng": -97.894386
},{
"label": "Los Juanelos", "lat": 21.782232, "lng": -97.760513
},{
"label": "La Primavera", "lat": 21.859815, "lng": -98.027508
},{
"label": "Apolinar Hernández", "lat": 21.455159, "lng": -97.918578
},{
"label": "El Ayate de Juan Diego", "lat": 21.429571, "lng": -97.944882
},{
"label": "Palo Bonito", "lat": 21.924271, "lng": -97.927798
},{
"label": "El Chuco", "lat": 21.723983, "lng": -97.867876
},{
"label": "La Puente Vieja", "lat": 21.85116, "lng": -98.095334
},{
"label": "La Brisa", "lat": 21.747152, "lng": -98.068649
},{
"label": "Tanceme", "lat": 21.672007, "lng": -98.092731
},{
"label": "El Tío Cayo", "lat": 21.829513, "lng": -97.813069
},{
"label": "El Cubilete", "lat": 21.811892, "lng": -97.991688
},{
"label": "Nuevo Progreso", "lat": 21.716696, "lng": -97.808385
},{
"label": "El Azabache", "lat": 21.761375, "lng": -97.916227
},{
"label": "El Espejo", "lat": 21.824468, "lng": -97.978225
},{
"label": "El Plan", "lat": 21.523775, "lng": -97.927856
},{
"label": "Los Naranjos (Isla Juan A. Ramírez)", "lat": 21.817169, "lng": -97.684769
},{
"label": "El Huarache", "lat": 21.897808, "lng": -97.949719
},{
"label": "Tres Reyes", "lat": 21.507024, "lng": -97.926411
},{
"label": "Alto del Jagüey", "lat": 21.860504, "lng": -97.879248
},{
"label": "Rivera del Sol", "lat": 21.910806, "lng": -97.718139
},{
"label": "El Tipo", "lat": 21.736077, "lng": -97.938891
},{
"label": "Manto de la Virgen", "lat": 21.429024, "lng": -97.963848
},{
"label": "Estación Tanceme", "lat": 21.715576, "lng": -97.994268
},{
"label": "El Distinguido", "lat": 21.465299, "lng": -97.874468
},{
"label": "La Mira", "lat": 21.818598, "lng": -97.958694
},{
"label": "Rancho Tamyam", "lat": 21.687093, "lng": -97.865812
},{
"label": "Loma Linda", "lat": 21.700872, "lng": -97.970829
},{
"label": "Loma Grande", "lat": 21.521581, "lng": -97.889679
},{
"label": "Los Mangos", "lat": 21.875803, "lng": -97.748188
},{
"label": "Tío Juanillo", "lat": 21.80551, "lng": -97.894801
},{
"label": "Paso Pánuco", "lat": 21.687934, "lng": -97.878935
},{
"label": "El Ébano", "lat": 21.544614, "lng": -97.873116
},{
"label": "Santa Juana", "lat": 21.544449, "lng": -97.917128
},{
"label": "El Coposo (El Coyol)", "lat": 21.936117, "lng": -97.836271
},{
"label": "El Palomar", "lat": 21.813573, "lng": -97.933326
},{
"label": "Estero la Sabana", "lat": 21.822442, "lng": -97.90529
},{
"label": "Poblado Tierra y Libertad (Paso Piedra)", "lat": 21.853743, "lng": -98.062982
},{
"label": "El Quebrachito", "lat": 21.720711, "lng": -97.977359
},{
"label": "Palos Azules", "lat": 21.935126, "lng": -98.019978
},{
"label": "La Cantera", "lat": 21.730782, "lng": -97.94599
},{
"label": "Esteban Zaleta Barrios", "lat": 21.678037, "lng": -97.84523
},{
"label": "Alto Lucero", "lat": 21.505039, "lng": -97.82134
},{
"label": "La Estrellita", "lat": 21.539576, "lng": -97.864428
},{
"label": "La Demora", "lat": 21.858911, "lng": -97.895211
},{
"label": "La Ciudadela", "lat": 21.792458, "lng": -98.111552
},{
"label": "El Refugio", "lat": 21.466594, "lng": -97.93055
},{
"label": "El Guayabo", "lat": 21.439695, "lng": -97.893331
},{
"label": "Reyna Isabel", "lat": 21.85488, "lng": -97.770967
},{
"label": "El Humo", "lat": 21.428806, "lng": -97.948512
},{
"label": "El Ostional", "lat": 21.558671, "lng": -97.719064
},{
"label": "Alto el Mirador", "lat": 21.663919, "lng": -97.812706
},{
"label": "El Cepillo", "lat": 21.69295, "lng": -97.733728
},{
"label": "La Lomita", "lat": 21.701982, "lng": -98.124511
},{
"label": "El Maguey (Isla Juan A. Ramírez)", "lat": 21.744603, "lng": -97.639919
},{
"label": "Los Cues", "lat": 21.682245, "lng": -98.073223
},{
"label": "El Martirio", "lat": 21.493521, "lng": -97.812761
},{
"label": "Los Mirlos", "lat": 21.603365, "lng": -97.849954
},{
"label": "El Esfuerzo", "lat": 21.676096, "lng": -97.9175
},{
"label": "Las Pocitas", "lat": 21.918451, "lng": -97.773079
},{
"label": "La Amistad", "lat": 21.709719, "lng": -98.088747
},{
"label": "El Alto", "lat": 21.459866, "lng": -97.839827
},{
"label": "Las Cuatas", "lat": 21.914949, "lng": -98.070944
},{
"label": "La Calabaza", "lat": 21.437169, "lng": -97.893361
},{
"label": "Cerro Alto", "lat": 21.665284, "lng": -97.774043
},{
"label": "Jacinta", "lat": 21.752636, "lng": -98.053354
},{
"label": "La Norteña", "lat": 21.727914, "lng": -98.007984
},{
"label": "El Manguito", "lat": 21.550228, "lng": -97.879442
},{
"label": "Loma del Rayo", "lat": 21.548655, "lng": -97.897943
},{
"label": "San Sebastían", "lat": 21.681183, "lng": -98.016036
},{
"label": "Las Margaritas", "lat": 21.912109, "lng": -97.867913
},{
"label": "Dos Esterillos", "lat": 21.623151, "lng": -97.718916
},{
"label": "Terrero Blanco", "lat": 21.777707, "lng": -98.123352
},{
"label": "La Barra", "lat": 21.525744, "lng": -97.956499
},{
"label": "Tres en Uno", "lat": 21.481151, "lng": -97.969824
},{
"label": "Alto el Coyol", "lat": 21.894293, "lng": -98.094071
},{
"label": "El Recodo", "lat": 21.735939, "lng": -98.139977
},{
"label": "San Israel", "lat": 21.871388, "lng": -97.897663
},{
"label": "La Rosita", "lat": 21.6554, "lng": -97.95448
},{
"label": "Buenos Aires (El Mante)", "lat": 21.596792, "lng": -97.770212
},{
"label": "Huil Blanco", "lat": 21.65351, "lng": -97.817871
},{
"label": "El Jobito", "lat": 21.795396, "lng": -97.784893
},{
"label": "La Providencia", "lat": 21.880052, "lng": -97.933396
},{
"label": "Juvenal Delgado", "lat": 21.882801, "lng": -98.050945
},{
"label": "El Chupadero", "lat": 21.465198, "lng": -97.884245
},{
"label": "El Veintiuno (Santa Joaquina)", "lat": 21.574184, "lng": -97.951063
},{
"label": "El Buen Vecino", "lat": 21.734884, "lng": -98.085841
},{
"label": "La Chotera", "lat": 21.899901, "lng": -97.836264
},{
"label": "Miralejos", "lat": 21.580129, "lng": -97.889435
},{
"label": "Mata de la Paloma", "lat": 21.690288, "lng": -97.94472
},{
"label": "Ejido Ampliación Alto del Tigre", "lat": 21.631794, "lng": -97.730488
},{
"label": "El Peñón", "lat": 21.763146, "lng": -97.696964
},{
"label": "Cipriano Betancourt", "lat": 21.527104, "lng": -97.961809
},{
"label": "El Corpus", "lat": 21.594032, "lng": -97.909702
},{
"label": "Pozos Pontom", "lat": 21.838679, "lng": -98.026474
},{
"label": "Dos de Oros", "lat": 21.722153, "lng": -98.138493
},{
"label": "Ranchería Cebadilla", "lat": 21.909612, "lng": -98.001481
},{
"label": "Bernabé Mar", "lat": 21.49503, "lng": -97.922215
},{
"label": "El Compas", "lat": 21.518521, "lng": -97.933571
},{
"label": "El Bejuco", "lat": 21.697687, "lng": -97.868683
},{
"label": "Colonia Moreno (Isla Juan A. Ramírez)", "lat": 21.826417, "lng": -97.678263
},{
"label": "Los Arados", "lat": 21.618501, "lng": -97.842972
},{
"label": "El Paisajito", "lat": 21.721216, "lng": -98.103108
},{
"label": "El Charro", "lat": 21.88424, "lng": -97.905467
},{
"label": "Ex-Hacienda de Horconcitos", "lat": 21.823038, "lng": -97.744949
},{
"label": "Norberto Hernández Zaleta", "lat": 21.66728, "lng": -97.975574
},{
"label": "El Rodeo", "lat": 21.579931, "lng": -97.833947
},{
"label": "La Mina", "lat": 21.828908, "lng": -97.824996
},{
"label": "El Ojite", "lat": 21.482683, "lng": -97.82367
},{
"label": "Santa Juanita", "lat": 21.450312, "lng": -97.918979
},{
"label": "Arrebol (El Gualul)", "lat": 21.673036, "lng": -97.815424
},{
"label": "El Milagro", "lat": 21.707051, "lng": -97.90176
},{
"label": "Las Pasitas", "lat": 21.86725, "lng": -97.961669
},{
"label": "El Terrero", "lat": 21.685173, "lng": -98.023495
},{
"label": "El Humal", "lat": 21.554843, "lng": -97.911963
},{
"label": "Mezquites Altos", "lat": 21.830962, "lng": -97.99889
},{
"label": "Llano Grande", "lat": 21.596662, "lng": -97.820129
},{
"label": "Loma del Higo", "lat": 21.602428, "lng": -97.916654
},{
"label": "El Mezquite", "lat": 21.698557, "lng": -97.91106
},{
"label": "Francisco Villa", "lat": 21.898717, "lng": -98.101888
},{
"label": "Chalahuite", "lat": 21.909701, "lng": -98.108917
},{
"label": "Rancho Nuevo Veracruz", "lat": 21.68205, "lng": -98.012275
},{
"label": "Cuatro Palmas", "lat": 21.556129, "lng": -97.835583
},{
"label": "La Hizora", "lat": 21.90789, "lng": -97.980875
},{
"label": "Los Higos", "lat": 21.515294, "lng": -97.871804
},{
"label": "Alto de la Jaba", "lat": 21.938048, "lng": -98.01972
},{
"label": "Alto del Chijolar", "lat": 21.662728, "lng": -97.819521
},{
"label": "Paso del Naranjo", "lat": 21.50395, "lng": -97.967437
},{
"label": "El Pueblillo", "lat": 21.543028, "lng": -97.944673
},{
"label": "Valencia", "lat": 21.583908, "lng": -97.908329
},{
"label": "Guadalupe Constantino", "lat": 21.513981, "lng": -97.884891
}]