[{
"label": "Colonia Cabrera", "lat": 18.991389, "lng": -96.790418
},{
"label": "Corral de Piedra", "lat": 18.985199, "lng": -96.770017
},{
"label": "El Cedro", "lat": 18.921053, "lng": -96.62548
},{
"label": "Mata Borrego (Paso Gavilán)", "lat": 19.006038, "lng": -96.645863
},{
"label": "Mata Calabaza", "lat": 18.964152, "lng": -96.652731
},{
"label": "San Alejo", "lat": 18.937058, "lng": -96.763466
},{
"label": "El Ixtle", "lat": 18.929098, "lng": -96.65607
},{
"label": "Pocitos Actopan", "lat": 19.016781, "lng": -96.740852
},{
"label": "El Pedregal", "lat": 18.966809, "lng": -96.677861
},{
"label": "La Gloria", "lat": 18.938795, "lng": -96.650862
},{
"label": "Paso Tablas", "lat": 18.99631, "lng": -96.753563
},{
"label": "Paso del Burro", "lat": 18.889079, "lng": -96.609354
},{
"label": "Don Roque", "lat": 18.91444, "lng": -96.68306
},{
"label": "Rancho Cañamazo", "lat": 18.99735, "lng": -96.756916
},{
"label": "Buenavista", "lat": 18.894878, "lng": -96.704917
},{
"label": "Mata Larga", "lat": 18.871215, "lng": -96.71376
},{
"label": "Buena Vista", "lat": 18.988509, "lng": -96.740606
},{
"label": "Las Gaviotas", "lat": 18.99611, "lng": -96.785589
},{
"label": "Rincón del Chile", "lat": 18.921204, "lng": -96.714903
},{
"label": "Ejido Emiliano Zapata", "lat": 18.934011, "lng": -96.719471
},{
"label": "Mata Naranjo", "lat": 19.00431, "lng": -96.764322
},{
"label": "Santa Teresa", "lat": 18.972045, "lng": -96.76474
},{
"label": "Rincón de la Soledad", "lat": 18.858901, "lng": -96.668263
},{
"label": "La Higuera", "lat": 18.935195, "lng": -96.750974
},{
"label": "Tlanamacoyan", "lat": 18.875074, "lng": -96.536556
},{
"label": "Loma Pelada", "lat": 18.935636, "lng": -96.559876
},{
"label": "Loma del Chivo", "lat": 19.00849, "lng": -96.728749
},{
"label": "Plan del Roble", "lat": 18.909626, "lng": -96.613898
},{
"label": "Margarita Zerón Pacheco", "lat": 18.980619, "lng": -96.73154
},{
"label": "Chiquihuite", "lat": 18.93611, "lng": -96.7675
},{
"label": "Mata de Varas", "lat": 19.018734, "lng": -96.67116
},{
"label": "Ampliación Rincón de los Toros", "lat": 18.944697, "lng": -96.624933
},{
"label": "Mata del Gallo", "lat": 18.950511, "lng": -96.713936
},{
"label": "Las Tiras", "lat": 18.916286, "lng": -96.632112
},{
"label": "San Agustín", "lat": 18.942738, "lng": -96.673474
},{
"label": "La Perlita", "lat": 18.943428, "lng": -96.533336
},{
"label": "Paso del Macho", "lat": 18.972155, "lng": -96.724511
},{
"label": "Agua Escondida", "lat": 18.902464, "lng": -96.554764
},{
"label": "Santa Rosa", "lat": 18.961221, "lng": -96.77789
},{
"label": "Los Limos", "lat": 18.965378, "lng": -96.691706
},{
"label": "El Acacio", "lat": 18.904971, "lng": -96.698765
},{
"label": "Las Mariposas", "lat": 18.922236, "lng": -96.675166
},{
"label": "Paso Grande", "lat": 18.977604, "lng": -96.670669
},{
"label": "Las Higueras", "lat": 18.961247, "lng": -96.672869
},{
"label": "Cuatro Caminos", "lat": 19.039457, "lng": -96.662963
},{
"label": "Las Trampas", "lat": 18.862181, "lng": -96.70344
},{
"label": "El Paraíso (Ejido Paso del Macho)", "lat": 18.950942, "lng": -96.748076
},{
"label": "Paso Azúcar", "lat": 18.976024, "lng": -96.631585
},{
"label": "Paso Limón", "lat": 19.000841, "lng": -96.708379
},{
"label": "Mata Freno", "lat": 18.946789, "lng": -96.654017
},{
"label": "Kilómetro 3.44", "lat": 18.948994, "lng": -96.7527
},{
"label": "Mata Comisario", "lat": 19.012184, "lng": -96.721335
},{
"label": "Paso Garrapata", "lat": 18.889822, "lng": -96.694384
},{
"label": "El Retiro", "lat": 18.931856, "lng": -96.634549
},{
"label": "Cerritos", "lat": 19.019876, "lng": -96.760478
},{
"label": "La Tribu", "lat": 18.92306, "lng": -96.64833
},{
"label": "Ejido el Acacio", "lat": 18.89083, "lng": -96.71056
},{
"label": "El Ranchito", "lat": 18.935902, "lng": -96.541443
},{
"label": "Buenos Aires", "lat": 18.942357, "lng": -96.767193
},{
"label": "Vacas Flacas", "lat": 18.922445, "lng": -96.5941
},{
"label": "Palo Blanco", "lat": 19.030086, "lng": -96.666572
},{
"label": "Ejido la Mariposa", "lat": 18.913689, "lng": -96.626348
},{
"label": "Mata Tejón", "lat": 18.903341, "lng": -96.623421
},{
"label": "El Escape", "lat": 18.962486, "lng": -96.736432
},{
"label": "San Antonio", "lat": 18.955138, "lng": -96.56644
},{
"label": "Paso Juile", "lat": 18.916689, "lng": -96.541321
},{
"label": "Potrero Grande (Remudadero Rancho Nuevo)", "lat": 18.88188, "lng": -96.728537
},{
"label": "El Espinal", "lat": 19.015649, "lng": -96.721622
},{
"label": "Carrizal", "lat": 18.919879, "lng": -96.756417
},{
"label": "Paso Ilama", "lat": 18.98137, "lng": -96.642988
},{
"label": "Loma del Cristo", "lat": 18.884982, "lng": -96.534798
},{
"label": "El Brinco", "lat": 18.901493, "lng": -96.649452
},{
"label": "Benito Juárez", "lat": 19.00918, "lng": -96.699151
},{
"label": "La Piedra", "lat": 18.944012, "lng": -96.600726
},{
"label": "El Chololote (Los Acosta)", "lat": 18.970019, "lng": -96.654159
},{
"label": "El Porvenir", "lat": 18.996409, "lng": -96.612439
},{
"label": "El Guaje", "lat": 19.01594, "lng": -96.736216
},{
"label": "Pocitos y Cañamazo", "lat": 18.921004, "lng": -96.73747
},{
"label": "Rancho Pajaritos", "lat": 18.923262, "lng": -96.533833
},{
"label": "Palo Amarillo", "lat": 18.966166, "lng": -96.779747
},{
"label": "Rancho Nuevo", "lat": 18.970214, "lng": -96.773154
},{
"label": "Juan Rodríguez", "lat": 18.929719, "lng": -96.595857
},{
"label": "La Unión de los Reyes", "lat": 18.998708, "lng": -96.794509
},{
"label": "Santa Cecilia", "lat": 18.918689, "lng": -96.537507
},{
"label": "San José", "lat": 18.963043, "lng": -96.639124
},{
"label": "La Laguna", "lat": 18.993871, "lng": -96.748282
},{
"label": "Morón Uno", "lat": 19.037277, "lng": -96.672814
},{
"label": "El Manantial", "lat": 18.901932, "lng": -96.721343
},{
"label": "Rancho Chico", "lat": 18.896141, "lng": -96.742908
},{
"label": "Potrerillo (Los Serenas)", "lat": 18.865048, "lng": -96.655097
},{
"label": "Colonia Agrícola", "lat": 19.0162, "lng": -96.803469
},{
"label": "Las Cruces (El Mangal)", "lat": 18.98486, "lng": -96.73413
},{
"label": "San Patricio", "lat": 18.943143, "lng": -96.759941
},{
"label": "El Volador", "lat": 19.011178, "lng": -96.745055
},{
"label": "Tres Encinos Raya Oscura", "lat": 18.950767, "lng": -96.767278
},{
"label": "La Cabecera", "lat": 18.934438, "lng": -96.760862
},{
"label": "Las Canoas", "lat": 19.015496, "lng": -96.733882
},{
"label": "La Víbora", "lat": 18.90278, "lng": -96.735
},{
"label": "La Granja", "lat": 18.97377, "lng": -96.710511
},{
"label": "Los Paredones", "lat": 18.996593, "lng": -96.79107
},{
"label": "Rebombeo", "lat": 18.946004, "lng": -96.759184
},{
"label": "El Cedrillo", "lat": 18.862375, "lng": -96.719647
},{
"label": "Pozo del Monte", "lat": 19.016763, "lng": -96.75035
},{
"label": "Paso Frijol", "lat": 18.90439, "lng": -96.595677
},{
"label": "Mata Bejuco", "lat": 18.99908, "lng": -96.732789
},{
"label": "Salvador Esquer Apodaca [Unidad Habitacional]", "lat": 18.957215, "lng": -96.719765
},{
"label": "La Herradura", "lat": 18.998733, "lng": -96.717643
},{
"label": "El Zapotal", "lat": 18.98545, "lng": -96.782493
},{
"label": "Paso Naranjo", "lat": 18.887525, "lng": -96.631113
},{
"label": "Balsa Coyote", "lat": 18.943983, "lng": -96.548687
},{
"label": "Paso Vaquero", "lat": 18.900104, "lng": -96.564347
},{
"label": "Santos Pérez", "lat": 18.936062, "lng": -96.685102
},{
"label": "Canaletas", "lat": 18.968861, "lng": -96.784583
},{
"label": "Paso Mulato", "lat": 18.875231, "lng": -96.695253
},{
"label": "Rancho Progreso", "lat": 18.905815, "lng": -96.676561
},{
"label": "Tinajitas", "lat": 18.906999, "lng": -96.571761
},{
"label": "Loma de Enmedio", "lat": 18.911087, "lng": -96.690508
},{
"label": "Actopan", "lat": 18.987453, "lng": -96.714216
},{
"label": "Balsa Tortuga", "lat": 18.924893, "lng": -96.543491
},{
"label": "Rancho Nuevo (Palo Gacho)", "lat": 19.025461, "lng": -96.802684
},{
"label": "Paso Mojarra", "lat": 18.872112, "lng": -96.678107
},{
"label": "Colonia los Almendros", "lat": 18.980149, "lng": -96.712773
},{
"label": "La Defensa", "lat": 19.019118, "lng": -96.793308
},{
"label": "La Pitahaya", "lat": 18.934535, "lng": -96.602684
},{
"label": "Potrerillo (Los Castillos)", "lat": 18.874847, "lng": -96.654906
},{
"label": "Balsa Mina", "lat": 18.893741, "lng": -96.574564
},{
"label": "Mata Chivato", "lat": 18.921951, "lng": -96.551034
},{
"label": "Comalcoáhuitl", "lat": 18.952209, "lng": -96.593344
},{
"label": "Ejido Actopan", "lat": 18.974188, "lng": -96.705081
},{
"label": "Los Tres Encinos", "lat": 18.942172, "lng": -96.755813
},{
"label": "San José Balsa Camarón (La Colmena)", "lat": 18.936169, "lng": -96.704684
},{
"label": "Potrerillo", "lat": 18.887349, "lng": -96.662133
},{
"label": "San Martín", "lat": 18.90506, "lng": -96.65139
},{
"label": "El Angostillo", "lat": 18.930216, "lng": -96.499216
},{
"label": "Paso Gavilán", "lat": 18.981451, "lng": -96.624547
},{
"label": "Cerro Azul", "lat": 19.003027, "lng": -96.798036
},{
"label": "Paso Grande Dos (La Báscula)", "lat": 19.004335, "lng": -96.677611
},{
"label": "Piedra Fina", "lat": 18.90051, "lng": -96.539379
},{
"label": "La Reforma", "lat": 18.946828, "lng": -96.583644
},{
"label": "Morón Dos", "lat": 19.023281, "lng": -96.672821
},{
"label": "La Peña", "lat": 19.001749, "lng": -96.744834
},{
"label": "Loma del Nanche", "lat": 19.004616, "lng": -96.694377
},{
"label": "Paso Grande Uno (Mata Zopilote)", "lat": 18.997229, "lng": -96.686173
},{
"label": "La Mariposa", "lat": 18.926808, "lng": -96.643122
},{
"label": "Taka Broown", "lat": 18.928782, "lng": -96.689622
},{
"label": "Rincón de los Toros", "lat": 18.946178, "lng": -96.63769
},{
"label": "La Esperanza", "lat": 19.000988, "lng": -96.784403
},{
"label": "San Angelín", "lat": 18.993528, "lng": -96.784914
},{
"label": "Cañamazal", "lat": 18.974889, "lng": -96.644038
},{
"label": "Paso Morón", "lat": 19.03619, "lng": -96.66446
},{
"label": "El Brasil", "lat": 18.954237, "lng": -96.605162
},{
"label": "Francisco Villa", "lat": 18.950781, "lng": -96.653443
},{
"label": "Mata Eslavón", "lat": 18.92986, "lng": -96.47212
},{
"label": "Los García", "lat": 18.870567, "lng": -96.729411
},{
"label": "El Acicate", "lat": 18.91833, "lng": -96.52083
},{
"label": "Mazapa", "lat": 18.955014, "lng": -96.682756
},{
"label": "Rancho Gasperín", "lat": 18.969813, "lng": -96.718324
}]