[{
"label": "Hermelinda García Santos", "lat": 20.511147, "lng": -97.409693
},{
"label": "Finca los Faroles", "lat": 20.513997, "lng": -97.406859
},{
"label": "Lomas Residencial Poza Rica", "lat": 20.574632, "lng": -97.427466
},{
"label": "San Julián", "lat": 20.526148, "lng": -97.406209
},{
"label": "Colonia la Primavera", "lat": 20.5725, "lng": -97.43361
},{
"label": "Carlos Peña", "lat": 20.570374, "lng": -97.440036
},{
"label": "Los Ahijados", "lat": 20.494929, "lng": -97.402804
},{
"label": "San Felipe", "lat": 20.544195, "lng": -97.413499
},{
"label": "Jovito Oliver", "lat": 20.524076, "lng": -97.407706
},{
"label": "El Candado", "lat": 20.558437, "lng": -97.423781
},{
"label": "Kirch", "lat": 20.496381, "lng": -97.436826
},{
"label": "Santa Paula", "lat": 20.582253, "lng": -97.42789
},{
"label": "Ejido Arroyo del Maíz", "lat": 20.527558, "lng": -97.423601
},{
"label": "Guadalupe Victoria", "lat": 20.510956, "lng": -97.401595
},{
"label": "Colonia Fraternidad Antorchista", "lat": 20.552672, "lng": -97.418171
},{
"label": "El Mollejon", "lat": 20.541802, "lng": -97.41039
},{
"label": "Hipólito García", "lat": 20.565957, "lng": -97.430688
},{
"label": "Rancho Primavera", "lat": 20.500481, "lng": -97.436797
},{
"label": "El Establo", "lat": 20.513674, "lng": -97.411443
},{
"label": "Emérico Rodríguez García", "lat": 20.512253, "lng": -97.410504
},{
"label": "Escolín de Olarte", "lat": 20.498408, "lng": -97.423061
},{
"label": "La Mora", "lat": 20.495434, "lng": -97.428834
},{
"label": "Salinas", "lat": 20.500843, "lng": -97.438163
},{
"label": "Poza Rica de Hidalgo", "lat": 20.534088, "lng": -97.443567
},{
"label": "La Joya", "lat": 20.550977, "lng": -97.420541
},{
"label": "El Edén", "lat": 20.558509, "lng": -97.434141
},{
"label": "San Antonio", "lat": 20.516775, "lng": -97.403619
},{
"label": "Villa de las Flores", "lat": 20.576219, "lng": -97.43387
},{
"label": "Chula Vista", "lat": 20.497196, "lng": -97.433063
},{
"label": "Rancho Heve", "lat": 20.495089, "lng": -97.431709
},{
"label": "Tierra y Libertad", "lat": 20.554959, "lng": -97.417935
},{
"label": "Reyna Alejandra", "lat": 20.525534, "lng": -97.420783
},{
"label": "La Alcoholera", "lat": 20.512636, "lng": -97.408811
},{
"label": "Sección Treinta [Granja]", "lat": 20.516557, "lng": -97.404708
},{
"label": "Jorge Mercado", "lat": 20.500404, "lng": -97.453145
},{
"label": "La Quesera", "lat": 20.515445, "lng": -97.411403
},{
"label": "La Virgen", "lat": 20.569718, "lng": -97.426034
},{
"label": "Las Fincas", "lat": 20.514565, "lng": -97.403457
},{
"label": "Polo Suárez", "lat": 20.48944, "lng": -97.4275
},{
"label": "Lealtad Constitucional", "lat": 20.528838, "lng": -97.411987
},{
"label": "Arroyo del Maíz Uno", "lat": 20.536566, "lng": -97.416303
},{
"label": "Cerro del Mesón", "lat": 20.555029, "lng": -97.412423
},{
"label": "Los Pinos", "lat": 20.511376, "lng": -97.408726
},{
"label": "Tres Flechas", "lat": 20.493946, "lng": -97.412019
}]