[{
"label": "Alberto Tejeda", "lat": 19.587279, "lng": -96.981927
},{
"label": "Santa Bárbara", "lat": 19.5838, "lng": -96.984387
},{
"label": "Liquidámbares", "lat": 19.588313, "lng": -96.963321
},{
"label": "Rancho Alegre", "lat": 19.5875, "lng": -96.97194
},{
"label": "Rancho Chico", "lat": 19.581277, "lng": -96.99118
},{
"label": "Xoteopan", "lat": 19.57918, "lng": -96.99728
},{
"label": "Rafael Lucio", "lat": 19.593106, "lng": -96.989558
},{
"label": "Irineo Gerónimo", "lat": 19.602408, "lng": -96.988854
},{
"label": "Xicotencatl", "lat": 19.586738, "lng": -96.997073
},{
"label": "Colonia Tres de Mayo", "lat": 19.591171, "lng": -96.962238
},{
"label": "El Rosario", "lat": 19.590001, "lng": -96.968968
},{
"label": "El Sabino", "lat": 19.589273, "lng": -96.979488
},{
"label": "Doña Esperanza (Kilómetro 142)", "lat": 19.585416, "lng": -96.98196
},{
"label": "El Barrial", "lat": 19.584586, "lng": -96.987181
},{
"label": "Dos Caminos", "lat": 19.605679, "lng": -96.987928
},{
"label": "Piletas", "lat": 19.587512, "lng": -96.977478
},{
"label": "Los Gallos", "lat": 19.583284, "lng": -96.996684
},{
"label": "Oyamel", "lat": 19.587707, "lng": -96.996079
},{
"label": "Teapan", "lat": 19.613849, "lng": -96.990846
},{
"label": "Silvano Alarcón Ortiz", "lat": 19.607284, "lng": -96.984357
},{
"label": "Palo Blanco", "lat": 19.619405, "lng": -96.992686
},{
"label": "Las Brujas", "lat": 19.587543, "lng": -96.968501
}]