[{
"label": "Úrsulo Galván", "lat": 18.602673, "lng": -95.159453
},{
"label": "Montepío (Los Palacios)", "lat": 18.619962, "lng": -95.09494
},{
"label": "Concha Escalera", "lat": 18.43417, "lng": -95.2025
},{
"label": "Soyata", "lat": 18.368956, "lng": -95.281185
},{
"label": "Abrevadero", "lat": 18.281229, "lng": -95.214054
},{
"label": "Colonia Proviva", "lat": 18.415442, "lng": -95.219488
},{
"label": "Tepáncan", "lat": 18.46473, "lng": -95.234763
},{
"label": "Vista Hermosa II", "lat": 18.236956, "lng": -95.275828
},{
"label": "El Cafetal", "lat": 18.42224, "lng": -95.185446
},{
"label": "Carrillo", "lat": 18.408834, "lng": -95.225903
},{
"label": "La Técnica", "lat": 18.44293, "lng": -95.17906
},{
"label": "Los Potrillos", "lat": 18.517936, "lng": -95.170974
},{
"label": "Rancho la Ponderosa", "lat": 18.65233, "lng": -95.127767
},{
"label": "San Andrés Tuxtla", "lat": 18.448668, "lng": -95.212571
},{
"label": "Revolución", "lat": 18.648385, "lng": -95.114778
},{
"label": "Cuauhtémoc", "lat": 18.509303, "lng": -95.10429
},{
"label": "El Nacaxtle", "lat": 18.359183, "lng": -95.322697
},{
"label": "Ocelota", "lat": 18.398058, "lng": -95.283543
},{
"label": "Cerro Amarillo de Arriba", "lat": 18.424333, "lng": -95.242168
},{
"label": "Quintana", "lat": 18.634119, "lng": -95.09119
},{
"label": "Zanasca", "lat": 18.397067, "lng": -95.229286
},{
"label": "Estación Ohuilapan", "lat": 18.399661, "lng": -95.270504
},{
"label": "Adolfo Ruiz Cortines (La Floreña)", "lat": 18.610779, "lng": -95.126251
},{
"label": "Rancho Chininal", "lat": 18.500694, "lng": -95.181704
},{
"label": "Finca Villa Cariño", "lat": 18.624476, "lng": -95.091756
},{
"label": "Paso de la Vía", "lat": 18.317971, "lng": -95.221101
},{
"label": "El Huidero", "lat": 18.387994, "lng": -95.178838
},{
"label": "Puerta Nueva Xoteapan (Puerta Nueva)", "lat": 18.44611, "lng": -95.262002
},{
"label": "Tempanca", "lat": 18.582551, "lng": -95.257759
},{
"label": "Cerro Amarillo de Abajo", "lat": 18.418193, "lng": -95.251564
},{
"label": "Coyoltepec", "lat": 18.341498, "lng": -95.309495
},{
"label": "Belén Chico", "lat": 18.616826, "lng": -95.210336
},{
"label": "El Comején", "lat": 18.638406, "lng": -95.244068
},{
"label": "El Palmar", "lat": 18.239822, "lng": -95.221844
},{
"label": "Finca de Pablo Rodríguez", "lat": 18.444211, "lng": -95.169922
},{
"label": "La Palma", "lat": 18.401273, "lng": -95.171913
},{
"label": "Los Tuxtlas [Estación de Biología UNAM]", "lat": 18.584987, "lng": -95.074085
},{
"label": "El Pital", "lat": 18.264718, "lng": -95.366441
},{
"label": "El Crucero de Matacapan", "lat": 18.433437, "lng": -95.171736
},{
"label": "Enrique López Huitrón", "lat": 18.650805, "lng": -95.248574
},{
"label": "Casa Blanca", "lat": 18.428389, "lng": -95.228433
},{
"label": "Los Manantiales", "lat": 18.669747, "lng": -95.240578
},{
"label": "Santa Clara", "lat": 18.433717, "lng": -95.188312
},{
"label": "Palzoquiapan", "lat": 18.437057, "lng": -95.191339
},{
"label": "Solís", "lat": 18.473037, "lng": -95.186581
},{
"label": "Tulapan", "lat": 18.313702, "lng": -95.226418
},{
"label": "El Retiro", "lat": 18.361161, "lng": -95.168591
},{
"label": "Balzapote", "lat": 18.618543, "lng": -95.072088
},{
"label": "Amado Ixba", "lat": 18.49368, "lng": -95.232844
},{
"label": "Laguneta", "lat": 18.341955, "lng": -95.153026
},{
"label": "San Carlos", "lat": 18.411874, "lng": -95.208712
},{
"label": "Tres Zapotes", "lat": 18.339934, "lng": -95.235265
},{
"label": "José María Morelos y Pavón", "lat": 18.413416, "lng": -95.223944
},{
"label": "Primero de Mayo", "lat": 18.609649, "lng": -95.23757
},{
"label": "La Piedad", "lat": 18.620674, "lng": -95.100987
},{
"label": "Mazumiapan", "lat": 18.306804, "lng": -95.32939
},{
"label": "Ejido el Salto de Eyipantla", "lat": 18.36389, "lng": -95.2125
},{
"label": "Los Monigotes", "lat": 18.691854, "lng": -95.287003
},{
"label": "El Chilar", "lat": 18.491497, "lng": -95.19896
},{
"label": "El Llano", "lat": 18.249104, "lng": -95.223274
},{
"label": "Revolución de Arriba", "lat": 18.601599, "lng": -95.192882
},{
"label": "Colonia la Doce", "lat": 18.44472, "lng": -95.180172
},{
"label": "Daniel Lagunes", "lat": 18.24194, "lng": -95.39556
},{
"label": "Ley Seis de Enero de 1915", "lat": 18.619766, "lng": -95.267473
},{
"label": "Avescoma", "lat": 18.468781, "lng": -95.196781
},{
"label": "Cebadilla Chica", "lat": 18.368553, "lng": -95.176469
},{
"label": "El Toro Bravo", "lat": 18.243518, "lng": -95.241726
},{
"label": "Buenos Aires Texalpan", "lat": 18.465876, "lng": -95.247111
},{
"label": "La Nueva Victoria", "lat": 18.65625, "lng": -95.259053
},{
"label": "Los Velázquez", "lat": 18.639968, "lng": -95.24841
},{
"label": "El Tesoro", "lat": 18.392071, "lng": -95.192886
},{
"label": "El Cocal", "lat": 18.675067, "lng": -95.283879
},{
"label": "Cascada las Gemelas", "lat": 18.643714, "lng": -95.116567
},{
"label": "El Tular", "lat": 18.500817, "lng": -95.219108
},{
"label": "Zintepec", "lat": 18.40028, "lng": -95.23361
},{
"label": "Chuniapan de Arriba", "lat": 18.348613, "lng": -95.180907
},{
"label": "Gloria de los Ángeles", "lat": 18.252337, "lng": -95.275438
},{
"label": "Las Limas", "lat": 18.386787, "lng": -95.233884
},{
"label": "San Joaquín", "lat": 18.448655, "lng": -95.150528
},{
"label": "Xoteapan", "lat": 18.43391, "lng": -95.265796
},{
"label": "La Garza (Boca de Sihuapan)", "lat": 18.418712, "lng": -95.171761
},{
"label": "Los Naranjos", "lat": 18.331466, "lng": -95.241262
},{
"label": "La Aurora", "lat": 18.696008, "lng": -95.288103
},{
"label": "El Periconal", "lat": 18.382346, "lng": -95.163357
},{
"label": "Adolfo Ruiz Cortines", "lat": 18.527485, "lng": -95.135608
},{
"label": "La Canela", "lat": 18.386476, "lng": -95.158956
},{
"label": "Veintidós de Febrero", "lat": 18.543328, "lng": -95.238483
},{
"label": "Matalapan de Arriba", "lat": 18.325609, "lng": -95.22994
},{
"label": "Matacapan", "lat": 18.43444, "lng": -95.164913
},{
"label": "El Popotal", "lat": 18.24584, "lng": -95.304217
},{
"label": "El Chininal", "lat": 18.50778, "lng": -95.18556
},{
"label": "El Zapote", "lat": 18.403386, "lng": -95.168733
},{
"label": "La Redonda", "lat": 18.326696, "lng": -95.297494
},{
"label": "Cobaltepec", "lat": 18.37474, "lng": -95.25456
},{
"label": "Rodas", "lat": 18.394964, "lng": -95.245038
},{
"label": "Faro Roca Partida", "lat": 18.706568, "lng": -95.188674
},{
"label": "Rancho las Yaguas", "lat": 18.656636, "lng": -95.160988
},{
"label": "Colonia los Cocuites", "lat": 18.414446, "lng": -95.181916
},{
"label": "Las Galeras", "lat": 18.244461, "lng": -95.426883
},{
"label": "Tiopan", "lat": 18.351095, "lng": -95.194365
},{
"label": "Juan Jacobo Torres [Bodega de Totontepec]", "lat": 18.33667, "lng": -95.260221
},{
"label": "Lauchapan", "lat": 18.242643, "lng": -95.353416
},{
"label": "Santa María", "lat": 18.627666, "lng": -95.276132
},{
"label": "Tomás Aguirre Mendoza", "lat": 18.513809, "lng": -95.175932
},{
"label": "Arroyo de Limón", "lat": 18.458088, "lng": -95.252279
},{
"label": "El Diamante", "lat": 18.610408, "lng": -95.172497
},{
"label": "Los Pinos", "lat": 18.443496, "lng": -95.244293
},{
"label": "Playa Hermosa", "lat": 18.666131, "lng": -95.134082
},{
"label": "El Polvorín", "lat": 18.438971, "lng": -95.263713
},{
"label": "Calería Alta", "lat": 18.485308, "lng": -95.159679
},{
"label": "Vista Hermosa", "lat": 18.349906, "lng": -95.321165
},{
"label": "San Simón", "lat": 18.490682, "lng": -95.223173
},{
"label": "Antonio Elías Chontal", "lat": 18.500845, "lng": -95.164482
},{
"label": "Montepío", "lat": 18.6409, "lng": -95.094615
},{
"label": "Finca la Guadalupe", "lat": 18.431836, "lng": -95.199537
},{
"label": "Michapan", "lat": 18.591389, "lng": -95.29307
},{
"label": "El Salado", "lat": 18.402393, "lng": -95.194563
},{
"label": "Axochio", "lat": 18.371937, "lng": -95.299865
},{
"label": "Calería", "lat": 18.428946, "lng": -95.177758
},{
"label": "Comoapan", "lat": 18.407791, "lng": -95.174579
},{
"label": "Colonia Habitat", "lat": 18.415856, "lng": -95.219052
},{
"label": "El Cebollal", "lat": 18.463371, "lng": -95.204635
},{
"label": "Las Teresas", "lat": 18.353269, "lng": -95.171294
},{
"label": "Rancho Viejo", "lat": 18.436054, "lng": -95.206712
},{
"label": "Yambigapan", "lat": 18.457225, "lng": -95.185745
},{
"label": "Miltepec", "lat": 18.412067, "lng": -95.229263
},{
"label": "Los Guillén", "lat": 18.35831, "lng": -95.185238
},{
"label": "Villas de Santa María", "lat": 18.423218, "lng": -95.18088
},{
"label": "Buenos Aires Xoteapan", "lat": 18.468284, "lng": -95.245969
},{
"label": "Cristo Rey (Río Verde)", "lat": 18.23596, "lng": -95.289883
},{
"label": "San Isidro Xoteapan (San Isidro Texcaltitán)", "lat": 18.467696, "lng": -95.238065
},{
"label": "San Juan de la Gloria", "lat": 18.675799, "lng": -95.263063
},{
"label": "Sesecapan", "lat": 18.398544, "lng": -95.219001
},{
"label": "Las Salinas", "lat": 18.397164, "lng": -95.240062
},{
"label": "Texalpan de Arriba", "lat": 18.429547, "lng": -95.244031
},{
"label": "El Triunfo (Santa Teresa)", "lat": 18.602956, "lng": -95.069162
},{
"label": "Los Palacios", "lat": 18.502877, "lng": -95.178438
},{
"label": "Nacimientos de Xogapan (Francisco I. Madero)", "lat": 18.526456, "lng": -95.250623
},{
"label": "El Plan de los Artigas", "lat": 18.477241, "lng": -95.184518
},{
"label": "Dos Arroyos", "lat": 18.354403, "lng": -95.170781
},{
"label": "Los Lagunes", "lat": 18.700655, "lng": -95.291022
},{
"label": "Los Órganos", "lat": 18.656955, "lng": -95.152661
},{
"label": "Colonia Santa Elena", "lat": 18.433119, "lng": -95.198808
},{
"label": "San Francisco", "lat": 18.42583, "lng": -95.20639
},{
"label": "La Boca", "lat": 18.357551, "lng": -95.245704
},{
"label": "Los Mérida", "lat": 18.37889, "lng": -95.275487
},{
"label": "Constantino", "lat": 18.476769, "lng": -95.181134
},{
"label": "Río de Tuxtla", "lat": 18.281924, "lng": -95.316709
},{
"label": "Zapata", "lat": 18.571793, "lng": -95.296793
},{
"label": "El Encanto", "lat": 18.524369, "lng": -95.263725
},{
"label": "Belén Grande", "lat": 18.612286, "lng": -95.218127
},{
"label": "Toro Prieto", "lat": 18.700915, "lng": -95.217761
},{
"label": "Ricardo Flores Magón", "lat": 18.386395, "lng": -95.262485
},{
"label": "Agua Agria", "lat": 18.638973, "lng": -95.198877
},{
"label": "Finca de los Chang", "lat": 18.444414, "lng": -95.175106
},{
"label": "Llano San Pedro", "lat": 18.265153, "lng": -95.255879
},{
"label": "Biogranja Integral Izcalli", "lat": 18.39236, "lng": -95.180717
},{
"label": "Rancho Godelva", "lat": 18.370511, "lng": -95.279891
},{
"label": "El Jonate", "lat": 18.532898, "lng": -95.215905
},{
"label": "El Paraíso", "lat": 18.400219, "lng": -95.172764
},{
"label": "San Leopoldo", "lat": 18.381886, "lng": -95.314503
},{
"label": "Cebadilla Grande", "lat": 18.373042, "lng": -95.180249
},{
"label": "Adolfo Ruiz Cortines Dos", "lat": 18.666826, "lng": -95.138863
},{
"label": "Cuesta Amarilla", "lat": 18.346403, "lng": -95.233587
},{
"label": "Don Rubén", "lat": 18.597332, "lng": -95.073818
},{
"label": "Cecilio", "lat": 18.420163, "lng": -95.177327
},{
"label": "Nompita", "lat": 18.441319, "lng": -95.147838
},{
"label": "Toma de Agua", "lat": 18.636879, "lng": -95.285146
},{
"label": "La Joya", "lat": 18.702327, "lng": -95.294569
},{
"label": "Arroyo Seco", "lat": 18.250881, "lng": -95.211594
},{
"label": "Arroyo de Liza", "lat": 18.695113, "lng": -95.180668
},{
"label": "Ixbiapan", "lat": 18.429384, "lng": -95.197247
},{
"label": "Las Rositas (Los Palacios)", "lat": 18.620491, "lng": -95.091917
},{
"label": "La Escondida", "lat": 18.35417, "lng": -95.17361
},{
"label": "Matalapan Monterrey", "lat": 18.245099, "lng": -95.214803
},{
"label": "Edén Maya", "lat": 18.371932, "lng": -95.209816
},{
"label": "Del Puente", "lat": 18.437831, "lng": -95.173993
},{
"label": "Nuevo Progreso", "lat": 18.261095, "lng": -95.247965
},{
"label": "Colonia Benito Juárez", "lat": 18.445932, "lng": -95.234162
},{
"label": "Niños Héroes", "lat": 18.439522, "lng": -95.226559
},{
"label": "Tilapan", "lat": 18.349041, "lng": -95.326356
},{
"label": "Selva Verde", "lat": 18.609348, "lng": -95.097611
},{
"label": "Salto de Eyipantla", "lat": 18.388807, "lng": -95.201499
},{
"label": "Ranchoapan Dos", "lat": 18.422839, "lng": -95.218769
},{
"label": "Rafael y Carmen", "lat": 18.392958, "lng": -95.188535
},{
"label": "El Monte (El Pescadito)", "lat": 18.246889, "lng": -95.312893
},{
"label": "Matalapan de Abajo (Ex-Hacienda de Matalapan)", "lat": 18.313075, "lng": -95.249973
},{
"label": "Paso de Tehuantepec", "lat": 18.358014, "lng": -95.228944
},{
"label": "Laguna de Pizatal", "lat": 18.540254, "lng": -95.273046
},{
"label": "El Jícaro", "lat": 18.25028, "lng": -95.27278
},{
"label": "Laguna Escondida", "lat": 18.593034, "lng": -95.084801
},{
"label": "Las Palmas", "lat": 18.447408, "lng": -95.170465
},{
"label": "Los Aguilera", "lat": 18.478511, "lng": -95.172675
},{
"label": "Orozco", "lat": 18.546324, "lng": -95.235814
},{
"label": "El Nogal", "lat": 18.386675, "lng": -95.257897
},{
"label": "María José", "lat": 18.627469, "lng": -95.092749
},{
"label": "La Flor del Cacao", "lat": 18.405056, "lng": -95.232671
},{
"label": "Tierra Colorada", "lat": 18.457138, "lng": -95.265619
},{
"label": "Cerro las Iguanas", "lat": 18.411021, "lng": -95.199744
},{
"label": "Miguel Hidalgo y Costilla", "lat": 18.523978, "lng": -95.126347
},{
"label": "Dos Aguajes", "lat": 18.294267, "lng": -95.29396
},{
"label": "La Chipuja", "lat": 18.670543, "lng": -95.215928
},{
"label": "San Antonio", "lat": 18.392373, "lng": -95.191556
},{
"label": "Dos de Abril (Montepío Chiquito)", "lat": 18.642056, "lng": -95.100372
},{
"label": "Chacalapan", "lat": 18.486578, "lng": -95.226945
},{
"label": "San Rafael", "lat": 18.446533, "lng": -95.270318
},{
"label": "El Nopal", "lat": 18.46722, "lng": -95.255944
},{
"label": "Braulio Bellis Morales", "lat": 18.512406, "lng": -95.156249
},{
"label": "Jesús de la Parra", "lat": 18.344251, "lng": -95.253133
},{
"label": "La Herencia", "lat": 18.362831, "lng": -95.214658
},{
"label": "Benito Juárez", "lat": 18.413014, "lng": -95.270712
},{
"label": "Ahuacapan", "lat": 18.368093, "lng": -95.31455
},{
"label": "Costa de Oro (Arroyo de Oro)", "lat": 18.689822, "lng": -95.176826
},{
"label": "Santa Rosa Abata", "lat": 18.461411, "lng": -95.167631
},{
"label": "Colonia Francisco López Lara", "lat": 18.442363, "lng": -95.230659
},{
"label": "La Finca", "lat": 18.46056, "lng": -95.19694
},{
"label": "Apixita", "lat": 18.316273, "lng": -95.29329
},{
"label": "Ameyalpan", "lat": 18.481405, "lng": -95.210674
},{
"label": "Las Delicias", "lat": 18.699308, "lng": -95.274127
},{
"label": "Tonalapan", "lat": 18.46831, "lng": -95.221459
},{
"label": "Suena la Tierra", "lat": 18.383926, "lng": -95.235284
},{
"label": "Cuesta de Laja", "lat": 18.293558, "lng": -95.221303
},{
"label": "El Mirador", "lat": 18.637527, "lng": -95.271681
},{
"label": "El Nacimiento", "lat": 18.651252, "lng": -95.205657
},{
"label": "El Bebedero", "lat": 18.318478, "lng": -95.32654
},{
"label": "Cerro del Agua", "lat": 18.365624, "lng": -95.278904
},{
"label": "Pizapan", "lat": 18.391584, "lng": -95.288713
},{
"label": "Sihuapan", "lat": 18.435919, "lng": -95.178053
},{
"label": "Real de San Andrés", "lat": 18.42174, "lng": -95.219695
},{
"label": "La Casa Azul", "lat": 18.508671, "lng": -95.106663
},{
"label": "El Remolino", "lat": 18.296484, "lng": -95.263716
},{
"label": "San Andrés Apóstol [Seminario Mayor Diosesano]", "lat": 18.391247, "lng": -95.191083
},{
"label": "Los Chontal", "lat": 18.352848, "lng": -95.172261
},{
"label": "Rancho Alegre", "lat": 18.323681, "lng": -95.244381
},{
"label": "Texcaltitán Xoteapan (Texcaltitán)", "lat": 18.448136, "lng": -95.253553
},{
"label": "El Zapotal", "lat": 18.693776, "lng": -95.293279
},{
"label": "Salvador Díaz Mirón (El Salto Huatusco)", "lat": 18.662378, "lng": -95.207053
},{
"label": "Texalpan de Abajo", "lat": 18.42359, "lng": -95.259558
},{
"label": "El Cascajal", "lat": 18.637523, "lng": -95.234196
},{
"label": "El Laurel Viejo", "lat": 18.252606, "lng": -95.349874
},{
"label": "Caracas", "lat": 18.362818, "lng": -95.166932
},{
"label": "Los Cerritos", "lat": 18.258658, "lng": -95.211854
},{
"label": "Caravaca", "lat": 18.435486, "lng": -95.184154
},{
"label": "Los Puchetas", "lat": 18.352503, "lng": -95.175107
},{
"label": "Progreso Tepánca", "lat": 18.456083, "lng": -95.226673
},{
"label": "Ojo de Agua", "lat": 18.358004, "lng": -95.194122
},{
"label": "Lázaro Cárdenas", "lat": 18.574506, "lng": -95.095484
},{
"label": "Cerro Venado Laguna Encantada", "lat": 18.458302, "lng": -95.192688
},{
"label": "Colonia el Zacatal", "lat": 18.445718, "lng": -95.177489
},{
"label": "Rancho Nuevo (La Ceiba de Abajo)", "lat": 18.438122, "lng": -95.257548
},{
"label": "Ohuilapan", "lat": 18.401322, "lng": -95.262055
},{
"label": "Los Pocitos (Artemio Arroyo)", "lat": 18.630179, "lng": -95.26682
},{
"label": "Los Pichichis", "lat": 18.250743, "lng": -95.237394
},{
"label": "Chilapan", "lat": 18.420311, "lng": -95.151651
},{
"label": "Plan de Xoxonata", "lat": 18.458417, "lng": -95.262335
},{
"label": "Bezuapan", "lat": 18.409308, "lng": -95.15721
},{
"label": "Ampliación Caravaca (Kilómetro 30)", "lat": 18.435881, "lng": -95.189106
},{
"label": "Jaime Ortiz", "lat": 18.435504, "lng": -95.203652
},{
"label": "Techalbasta", "lat": 18.481444, "lng": -95.179569
},{
"label": "Predio San Martín (Los Rosas)", "lat": 18.629794, "lng": -95.237261
},{
"label": "Antonio Xolio", "lat": 18.545112, "lng": -95.264881
},{
"label": "Chuniapan de Abajo", "lat": 18.357485, "lng": -95.221296
},{
"label": "Francisco J. Moreno", "lat": 18.389277, "lng": -95.279034
},{
"label": "Mixteca Alta", "lat": 18.274109, "lng": -95.221979
},{
"label": "San Marcos", "lat": 18.399518, "lng": -95.169778
},{
"label": "Zapotitán", "lat": 18.275216, "lng": -95.274408
},{
"label": "Kilómetro Tres", "lat": 18.442075, "lng": -95.237784
},{
"label": "San Juan", "lat": 18.384274, "lng": -95.271976
},{
"label": "El Nanche", "lat": 18.272338, "lng": -95.225699
},{
"label": "Santa Catalina", "lat": 18.427398, "lng": -95.265656
},{
"label": "El Laurel", "lat": 18.275194, "lng": -95.328983
},{
"label": "La Loma", "lat": 18.240367, "lng": -95.325366
},{
"label": "San Gabriel", "lat": 18.477952, "lng": -95.18347
},{
"label": "Colonia el Paraíso", "lat": 18.425983, "lng": -95.182495
},{
"label": "Chinacal", "lat": 18.6525, "lng": -95.22917
},{
"label": "Hermanas Aguirre", "lat": 18.39043, "lng": -95.251531
},{
"label": "Iomara", "lat": 18.614404, "lng": -95.088971
},{
"label": "Salinas Roca Partida", "lat": 18.702806, "lng": -95.242902
},{
"label": "La Esperanza", "lat": 18.24346, "lng": -95.367389
},{
"label": "Tierra Dura", "lat": 18.424919, "lng": -95.179296
},{
"label": "Francisco I. Madero", "lat": 18.423534, "lng": -95.274343
},{
"label": "Rosita [Granja]", "lat": 18.399381, "lng": -95.200167
},{
"label": "Bella Vista", "lat": 18.422966, "lng": -95.265978
}]