[{
"label": "Parada de Águilas (Los Cuervos)", "lat": 17.732044, "lng": -95.700665
},{
"label": "Las Abejitas", "lat": 17.69814, "lng": -95.726372
},{
"label": "Ernesto Díaz", "lat": 17.575207, "lng": -95.656339
},{
"label": "El 85", "lat": 17.582406, "lng": -95.598058
},{
"label": "El Trébol", "lat": 17.703578, "lng": -95.735948
},{
"label": "El Paraíso", "lat": 17.657634, "lng": -95.61028
},{
"label": "Finca Lupita", "lat": 17.594939, "lng": -95.610076
},{
"label": "La Barbasquera", "lat": 17.626494, "lng": -95.733522
},{
"label": "Pablo Peréz Bautista", "lat": 17.574199, "lng": -95.688599
},{
"label": "El Tauro", "lat": 17.58785, "lng": -95.583829
},{
"label": "Segundo González López", "lat": 17.721976, "lng": -95.716228
},{
"label": "Arroyo de Hojas", "lat": 17.559292, "lng": -95.561661
},{
"label": "La Joya", "lat": 17.618911, "lng": -95.568277
},{
"label": "San Cristóbal", "lat": 17.643269, "lng": -95.654519
},{
"label": "Martha Díaz", "lat": 17.574419, "lng": -95.661519
},{
"label": "Santa Teresa", "lat": 17.694333, "lng": -95.673534
},{
"label": "Margarito Montes Parra Ejido", "lat": 17.581793, "lng": -95.611598
},{
"label": "Miguel Hernández González", "lat": 17.544614, "lng": -95.705676
},{
"label": "Graciano Jaime", "lat": 17.713361, "lng": -95.7013
},{
"label": "Nueva Boca del Monte", "lat": 17.622591, "lng": -95.716397
},{
"label": "Alegre", "lat": 17.68083, "lng": -95.71778
},{
"label": "El Faro", "lat": 17.598241, "lng": -95.600015
},{
"label": "José Juan López", "lat": 17.576436, "lng": -95.666927
},{
"label": "Las Conchitas", "lat": 17.581473, "lng": -95.672004
},{
"label": "El Capricho", "lat": 17.589225, "lng": -95.606043
},{
"label": "Colonia Miguel Alemán", "lat": 17.579009, "lng": -95.662848
},{
"label": "Río la Lana", "lat": 17.549467, "lng": -95.572974
},{
"label": "Corpus Cristy", "lat": 17.59585, "lng": -95.605713
},{
"label": "San Fernando", "lat": 17.616558, "lng": -95.642004
},{
"label": "Mario Bautista", "lat": 17.564628, "lng": -95.647678
},{
"label": "Niños Héroes", "lat": 17.660979, "lng": -95.662589
},{
"label": "El Arenalito", "lat": 17.593063, "lng": -95.668929
},{
"label": "El Encinal", "lat": 17.70274, "lng": -95.718654
},{
"label": "Andrés Soto Rosa", "lat": 17.559471, "lng": -95.56527
},{
"label": "El Toral", "lat": 17.573655, "lng": -95.641656
},{
"label": "General Lázaro Cárdenas", "lat": 17.708997, "lng": -95.737413
},{
"label": "La Desviación", "lat": 17.634445, "lng": -95.602855
},{
"label": "Santa Margarita Yogopi", "lat": 17.560516, "lng": -95.535292
},{
"label": "Augusto Gómez Villanueva", "lat": 17.563621, "lng": -95.582836
},{
"label": "Puebla", "lat": 17.594173, "lng": -95.707704
},{
"label": "Las Palmitas", "lat": 17.625216, "lng": -95.659569
},{
"label": "El Nuevo Progreso Tatahuicapan", "lat": 17.639146, "lng": -95.527943
},{
"label": "Paulino Martínez", "lat": 17.626433, "lng": -95.650683
},{
"label": "La Ostuta", "lat": 17.592574, "lng": -95.718456
},{
"label": "El Encino", "lat": 17.694898, "lng": -95.734979
},{
"label": "San Carlos", "lat": 17.62012, "lng": -95.632867
},{
"label": "Los Hernández", "lat": 17.647206, "lng": -95.561255
},{
"label": "Felipe Villa Correa", "lat": 17.623431, "lng": -95.621331
},{
"label": "Loma Alta", "lat": 17.54381, "lng": -95.580537
},{
"label": "San Antonio", "lat": 17.595918, "lng": -95.608919
},{
"label": "El Manzanero", "lat": 17.59901, "lng": -95.611653
},{
"label": "El Nazareno", "lat": 17.597046, "lng": -95.612996
},{
"label": "La Selva", "lat": 17.576823, "lng": -95.594382
},{
"label": "Ejido Sergio Vera Cervantes", "lat": 17.606394, "lng": -95.628728
},{
"label": "Francisco Ramos Mendoza", "lat": 17.639404, "lng": -95.673208
},{
"label": "San Gabriel de la Chinantla", "lat": 17.597967, "lng": -95.802693
},{
"label": "Siete Hermanos", "lat": 17.631173, "lng": -95.736979
},{
"label": "Ejido Revolución (Arroyo del Olvido)", "lat": 17.709244, "lng": -95.741616
},{
"label": "Julián López", "lat": 17.578078, "lng": -95.671811
},{
"label": "Benito Juárez", "lat": 17.61274, "lng": -95.633617
},{
"label": "El Tesoro", "lat": 17.632418, "lng": -95.628653
},{
"label": "Arroyo", "lat": 17.541835, "lng": -95.689513
},{
"label": "La Laguna", "lat": 17.566562, "lng": -95.70888
},{
"label": "Tatahuicapa", "lat": 17.550696, "lng": -95.641339
},{
"label": "La Aurora", "lat": 17.568948, "lng": -95.694926
},{
"label": "Los Landa", "lat": 17.623219, "lng": -95.576279
},{
"label": "Emiliano Zapata", "lat": 17.628609, "lng": -95.688019
},{
"label": "Serveriano Barragán", "lat": 17.66111, "lng": -95.687707
},{
"label": "Alfredo V. Bonfil", "lat": 17.674419, "lng": -95.693573
},{
"label": "San Antonio la Libertad", "lat": 17.586551, "lng": -95.632896
},{
"label": "Patricia González Castañeda", "lat": 17.712171, "lng": -95.740377
},{
"label": "Diego Mateo Pérez", "lat": 17.548868, "lng": -95.662469
},{
"label": "Guadalupe Santos López", "lat": 17.641539, "lng": -95.67825
},{
"label": "Salvador Cortés Vázquez", "lat": 17.688164, "lng": -95.717211
},{
"label": "Las Gardenias", "lat": 17.573146, "lng": -95.617004
},{
"label": "Cristino Contreras Raymundo", "lat": 17.587229, "lng": -95.647869
},{
"label": "Arturo Martínez Vázquez", "lat": 17.643914, "lng": -95.521472
},{
"label": "Dante Delgado", "lat": 17.581703, "lng": -95.609606
},{
"label": "La Ceiba Nueva", "lat": 17.610419, "lng": -95.626313
},{
"label": "La Guadalupe", "lat": 17.581041, "lng": -95.726016
},{
"label": "Vista Hermosa (Matías Ochoa)", "lat": 17.65028, "lng": -95.55417
},{
"label": "Arenalito", "lat": 17.589203, "lng": -95.667127
},{
"label": "El Zapote", "lat": 17.557849, "lng": -95.552842
},{
"label": "Rancho Grande", "lat": 17.698941, "lng": -95.726081
},{
"label": "Francisco Sánchez Castro", "lat": 17.56239, "lng": -95.550854
},{
"label": "La Providencia", "lat": 17.706576, "lng": -95.707526
},{
"label": "La Piñita", "lat": 17.696848, "lng": -95.723965
},{
"label": "El Girasol", "lat": 17.738189, "lng": -95.684005
},{
"label": "Encino Gordo", "lat": 17.694733, "lng": -95.733127
},{
"label": "Arroyo Santa María", "lat": 17.674642, "lng": -95.622421
},{
"label": "Hermanos Uscanga", "lat": 17.561368, "lng": -95.56671
},{
"label": "El Diamante", "lat": 17.571785, "lng": -95.614506
},{
"label": "El Medellín", "lat": 17.587977, "lng": -95.621626
},{
"label": "Las Camelias", "lat": 17.704185, "lng": -95.724293
},{
"label": "Los Pinos", "lat": 17.633292, "lng": -95.646729
},{
"label": "El Canario", "lat": 17.592244, "lng": -95.695304
},{
"label": "Vista Hermosa", "lat": 17.663761, "lng": -95.689253
},{
"label": "Mundo Nuevo", "lat": 17.59312, "lng": -95.601456
},{
"label": "San Vicente", "lat": 17.631824, "lng": -95.673739
},{
"label": "Alberto Portillo Mendoza", "lat": 17.578678, "lng": -95.637158
},{
"label": "Las Carmelitas", "lat": 17.670403, "lng": -95.691341
},{
"label": "Las Bugambilias", "lat": 17.569811, "lng": -95.688329
},{
"label": "Xochiapa", "lat": 17.663732, "lng": -95.734602
},{
"label": "San Judas Tadeo", "lat": 17.57839, "lng": -95.596771
},{
"label": "El Castillo", "lat": 17.601655, "lng": -95.608526
},{
"label": "El Sahamán", "lat": 17.601658, "lng": -95.619981
},{
"label": "Nuevo Ideal de Arriba", "lat": 17.577453, "lng": -95.614023
},{
"label": "El Vergel", "lat": 17.602584, "lng": -95.621043
},{
"label": "El Sacrificio", "lat": 17.572129, "lng": -95.635185
},{
"label": "Vicente Fox Quezada", "lat": 17.554564, "lng": -95.578369
},{
"label": "Arroyo Colorado (Cruz Verde)", "lat": 17.539468, "lng": -95.692737
},{
"label": "Rubén Ortiz", "lat": 17.565446, "lng": -95.5663
},{
"label": "La Unión Progreso Tatahuicapa", "lat": 17.646523, "lng": -95.579404
},{
"label": "Juan Martínez", "lat": 17.62339, "lng": -95.571094
},{
"label": "Brígido López Cortés", "lat": 17.576594, "lng": -95.592917
},{
"label": "Luis Quezada", "lat": 17.546575, "lng": -95.706977
},{
"label": "Boca del Monte", "lat": 17.614567, "lng": -95.7307
},{
"label": "Refugio Díaz", "lat": 17.574584, "lng": -95.664518
},{
"label": "Alondra", "lat": 17.67195, "lng": -95.697079
}]