[{
"label": "El Rincón", "lat": 18.743228, "lng": -97.201474
},{
"label": "Xonotla", "lat": 18.743178, "lng": -97.150979
},{
"label": "Tlatilpa", "lat": 18.733245, "lng": -97.144664
},{
"label": "Tlatzala", "lat": 18.728869, "lng": -97.139189
},{
"label": "Atzompa", "lat": 18.725245, "lng": -97.184076
},{
"label": "Las Porfiadas", "lat": 18.776116, "lng": -97.210278
},{
"label": "Ahuacuitlapa", "lat": 18.679261, "lng": -97.18004
},{
"label": "Huixtitla", "lat": 18.75048, "lng": -97.195006
},{
"label": "Xiquila", "lat": 18.709954, "lng": -97.195475
},{
"label": "Exoquila", "lat": 18.73813, "lng": -97.168001
},{
"label": "Monterrey", "lat": 18.739808, "lng": -97.143719
},{
"label": "Atexcalco", "lat": 18.715148, "lng": -97.183256
},{
"label": "Atempa", "lat": 18.690673, "lng": -97.174848
},{
"label": "Barrio Nuevo", "lat": 18.677535, "lng": -97.184425
},{
"label": "Tlalpan", "lat": 18.743148, "lng": -97.161345
},{
"label": "Porvenir", "lat": 18.667899, "lng": -97.188335
},{
"label": "Linda Vista", "lat": 18.714014, "lng": -97.197585
},{
"label": "Buena Vista", "lat": 18.749607, "lng": -97.154047
},{
"label": "Soledad Atzompa", "lat": 18.755315, "lng": -97.149413
},{
"label": "Tetlatzinga", "lat": 18.69505, "lng": -97.184724
},{
"label": "Capulines", "lat": 18.759596, "lng": -97.222705
},{
"label": "Paraíso", "lat": 18.70838, "lng": -97.161846
},{
"label": "Huitzila", "lat": 18.718219, "lng": -97.171344
},{
"label": "Acuapa", "lat": 18.699873, "lng": -97.178469
},{
"label": "San Juan de los Lagos", "lat": 18.738899, "lng": -97.165263
},{
"label": "Mexcala", "lat": 18.695052, "lng": -97.164838
},{
"label": "Ahuatempa", "lat": 18.73828, "lng": -97.148452
},{
"label": "Tetla (Ixtacahuatitla)", "lat": 18.744119, "lng": -97.141145
},{
"label": "Acultzinapa", "lat": 18.687421, "lng": -97.187048
},{
"label": "Benito Juárez", "lat": 18.753798, "lng": -97.157646
},{
"label": "Tepexpan", "lat": 18.7466, "lng": -97.156379
},{
"label": "Ilicuapa", "lat": 18.746241, "lng": -97.153911
},{
"label": "Tepaxapa", "lat": 18.661044, "lng": -97.181882
},{
"label": "Texmoltitla", "lat": 18.73893, "lng": -97.138587
},{
"label": "Zacatepec", "lat": 18.690042, "lng": -97.169882
},{
"label": "Teotlalco", "lat": 18.709882, "lng": -97.163726
},{
"label": "Villa Nueva", "lat": 18.661935, "lng": -97.185941
}]