[{
"label": "Buena Vista (María García)", "lat": 18.339122, "lng": -94.976847
},{
"label": "Nuevo México", "lat": 18.35972, "lng": -94.905
},{
"label": "Agua Clara", "lat": 18.194473, "lng": -94.852042
},{
"label": "El Único (Graciano Ortega)", "lat": 18.31595, "lng": -94.980174
},{
"label": "Cuauhtémoc", "lat": 18.179913, "lng": -94.853764
},{
"label": "Cantarranas (Seris Mendoza Jiménez)", "lat": 18.337391, "lng": -95.002515
},{
"label": "Antonio Chacón", "lat": 18.331955, "lng": -94.971263
},{
"label": "Buena Vista", "lat": 18.228782, "lng": -94.934055
},{
"label": "Santa Martha", "lat": 18.339901, "lng": -94.891068
},{
"label": "Soteapan Dos", "lat": 18.225329, "lng": -94.875667
},{
"label": "El Guayabal (Guillermo Consate)", "lat": 18.339674, "lng": -95.002629
},{
"label": "Amamaloya", "lat": 18.149081, "lng": -94.806903
},{
"label": "Ocotal Grande", "lat": 18.278317, "lng": -94.830946
},{
"label": "Arroyo Bueno (Hipólito Landa)", "lat": 18.344552, "lng": -94.989773
},{
"label": "San Fernando", "lat": 18.268928, "lng": -94.884181
},{
"label": "Los Juanes", "lat": 18.355318, "lng": -94.978821
},{
"label": "Colonia Benito Juárez", "lat": 18.242331, "lng": -94.913818
},{
"label": "La Florida", "lat": 18.100246, "lng": -94.879108
},{
"label": "La Escondida (Leobardo Pérez Montiel)", "lat": 18.222351, "lng": -94.888684
},{
"label": "Michapa", "lat": 18.29402, "lng": -94.939017
},{
"label": "El Bienvenido", "lat": 18.309376, "lng": -94.976526
},{
"label": "Rancho Alegre (Bartolo Ortega)", "lat": 18.309392, "lng": -94.970684
},{
"label": "El Cañal", "lat": 18.182216, "lng": -94.863487
},{
"label": "Cuitlazolle", "lat": 18.30167, "lng": -94.96611
},{
"label": "El Capullo", "lat": 18.347319, "lng": -94.977102
},{
"label": "Antonio Duarte", "lat": 18.207969, "lng": -94.885364
},{
"label": "Rancho Michapa", "lat": 18.3111, "lng": -94.942093
},{
"label": "Bastonal", "lat": 18.332533, "lng": -94.944729
},{
"label": "Manantial", "lat": 18.225485, "lng": -94.888554
},{
"label": "El Encino", "lat": 18.081606, "lng": -94.804291
},{
"label": "Arroyo Brujo (Jaime Landa)", "lat": 18.34306, "lng": -94.98889
},{
"label": "Buenos Aires", "lat": 18.126239, "lng": -94.914327
},{
"label": "San Antonio", "lat": 18.306581, "lng": -94.949966
},{
"label": "Beneficio Serrano (Kilómetro 38)", "lat": 18.203261, "lng": -94.873439
},{
"label": "Kilómetro Diez", "lat": 18.123208, "lng": -94.840291
},{
"label": "Eliseo García Gallegos", "lat": 18.333307, "lng": -95.000053
},{
"label": "Cuilonia Nueva", "lat": 18.154487, "lng": -94.914298
},{
"label": "Tecate", "lat": 18.149246, "lng": -94.943303
},{
"label": "La Estribera", "lat": 18.117642, "lng": -94.888666
},{
"label": "General Hilario C. Salas", "lat": 18.273995, "lng": -94.991211
},{
"label": "Finca Garibay", "lat": 18.055498, "lng": -94.857965
},{
"label": "Tres Hermanos", "lat": 18.33167, "lng": -94.98028
},{
"label": "Rancho Nuevo", "lat": 18.31786, "lng": -94.978536
},{
"label": "El Limón", "lat": 18.19663, "lng": -94.860359
},{
"label": "San José", "lat": 18.250153, "lng": -94.881624
},{
"label": "La Laguna", "lat": 18.206708, "lng": -94.877575
},{
"label": "Los Gavilanes", "lat": 18.325201, "lng": -94.949597
},{
"label": "Pop-Sojnas", "lat": 18.258631, "lng": -94.92498
},{
"label": "San Pedrito", "lat": 18.15498, "lng": -94.828719
},{
"label": "Marcelino Gasparín", "lat": 18.343574, "lng": -95.008209
},{
"label": "Hilario C. Salas", "lat": 18.218091, "lng": -94.879492
},{
"label": "Laguna Ceiba", "lat": 18.192797, "lng": -94.869148
},{
"label": "Soteapan", "lat": 18.22951, "lng": -94.872756
},{
"label": "El Platanillo", "lat": 18.218819, "lng": -94.88462
},{
"label": "El Bienvenido (Leodegario Landa Fernández)", "lat": 18.333966, "lng": -94.965584
},{
"label": "El Mirador", "lat": 18.33293, "lng": -94.960191
},{
"label": "El Gavilán", "lat": 18.32556, "lng": -94.93944
},{
"label": "La Providencia (Guillermo Rodríguez)", "lat": 18.336538, "lng": -94.980276
},{
"label": "Emiliano Zapata", "lat": 18.066021, "lng": -94.835857
},{
"label": "Cuilonia", "lat": 18.185112, "lng": -94.938646
},{
"label": "El Cuervo (Jacinto Rodríguez)", "lat": 18.334004, "lng": -94.985661
},{
"label": "Los Romero (Florentino Romero Salazar)", "lat": 18.33972, "lng": -95.00611
},{
"label": "Ocotal Chico", "lat": 18.257558, "lng": -94.860109
},{
"label": "Reforma Agraria", "lat": 18.108842, "lng": -94.854381
},{
"label": "Morelos", "lat": 18.178922, "lng": -94.950446
},{
"label": "El Zapote", "lat": 18.171946, "lng": -94.957357
},{
"label": "Cerro Colorado", "lat": 18.121792, "lng": -94.910528
},{
"label": "Tierra y Libertad", "lat": 18.070435, "lng": -94.808131
},{
"label": "Lucina Jiménez", "lat": 18.348016, "lng": -94.971311
},{
"label": "Rancho Rosalia", "lat": 18.338173, "lng": -95.016971
},{
"label": "Juan Solano", "lat": 18.314279, "lng": -94.973394
},{
"label": "Judith Centurión", "lat": 18.34139, "lng": -95.01056
},{
"label": "Desviación a Acayucan (Kilómetro 6)", "lat": 18.146446, "lng": -94.891812
},{
"label": "Huazuntlán [Planta Eléctrica]", "lat": 18.201232, "lng": -94.870873
},{
"label": "María Tenorio", "lat": 18.344926, "lng": -95.008253
},{
"label": "Buenavista (Matilde Rodríguez)", "lat": 18.342113, "lng": -94.973325
},{
"label": "Mirador Saltillo", "lat": 18.158722, "lng": -94.852839
},{
"label": "Gonzalo García", "lat": 18.319392, "lng": -94.955202
},{
"label": "Los Pinos", "lat": 18.319457, "lng": -94.993766
},{
"label": "Los Arias", "lat": 18.147688, "lng": -94.878264
},{
"label": "José Landa", "lat": 18.34272, "lng": -94.963443
},{
"label": "El Girasol (Benjamín Cruz)", "lat": 18.330932, "lng": -94.997855
},{
"label": "Rancho Lucero", "lat": 18.129615, "lng": -94.906446
},{
"label": "Los Vergeles (Jacobo García)", "lat": 18.341533, "lng": -94.969801
},{
"label": "Las Palomas (Rutilo García)", "lat": 18.337398, "lng": -94.972419
},{
"label": "La Ceiba", "lat": 18.136632, "lng": -94.866568
},{
"label": "San Martín", "lat": 18.351349, "lng": -94.952262
},{
"label": "Los García (Vicente García)", "lat": 18.33917, "lng": -95.01083
},{
"label": "Las Palomas", "lat": 18.31167, "lng": -94.97833
},{
"label": "Colonia la Magdalena", "lat": 18.331968, "lng": -94.992496
},{
"label": "El Progreso", "lat": 18.307778, "lng": -94.969739
},{
"label": "Las Palomas (Bajo Paloma)", "lat": 18.147006, "lng": -94.900308
},{
"label": "Mario Hernández", "lat": 18.3338, "lng": -95.01284
},{
"label": "Güicho Lanche", "lat": 18.219873, "lng": -94.897122
},{
"label": "El Tulín", "lat": 18.248103, "lng": -94.953674
},{
"label": "Mazumiapan Chico", "lat": 18.267767, "lng": -94.85738
},{
"label": "Rodríguez (Kilómetro 5)", "lat": 18.156458, "lng": -94.890681
},{
"label": "Ocozotepec", "lat": 18.258858, "lng": -94.909758
}]