[{
"label": "Cristo Rey", "lat": 21.481666, "lng": -97.659268
},{
"label": "Altamira", "lat": 21.456673, "lng": -97.742582
},{
"label": "Calmecate", "lat": 21.432751, "lng": -97.766207
},{
"label": "El Carbajal", "lat": 21.492208, "lng": -97.630934
},{
"label": "Ampliación Palmarillo", "lat": 21.465844, "lng": -97.724166
},{
"label": "San Jerónimo (La Guásima)", "lat": 21.525623, "lng": -97.612224
},{
"label": "La Gloria", "lat": 21.489565, "lng": -97.725559
},{
"label": "Estrella de Oro", "lat": 21.560819, "lng": -97.6492
},{
"label": "Buenavista", "lat": 21.523306, "lng": -97.690574
},{
"label": "Ejido de la Reforma (La Trinidad)", "lat": 21.418804, "lng": -97.759314
},{
"label": "El Porvenir (El Maguey Dos)", "lat": 21.421564, "lng": -97.760556
},{
"label": "El Rey (San Ramón)", "lat": 21.601353, "lng": -97.653594
},{
"label": "San Isidro", "lat": 21.405029, "lng": -97.582097
},{
"label": "San Cristóbal", "lat": 21.556949, "lng": -97.693862
},{
"label": "El Coyol", "lat": 21.600753, "lng": -97.691863
},{
"label": "La Mar", "lat": 21.526547, "lng": -97.670685
},{
"label": "El Pescadito", "lat": 21.413326, "lng": -97.754272
},{
"label": "Papatlas", "lat": 21.580123, "lng": -97.719115
},{
"label": "San Martín las Piedras", "lat": 21.572011, "lng": -97.636862
},{
"label": "Ampliación Ejido Rincón", "lat": 21.552733, "lng": -97.701164
},{
"label": "El Frijolillo", "lat": 21.39455, "lng": -97.575336
},{
"label": "Las Piochas", "lat": 21.596634, "lng": -97.667398
},{
"label": "San Lorenzo", "lat": 21.49783, "lng": -97.670249
},{
"label": "Santa Fe", "lat": 21.52364, "lng": -97.720044
},{
"label": "El Jagüey", "lat": 21.514693, "lng": -97.705118
},{
"label": "Tamalín", "lat": 21.337939, "lng": -97.81323
},{
"label": "El Cinco", "lat": 21.519352, "lng": -97.695181
},{
"label": "Kilómetro Cuarenta", "lat": 21.554906, "lng": -97.646354
},{
"label": "El Cedral (Poblado el Cedral)", "lat": 21.425199, "lng": -97.795985
},{
"label": "San Jerónimo", "lat": 21.518366, "lng": -97.613329
},{
"label": "Los Manueles", "lat": 21.527527, "lng": -97.653992
},{
"label": "Santa Rosa", "lat": 21.534655, "lng": -97.67984
},{
"label": "San Ramón", "lat": 21.425191, "lng": -97.772341
},{
"label": "Piedra Blanca", "lat": 21.434032, "lng": -97.752353
},{
"label": "Ejido Solidaridad Dos", "lat": 21.486413, "lng": -97.716114
},{
"label": "La Fuente", "lat": 21.545991, "lng": -97.725182
},{
"label": "Santa Clara", "lat": 21.533017, "lng": -97.683615
},{
"label": "La Beraca", "lat": 21.591685, "lng": -97.686223
},{
"label": "El Testerazo (Pánuco)", "lat": 21.597539, "lng": -97.673061
},{
"label": "Boca la Mar", "lat": 21.605545, "lng": -97.654689
},{
"label": "San Lucas", "lat": 21.556149, "lng": -97.686499
},{
"label": "Palo Blanco", "lat": 21.590659, "lng": -97.691281
},{
"label": "Rita Herrera", "lat": 21.403084, "lng": -97.54297
},{
"label": "El Jaral", "lat": 21.513761, "lng": -97.637417
},{
"label": "Santa Laura", "lat": 21.593595, "lng": -97.649608
},{
"label": "San Enrique", "lat": 21.537891, "lng": -97.700912
},{
"label": "Los Alazanes", "lat": 21.498258, "lng": -97.721851
},{
"label": "El Maguey", "lat": 21.429932, "lng": -97.755381
},{
"label": "San Rafael", "lat": 21.528459, "lng": -97.697593
},{
"label": "Saladero", "lat": 21.424265, "lng": -97.545344
},{
"label": "La Trinidad", "lat": 21.423417, "lng": -97.772539
},{
"label": "Las Piedras", "lat": 21.579102, "lng": -97.640482
},{
"label": "El Buitre", "lat": 21.512854, "lng": -97.733323
},{
"label": "Palma Sola", "lat": 21.535861, "lng": -97.69353
},{
"label": "El Herradero", "lat": 21.546541, "lng": -97.644445
},{
"label": "Rancho Nuevo", "lat": 21.564199, "lng": -97.679348
},{
"label": "La Cebadilla", "lat": 21.595613, "lng": -97.694134
},{
"label": "El Rincón", "lat": 21.527333, "lng": -97.706948
},{
"label": "El Jacube", "lat": 21.467399, "lng": -97.679691
},{
"label": "San José", "lat": 21.459399, "lng": -97.749773
},{
"label": "Los Titos (San Ramón)", "lat": 21.599239, "lng": -97.652486
},{
"label": "La Caridad", "lat": 21.476791, "lng": -97.742656
},{
"label": "Palmarillo", "lat": 21.459127, "lng": -97.733141
},{
"label": "Ejido el Rincón", "lat": 21.50727, "lng": -97.712093
},{
"label": "Los Potreros", "lat": 21.486096, "lng": -97.733909
},{
"label": "El Azadón", "lat": 21.492188, "lng": -97.70115
},{
"label": "Tierra Prieta", "lat": 21.567673, "lng": -97.663936
},{
"label": "La Riverita", "lat": 21.607595, "lng": -97.706294
},{
"label": "La Herradura", "lat": 21.43828, "lng": -97.754399
},{
"label": "Mamey la Mar", "lat": 21.519433, "lng": -97.648144
},{
"label": "Paso Real", "lat": 21.501074, "lng": -97.666111
},{
"label": "La Merced", "lat": 21.392545, "lng": -97.558391
},{
"label": "El Veinte", "lat": 21.489002, "lng": -97.609067
},{
"label": "Escobal (Ejido Escobal)", "lat": 21.454483, "lng": -97.748933
},{
"label": "Carmona y Valle", "lat": 21.359632, "lng": -97.794806
},{
"label": "Chomotla", "lat": 21.602703, "lng": -97.712075
},{
"label": "El Campeón", "lat": 21.559716, "lng": -97.648461
},{
"label": "El Cascajal", "lat": 21.61399, "lng": -97.701845
},{
"label": "Feliciano del Ángel Espinoza (Cuatro Hermanos)", "lat": 21.429945, "lng": -97.567522
},{
"label": "La Martinica", "lat": 21.528711, "lng": -97.748572
},{
"label": "El Crucero", "lat": 21.34495, "lng": -97.809437
},{
"label": "El Prado", "lat": 21.571721, "lng": -97.651916
},{
"label": "Los Pinos", "lat": 21.344696, "lng": -97.804088
},{
"label": "Batería Número Tres (Tres Hermanos)", "lat": 21.472103, "lng": -97.745296
},{
"label": "Hacienda San Jerónimo", "lat": 21.4729, "lng": -97.673187
},{
"label": "Santa Elena", "lat": 21.537546, "lng": -97.672861
},{
"label": "San Judas", "lat": 21.501885, "lng": -97.715617
},{
"label": "Don Beto", "lat": 21.481488, "lng": -97.7198
},{
"label": "Los Pinos (San Joaquín)", "lat": 21.585256, "lng": -97.644957
},{
"label": "Ejido Cedral", "lat": 21.424668, "lng": -97.778155
},{
"label": "Subida Alta", "lat": 21.523789, "lng": -97.679053
},{
"label": "La Mina Bella Vista", "lat": 21.325687, "lng": -97.818558
},{
"label": "San Javier", "lat": 21.605443, "lng": -97.713761
},{
"label": "Bonampak", "lat": 21.495525, "lng": -97.596826
},{
"label": "Hacienda Vieja", "lat": 21.480503, "lng": -97.713659
},{
"label": "Paso Cucharas", "lat": 21.613623, "lng": -97.658423
},{
"label": "San Martín", "lat": 21.427205, "lng": -97.767219
},{
"label": "Cerro Santa Catarina", "lat": 21.541929, "lng": -97.681789
},{
"label": "Rancho Naranjal", "lat": 21.543855, "lng": -97.669389
},{
"label": "La Reforma", "lat": 21.486075, "lng": -97.749721
},{
"label": "Piñonal", "lat": 21.570158, "lng": -97.636533
},{
"label": "El Olivo", "lat": 21.503956, "lng": -97.694039
},{
"label": "Tres Hermanos (La Trinidad)", "lat": 21.425294, "lng": -97.771794
},{
"label": "La Peña", "lat": 21.605209, "lng": -97.665471
},{
"label": "Las Flores", "lat": 21.576773, "lng": -97.644199
},{
"label": "El Armadillo", "lat": 21.421658, "lng": -97.78417
},{
"label": "La Mina", "lat": 21.530077, "lng": -97.664258
},{
"label": "El Ojite", "lat": 21.472987, "lng": -97.695604
},{
"label": "Las Palmas (Palmarillo)", "lat": 21.467087, "lng": -97.734373
},{
"label": "La Loma", "lat": 21.58787, "lng": -97.689707
},{
"label": "Las Guásimas", "lat": 21.3603, "lng": -97.789296
},{
"label": "Los Gilbertos", "lat": 21.592249, "lng": -97.648695
},{
"label": "San Francisco", "lat": 21.559113, "lng": -97.647804
},{
"label": "El Mezquite", "lat": 21.49826, "lng": -97.740988
},{
"label": "La Ausencia", "lat": 21.538111, "lng": -97.640804
},{
"label": "Dos Aguas", "lat": 21.513429, "lng": -97.648767
},{
"label": "La Soledad", "lat": 21.522698, "lng": -97.656087
},{
"label": "El Peque", "lat": 21.528232, "lng": -97.677204
},{
"label": "Bella Vista", "lat": 21.476269, "lng": -97.654483
},{
"label": "El Presidio", "lat": 21.405639, "lng": -97.531894
}]