[{
"label": "Tetlepanquetzalt", "lat": 19.879821, "lng": -96.941401
},{
"label": "Tonalmil", "lat": 19.794988, "lng": -96.926683
},{
"label": "Rancho Viejo", "lat": 19.817086, "lng": -96.928201
},{
"label": "El Saucal", "lat": 19.768585, "lng": -96.952984
},{
"label": "Barrio del Café", "lat": 19.842732, "lng": -96.942809
},{
"label": "Hidalgotitlán", "lat": 19.827099, "lng": -96.96827
},{
"label": "El Colorado", "lat": 19.836635, "lng": -96.933089
},{
"label": "El Mirador", "lat": 19.798169, "lng": -96.918266
},{
"label": "La Reforma", "lat": 19.82887, "lng": -96.913674
},{
"label": "Cuauhtémoc", "lat": 19.808948, "lng": -96.909762
},{
"label": "Tenochtitlán", "lat": 19.810133, "lng": -96.916366
},{
"label": "El Puntón", "lat": 19.77889, "lng": -96.91833
},{
"label": "La Sidra", "lat": 19.806062, "lng": -96.924719
},{
"label": "La Loma", "lat": 19.802411, "lng": -96.957066
},{
"label": "El Zapote", "lat": 19.811221, "lng": -96.934287
},{
"label": "Trojillas", "lat": 19.850923, "lng": -96.952208
},{
"label": "La Desviación de Colorado", "lat": 19.840514, "lng": -96.926003
},{
"label": "La Cañada", "lat": 19.798714, "lng": -96.950826
},{
"label": "La Unión", "lat": 19.7875, "lng": -96.913658
},{
"label": "Agustín Melgar", "lat": 19.795363, "lng": -96.969554
},{
"label": "Arroyo de la Yegua", "lat": 19.807049, "lng": -96.948954
},{
"label": "El Porvenir", "lat": 19.824715, "lng": -96.922059
},{
"label": "El Naranjal", "lat": 19.773486, "lng": -96.95279
},{
"label": "Cerro Cipresal", "lat": 19.79111, "lng": -96.89861
},{
"label": "La Defensa", "lat": 19.821619, "lng": -96.909359
},{
"label": "Vista Hermosa", "lat": 19.798138, "lng": -96.912678
},{
"label": "El Porvenir Dos", "lat": 19.826184, "lng": -96.938798
}]