[{
"label": "Roberto Alarcón", "lat": 19.393611, "lng": -97.000621
},{
"label": "Los Chirimoyos", "lat": 19.387659, "lng": -96.994986
},{
"label": "La Resurrección", "lat": 19.388724, "lng": -97.01345
},{
"label": "Paso del Obispo", "lat": 19.387218, "lng": -97.024603
},{
"label": "Las Granjas", "lat": 19.386841, "lng": -96.958385
},{
"label": "Finca el Zapote", "lat": 19.391602, "lng": -97.000824
},{
"label": "Teocelo", "lat": 19.386251, "lng": -96.972177
},{
"label": "El Paraíso", "lat": 19.369186, "lng": -96.981284
},{
"label": "Bavaria", "lat": 19.370014, "lng": -96.987781
},{
"label": "Tejería", "lat": 19.369338, "lng": -96.913455
},{
"label": "Las Juntas", "lat": 19.372706, "lng": -96.855188
},{
"label": "Los Barreales", "lat": 19.393869, "lng": -96.98513
},{
"label": "Buenavista", "lat": 19.382887, "lng": -96.989926
},{
"label": "La Ese", "lat": 19.377025, "lng": -96.98383
},{
"label": "La Granja", "lat": 19.394557, "lng": -96.994157
},{
"label": "El Palomar", "lat": 19.385829, "lng": -97.002933
},{
"label": "Rancho Texín", "lat": 19.36084, "lng": -97.00563
},{
"label": "Monte Blanco", "lat": 19.376636, "lng": -96.92926
},{
"label": "Alonso Martínez Martínez", "lat": 19.384772, "lng": -96.998714
},{
"label": "La Herradura", "lat": 19.375389, "lng": -96.992213
},{
"label": "El Trapiche", "lat": 19.380398, "lng": -96.998556
},{
"label": "Texín", "lat": 19.366478, "lng": -97.003988
},{
"label": "Isla Chica", "lat": 19.372815, "lng": -96.93929
},{
"label": "Llano Grande", "lat": 19.369601, "lng": -96.884421
},{
"label": "INIFAP [Campo Experimental]", "lat": 19.392812, "lng": -97.000934
},{
"label": "Barrio la Palma", "lat": 19.36476, "lng": -96.965998
},{
"label": "Isla Grande", "lat": 19.370049, "lng": -96.939699
},{
"label": "La Virgen", "lat": 19.386349, "lng": -96.992096
},{
"label": "El Zapote (Las Canoas Juan S. Conde)", "lat": 19.389122, "lng": -97.007544
},{
"label": "Santa María y Todos los Santos [Monasterio Benedictino]", "lat": 19.358962, "lng": -97.012618
},{
"label": "Los Cuevas", "lat": 19.364383, "lng": -96.985454
},{
"label": "El Águila", "lat": 19.365857, "lng": -96.979112
},{
"label": "Independencia", "lat": 19.385412, "lng": -96.947164
},{
"label": "Baxtla", "lat": 19.362458, "lng": -96.976005
},{
"label": "Santa Rosa", "lat": 19.398245, "lng": -96.99141
}]