[{
"label": "Alta Luz del Castillo", "lat": 19.03069, "lng": -96.842596
},{
"label": "Cañada Azul", "lat": 19.015423, "lng": -96.829502
},{
"label": "La Palma", "lat": 19.046016, "lng": -96.825997
},{
"label": "Palo Gacho", "lat": 19.028843, "lng": -96.80929
},{
"label": "El Pedregal", "lat": 19.089492, "lng": -96.877962
},{
"label": "El Triunfo", "lat": 19.072302, "lng": -96.870676
},{
"label": "Las Águilas", "lat": 19.028761, "lng": -96.855504
},{
"label": "Tepatlaxco", "lat": 19.067345, "lng": -96.842039
},{
"label": "Ejido Sonora", "lat": 19.081475, "lng": -96.855793
},{
"label": "San José Tenejapa", "lat": 19.014561, "lng": -96.841496
},{
"label": "Tercera Manzana", "lat": 19.058686, "lng": -96.857974
},{
"label": "Buena Vista", "lat": 19.043596, "lng": -96.860322
}]