[{
"label": "Citalapa", "lat": 19.627073, "lng": -96.772718
},{
"label": "Colonia Ejidal", "lat": 19.668863, "lng": -96.800275
},{
"label": "El Ocote (El Cerro del Ocote)", "lat": 19.698711, "lng": -96.735437
},{
"label": "Vicente Guerrero (Tepetates)", "lat": 19.612753, "lng": -96.807475
},{
"label": "Rincón Grande", "lat": 19.689234, "lng": -96.815669
},{
"label": "Totoyac", "lat": 19.703569, "lng": -96.784523
},{
"label": "La Nueva Reforma (La Parada)", "lat": 19.689403, "lng": -96.756013
},{
"label": "La Cañada Dos", "lat": 19.702943, "lng": -96.728335
},{
"label": "Hacienda Vieja", "lat": 19.626939, "lng": -96.791195
},{
"label": "Las Palomas", "lat": 19.687576, "lng": -96.764804
},{
"label": "El Patio", "lat": 19.66953, "lng": -96.769478
},{
"label": "Pie de la Cuesta (La Cuesta de San Miguel)", "lat": 19.664468, "lng": -96.815573
},{
"label": "La Pitiaja (Barro Blanco)", "lat": 19.670689, "lng": -96.776679
},{
"label": "La Cañada (La Barbechera)", "lat": 19.707596, "lng": -96.720838
},{
"label": "Mafafas", "lat": 19.658623, "lng": -96.754789
},{
"label": "Chininal", "lat": 19.640051, "lng": -96.776898
},{
"label": "Rancho Balero", "lat": 19.620887, "lng": -96.786862
},{
"label": "Barro Blanco Dos", "lat": 19.682929, "lng": -96.783384
},{
"label": "Colonia Enríquez", "lat": 19.679322, "lng": -96.742939
},{
"label": "Diez de Mayo", "lat": 19.707227, "lng": -96.788917
},{
"label": "San Lorenzo", "lat": 19.633353, "lng": -96.791758
},{
"label": "Colonia Cuauhtémoc", "lat": 19.711714, "lng": -96.762696
},{
"label": "Alto Tío Diego", "lat": 19.62377, "lng": -96.757447
},{
"label": "El Jarillal", "lat": 19.69417, "lng": -96.73667
},{
"label": "Tepetlán", "lat": 19.673869, "lng": -96.795987
},{
"label": "Barro Blanco", "lat": 19.683831, "lng": -96.790355
},{
"label": "Rancho del Maestro", "lat": 19.666507, "lng": -96.789676
},{
"label": "El Tapanco", "lat": 19.706746, "lng": -96.763773
},{
"label": "Temalcahuite", "lat": 19.674514, "lng": -96.818781
}]