[{
"label": "Esteban Sáenz Coronado", "lat": 21.154565, "lng": -97.920631
},{
"label": "El Recuerdo", "lat": 21.085895, "lng": -97.862438
},{
"label": "Eleodoro Cristóbal Calderón (Los Tigres)", "lat": 21.155996, "lng": -97.934524
},{
"label": "Ejido Basilio R. Miguel", "lat": 21.151352, "lng": -97.831802
},{
"label": "La Guásima", "lat": 21.113318, "lng": -97.837719
},{
"label": "Las Cañas", "lat": 21.183156, "lng": -97.940654
},{
"label": "Selpicio Gerardo Marcial", "lat": 21.146309, "lng": -97.836432
},{
"label": "El Trébol", "lat": 21.10333, "lng": -97.887242
},{
"label": "Víctor Gutiérrez Villa Gómez", "lat": 21.095415, "lng": -97.771479
},{
"label": "Eloísa Reyes Antonia", "lat": 21.130908, "lng": -97.944328
},{
"label": "La Noria", "lat": 21.16452, "lng": -97.885822
},{
"label": "La Ensenada", "lat": 21.119453, "lng": -97.75806
},{
"label": "Loma de Xamaya", "lat": 21.166478, "lng": -97.881637
},{
"label": "El Alambique", "lat": 21.175864, "lng": -97.867495
},{
"label": "La Orijuela", "lat": 21.161369, "lng": -97.875518
},{
"label": "Tierra Blanca", "lat": 21.159463, "lng": -97.919181
},{
"label": "Orlando Calderón", "lat": 21.158087, "lng": -97.779719
},{
"label": "Alborada", "lat": 21.116586, "lng": -97.860816
},{
"label": "Víctor Gómez Cobos", "lat": 21.122532, "lng": -97.757779
},{
"label": "La Virgencita", "lat": 21.165193, "lng": -97.89554
},{
"label": "Sergio López Cordero", "lat": 21.142514, "lng": -97.788954
},{
"label": "Moyutla (La Abuela) [Merendero]", "lat": 21.094215, "lng": -97.751389
},{
"label": "El Secreto", "lat": 21.164147, "lng": -97.821878
},{
"label": "El Águila", "lat": 21.160546, "lng": -97.927002
},{
"label": "El Olvido", "lat": 21.096362, "lng": -97.885993
},{
"label": "El Recreo", "lat": 21.104195, "lng": -97.894228
},{
"label": "Cuamanco", "lat": 21.127229, "lng": -97.856619
},{
"label": "Corral Falso", "lat": 21.086148, "lng": -97.872308
},{
"label": "Los Manantiales", "lat": 21.099635, "lng": -97.876204
},{
"label": "Rancho Moyutla", "lat": 21.109197, "lng": -97.768606
},{
"label": "Terrero", "lat": 21.173572, "lng": -97.858865
},{
"label": "Augusto Gómez Villanueva", "lat": 21.128511, "lng": -97.804601
},{
"label": "Alfredo Zavala", "lat": 21.162854, "lng": -97.784267
},{
"label": "Erasmo Riego", "lat": 21.160742, "lng": -97.782363
},{
"label": "Buenos Aires", "lat": 21.077126, "lng": -97.880728
},{
"label": "San Carlos", "lat": 21.180004, "lng": -97.901734
},{
"label": "Súchil", "lat": 21.140237, "lng": -97.883623
},{
"label": "El Anono", "lat": 21.117902, "lng": -97.901824
},{
"label": "La Mirada", "lat": 21.220639, "lng": -97.836944
},{
"label": "Bella Esperanza", "lat": 21.106262, "lng": -97.860882
},{
"label": "San José Jilitla", "lat": 21.196198, "lng": -97.860837
},{
"label": "La Quebradora", "lat": 21.101384, "lng": -97.74806
},{
"label": "Las Delicias (Piedra Grande)", "lat": 21.092781, "lng": -97.877086
},{
"label": "Pozo Lagarto", "lat": 21.16211, "lng": -97.939052
},{
"label": "Crucero del Humo", "lat": 21.159965, "lng": -97.943676
},{
"label": "Los Tigres", "lat": 21.153948, "lng": -97.928595
},{
"label": "Xuchitl B", "lat": 21.13964, "lng": -97.883464
},{
"label": "El Humo", "lat": 21.174782, "lng": -97.941508
},{
"label": "La Conchita", "lat": 21.16489, "lng": -97.878163
},{
"label": "El Porvenir", "lat": 21.149497, "lng": -97.776832
},{
"label": "Hacienda Jilitla", "lat": 21.207913, "lng": -97.859751
},{
"label": "Efraín Oviedo", "lat": 21.184254, "lng": -97.912716
},{
"label": "Moyutla (Kilómetro 48)", "lat": 21.106268, "lng": -97.767413
},{
"label": "Alto Moreno", "lat": 21.082939, "lng": -97.867825
},{
"label": "El Pocito", "lat": 21.154358, "lng": -97.836743
},{
"label": "San José", "lat": 21.187776, "lng": -97.865168
},{
"label": "Rancho Jilitla", "lat": 21.200674, "lng": -97.860933
},{
"label": "El Alto", "lat": 21.149725, "lng": -97.900301
},{
"label": "La Lima (Cuamanco)", "lat": 21.116606, "lng": -97.851328
},{
"label": "Las Delicias", "lat": 21.076539, "lng": -97.874209
},{
"label": "Jilitla", "lat": 21.198177, "lng": -97.861098
},{
"label": "Tepetzintla", "lat": 21.166113, "lng": -97.851058
},{
"label": "Xamaya", "lat": 21.163487, "lng": -97.89054
},{
"label": "San Miguel", "lat": 21.154304, "lng": -97.850008
},{
"label": "El Gavilán", "lat": 21.170368, "lng": -97.897941
},{
"label": "Las Chimeneas", "lat": 21.174391, "lng": -97.923938
},{
"label": "Apachicruz", "lat": 21.170688, "lng": -97.902444
},{
"label": "Las Mesillas", "lat": 21.074801, "lng": -97.871103
},{
"label": "Rancho Fantomas", "lat": 21.13025, "lng": -97.813603
},{
"label": "Juan de la Cruz Benito (La Gloria)", "lat": 21.171974, "lng": -97.916669
},{
"label": "Copaltitla", "lat": 21.184211, "lng": -97.874143
},{
"label": "El Chorro", "lat": 21.212537, "lng": -97.855163
},{
"label": "El Girasol", "lat": 21.171357, "lng": -97.860929
},{
"label": "Mata Redonda", "lat": 21.164249, "lng": -97.92409
},{
"label": "La Cuchilla", "lat": 21.183676, "lng": -97.847273
},{
"label": "Las Noventa", "lat": 21.197099, "lng": -97.848203
},{
"label": "Tecomate", "lat": 21.149499, "lng": -97.860482
},{
"label": "Yadira Bermúdez", "lat": 21.125426, "lng": -97.758403
},{
"label": "Vista Hermosa", "lat": 21.15599, "lng": -97.917637
},{
"label": "Los Corchos", "lat": 21.113238, "lng": -97.75599
},{
"label": "Santa Adela", "lat": 21.090869, "lng": -97.761669
},{
"label": "La Pileta", "lat": 21.161778, "lng": -97.871666
},{
"label": "La Ilusión", "lat": 21.09488, "lng": -97.876341
},{
"label": "Arturo Pulido", "lat": 21.126209, "lng": -97.770803
},{
"label": "Tezitlal", "lat": 21.196105, "lng": -97.944869
},{
"label": "Poca Envidia", "lat": 21.100901, "lng": -97.878735
},{
"label": "Los Benítez", "lat": 21.218272, "lng": -97.854833
},{
"label": "San Felipe Moralillo (El Saltillo Moralillo)", "lat": 21.176173, "lng": -97.823216
},{
"label": "Tres Hermanas", "lat": 21.087014, "lng": -97.871152
},{
"label": "Pomoca", "lat": 21.114955, "lng": -97.872221
},{
"label": "La Leona", "lat": 21.134067, "lng": -97.839812
},{
"label": "Finca Paty", "lat": 21.133317, "lng": -97.817066
},{
"label": "Hermanas Gómez", "lat": 21.178988, "lng": -97.820441
},{
"label": "Nemorio Miguel Alejandre", "lat": 21.189448, "lng": -97.910931
},{
"label": "La Peña", "lat": 21.116755, "lng": -97.891826
},{
"label": "María Virginia", "lat": 21.104583, "lng": -97.756471
},{
"label": "La Cruz", "lat": 21.212177, "lng": -97.855561
},{
"label": "El Sacrificio", "lat": 21.178344, "lng": -97.862352
},{
"label": "La Loma", "lat": 21.135183, "lng": -97.788927
},{
"label": "Moralillo", "lat": 21.182508, "lng": -97.819426
},{
"label": "Rancho Simitrio", "lat": 21.133351, "lng": -97.778059
},{
"label": "La Esperanza", "lat": 21.141798, "lng": -97.852127
},{
"label": "El Molinito", "lat": 21.138635, "lng": -97.870891
},{
"label": "El Coyote", "lat": 21.129001, "lng": -97.903052
},{
"label": "La Laja", "lat": 21.166436, "lng": -97.796862
},{
"label": "Alberto Bernal", "lat": 21.137592, "lng": -97.783753
},{
"label": "Déborah", "lat": 21.103153, "lng": -97.764885
},{
"label": "La Sierra", "lat": 21.202529, "lng": -97.894584
},{
"label": "Tenexco", "lat": 21.102441, "lng": -97.884451
}]