[{
"label": "La Florida", "lat": 20.594012, "lng": -98.337621
},{
"label": "El Plan", "lat": 20.663035, "lng": -98.286718
},{
"label": "El Pozo del Tigre", "lat": 20.663664, "lng": -98.25883
},{
"label": "El Lindero", "lat": 20.643215, "lng": -98.246851
},{
"label": "La Mirra", "lat": 20.627603, "lng": -98.350083
},{
"label": "El Encinal", "lat": 20.620561, "lng": -98.243779
},{
"label": "El Tomate", "lat": 20.578723, "lng": -98.379977
},{
"label": "Cerro de Guadalupe (Cerro Grande del Plumaje)", "lat": 20.682971, "lng": -98.329667
},{
"label": "El Pericón", "lat": 20.641973, "lng": -98.255026
},{
"label": "El F", "lat": 20.66806, "lng": -98.3
},{
"label": "Benito Juárez (El Armadillo)", "lat": 20.610566, "lng": -98.294395
},{
"label": "El Papatlar", "lat": 20.599833, "lng": -98.282104
},{
"label": "Chila de Enríquez", "lat": 20.575579, "lng": -98.342497
},{
"label": "El Jabalí", "lat": 20.651783, "lng": -98.293597
},{
"label": "El Sótano", "lat": 20.559609, "lng": -98.352565
},{
"label": "Los Papeles", "lat": 20.61417, "lng": -98.31333
},{
"label": "Las Canoas", "lat": 20.595143, "lng": -98.350125
},{
"label": "El Puerto", "lat": 20.678466, "lng": -98.336383
},{
"label": "Cerro Gordo", "lat": 20.670932, "lng": -98.324251
},{
"label": "El Lindero de Cerro Gordo", "lat": 20.685378, "lng": -98.321819
},{
"label": "La Cruz", "lat": 20.66028, "lng": -98.2875
},{
"label": "El Coyol", "lat": 20.65333, "lng": -98.27583
},{
"label": "Loma Larga", "lat": 20.606611, "lng": -98.279567
},{
"label": "Pie de la Cuesta", "lat": 20.609345, "lng": -98.362226
},{
"label": "La Abundancia", "lat": 20.628693, "lng": -98.26685
},{
"label": "El Zapotal", "lat": 20.590829, "lng": -98.292433
},{
"label": "Cerro Chiquito", "lat": 20.667461, "lng": -98.35051
},{
"label": "El Llano", "lat": 20.636496, "lng": -98.237676
},{
"label": "Tzicatlán", "lat": 20.675088, "lng": -98.235451
},{
"label": "El Capulín", "lat": 20.583449, "lng": -98.372366
},{
"label": "Arroyo Hondo", "lat": 20.605, "lng": -98.33556
},{
"label": "Sisabid", "lat": 20.653208, "lng": -98.32034
},{
"label": "Agua Linda", "lat": 20.574856, "lng": -98.38966
},{
"label": "Ayotuxtla", "lat": 20.649122, "lng": -98.302226
},{
"label": "Cumbre del Lindero", "lat": 20.657237, "lng": -98.276144
},{
"label": "El Mirral", "lat": 20.596003, "lng": -98.289019
},{
"label": "El Naranjal", "lat": 20.566018, "lng": -98.334911
},{
"label": "Casa Redonda", "lat": 20.599838, "lng": -98.380232
},{
"label": "Amaxac", "lat": 20.619211, "lng": -98.26339
},{
"label": "Texcatepec", "lat": 20.584819, "lng": -98.364564
}]