[{
"label": "Los Pingos", "lat": 17.97361, "lng": -94.8
},{
"label": "San Lorenzo Potrero Nuevo", "lat": 17.712354, "lng": -94.749285
},{
"label": "La Huachilama", "lat": 17.710621, "lng": -94.763926
},{
"label": "El Licenciado Rentano", "lat": 17.85944, "lng": -94.87222
},{
"label": "Apóstol Francisco I. Madero", "lat": 17.829363, "lng": -94.859457
},{
"label": "El Canal", "lat": 17.874584, "lng": -94.776845
},{
"label": "San Miguel (El Gallego)", "lat": 17.868311, "lng": -94.749295
},{
"label": "Correa de Abajo", "lat": 17.869628, "lng": -94.860669
},{
"label": "Felipe Vázquez Laguna", "lat": 17.873034, "lng": -94.825388
},{
"label": "El Rosario", "lat": 17.8525, "lng": -94.8025
},{
"label": "La Gloria", "lat": 17.945148, "lng": -94.848806
},{
"label": "Bartolo Pavón", "lat": 17.952468, "lng": -94.817329
},{
"label": "Rafael Arroyo", "lat": 17.73, "lng": -94.75778
},{
"label": "La Primavera", "lat": 17.802133, "lng": -94.786973
},{
"label": "Las Cañas (Juan Teodoro)", "lat": 17.665134, "lng": -94.744729
},{
"label": "El Amate", "lat": 17.667734, "lng": -94.770777
},{
"label": "Las Camelias (San Francisco)", "lat": 17.680404, "lng": -94.783437
},{
"label": "Víctor Ortiz González", "lat": 17.863367, "lng": -94.82105
},{
"label": "Las Mesas", "lat": 17.849774, "lng": -94.847401
},{
"label": "San Isidro", "lat": 17.945209, "lng": -94.813204
},{
"label": "La Joya", "lat": 17.903065, "lng": -94.832681
},{
"label": "Buena Vista", "lat": 17.954681, "lng": -94.833228
},{
"label": "El Campo", "lat": 17.718676, "lng": -94.717846
},{
"label": "Rogelio Reyes López", "lat": 17.96645, "lng": -94.806542
},{
"label": "El Centralito", "lat": 17.796146, "lng": -94.849869
},{
"label": "Los Cedros", "lat": 17.939466, "lng": -94.853091
},{
"label": "El Yute", "lat": 17.901222, "lng": -94.853205
},{
"label": "Santa Teresa", "lat": 17.734107, "lng": -94.767035
},{
"label": "Rancho Tenoch", "lat": 17.776587, "lng": -94.775641
},{
"label": "La Isla", "lat": 17.96583, "lng": -94.82
},{
"label": "Rafael Pereida", "lat": 17.868834, "lng": -94.86063
},{
"label": "El Viejo (San Carlos)", "lat": 17.864136, "lng": -94.856631
},{
"label": "Venustiano Carranza (Peña Blanca)", "lat": 17.643658, "lng": -94.753285
},{
"label": "Mazatlán", "lat": 17.8899, "lng": -94.798208
},{
"label": "El Halcón", "lat": 17.820031, "lng": -94.773247
},{
"label": "Casas Viejas", "lat": 17.843295, "lng": -94.799941
},{
"label": "Xochitlán (Palmillas)", "lat": 17.875156, "lng": -94.720137
},{
"label": "Leovigildo García Garza", "lat": 17.592846, "lng": -94.798872
},{
"label": "La Puerta Blanca", "lat": 17.849339, "lng": -94.855642
},{
"label": "Santa Rosa", "lat": 17.976423, "lng": -94.790226
},{
"label": "Zamora Dos", "lat": 17.709936, "lng": -94.762948
},{
"label": "Oliverio Galmich", "lat": 17.748578, "lng": -94.749354
},{
"label": "El Recreo", "lat": 17.910626, "lng": -94.786305
},{
"label": "Braulio González Muñoz", "lat": 17.74389, "lng": -94.75194
},{
"label": "Tres Manueles", "lat": 17.916487, "lng": -94.815431
},{
"label": "Desviación Potrero Nuevo", "lat": 17.710796, "lng": -94.763304
},{
"label": "Casa Blanca", "lat": 17.746336, "lng": -94.796761
},{
"label": "Las Praderas", "lat": 17.873195, "lng": -94.776202
},{
"label": "Las Palmas", "lat": 17.85333, "lng": -94.80528
},{
"label": "Guadalupe Victoria", "lat": 17.635992, "lng": -94.796595
},{
"label": "Mata de Caña", "lat": 17.877282, "lng": -94.723914
},{
"label": "Los Cocos", "lat": 17.861914, "lng": -94.878882
},{
"label": "El Chinine", "lat": 17.846165, "lng": -94.857465
},{
"label": "La Magdalena", "lat": 17.927776, "lng": -94.822064
},{
"label": "San Rafael Meyapán", "lat": 17.9073, "lng": -94.847741
},{
"label": "Tres Lomas", "lat": 17.941949, "lng": -94.817915
},{
"label": "Buenavista (El Corpal)", "lat": 17.786428, "lng": -94.783855
},{
"label": "José María Morelos y Pavón", "lat": 17.729816, "lng": -94.713188
},{
"label": "La Avispa", "lat": 17.772594, "lng": -94.822161
},{
"label": "El Azuzul", "lat": 17.781558, "lng": -94.838799
},{
"label": "Calzada", "lat": 17.700329, "lng": -94.794966
},{
"label": "Patolman", "lat": 17.935723, "lng": -94.836839
},{
"label": "Estación Texistepec", "lat": 17.91833, "lng": -94.81472
},{
"label": "El Tigrito", "lat": 17.721164, "lng": -94.792694
},{
"label": "San Antonio", "lat": 17.801113, "lng": -94.830353
},{
"label": "La Aguavina", "lat": 17.625749, "lng": -94.783761
},{
"label": "Los Reyes", "lat": 17.946922, "lng": -94.848747
},{
"label": "San Rafael", "lat": 17.850968, "lng": -94.789402
},{
"label": "El Espinal", "lat": 17.735371, "lng": -94.795939
},{
"label": "Boca del Río", "lat": 17.714774, "lng": -94.710972
},{
"label": "El Tortuguero", "lat": 17.782761, "lng": -94.787732
},{
"label": "Xochitlán Monte Negro", "lat": 17.864548, "lng": -94.745338
},{
"label": "El Tesoro", "lat": 17.797893, "lng": -94.82429
},{
"label": "El Norteño", "lat": 17.727949, "lng": -94.753483
},{
"label": "Espiga de Oro", "lat": 17.966614, "lng": -94.809341
},{
"label": "Finca Blanca Estrella", "lat": 17.949508, "lng": -94.813248
},{
"label": "El Cortijo", "lat": 17.954247, "lng": -94.84774
},{
"label": "El Limón", "lat": 17.84833, "lng": -94.82972
},{
"label": "El Cahuapatal", "lat": 17.62528, "lng": -94.75833
},{
"label": "La Laguna", "lat": 17.598518, "lng": -94.764905
},{
"label": "El Manantial", "lat": 17.945426, "lng": -94.847976
},{
"label": "El Bajío", "lat": 17.775688, "lng": -94.760093
},{
"label": "La Verónica", "lat": 17.847938, "lng": -94.841395
},{
"label": "Zacatal", "lat": 17.812211, "lng": -94.850329
},{
"label": "La Cuña", "lat": 17.958676, "lng": -94.808652
},{
"label": "Predio la Alegría", "lat": 17.826685, "lng": -94.768248
},{
"label": "San Miguel", "lat": 17.912143, "lng": -94.838785
},{
"label": "El Mirador", "lat": 17.849712, "lng": -94.793016
},{
"label": "El Salvador", "lat": 17.866564, "lng": -94.835134
},{
"label": "Emiliano Zapata", "lat": 17.813085, "lng": -94.789024
},{
"label": "Paso de los Ortices", "lat": 17.83194, "lng": -94.75194
},{
"label": "Ampliación Yatepec", "lat": 17.607677, "lng": -94.739538
},{
"label": "Las Américas", "lat": 17.938004, "lng": -94.841468
},{
"label": "El Azuzul [Zona Arqueológica]", "lat": 17.688466, "lng": -94.771595
},{
"label": "José María Pino Suárez", "lat": 17.839563, "lng": -94.736133
},{
"label": "Los Encinos", "lat": 17.852834, "lng": -94.792244
},{
"label": "Paso de los Indios", "lat": 17.824797, "lng": -94.771465
},{
"label": "El Manilar", "lat": 17.92972, "lng": -94.83139
},{
"label": "Colombia", "lat": 17.935786, "lng": -94.823176
},{
"label": "El Naranjo", "lat": 17.587105, "lng": -94.766249
},{
"label": "Rancho Grande", "lat": 17.827274, "lng": -94.844452
},{
"label": "Tapagapa Pasoreal", "lat": 17.733332, "lng": -94.825277
},{
"label": "La Consentida", "lat": 17.944873, "lng": -94.819454
},{
"label": "El Propósito (La Cal)", "lat": 17.728568, "lng": -94.753318
},{
"label": "Santa Cruz (Mariana Acincal Cabrera)", "lat": 17.771134, "lng": -94.813626
},{
"label": "Hipólito Landeros (Zacatal)", "lat": 17.960247, "lng": -94.814472
},{
"label": "Valle de Agua", "lat": 17.85667, "lng": -94.8075
},{
"label": "El Majagual", "lat": 17.701351, "lng": -94.748541
},{
"label": "Loma Central", "lat": 17.842661, "lng": -94.855945
},{
"label": "El Caracol (Esteban Domínguez)", "lat": 17.671762, "lng": -94.750597
},{
"label": "La Cal", "lat": 17.821076, "lng": -94.864707
},{
"label": "El Diamante", "lat": 17.715376, "lng": -94.754385
},{
"label": "Patolman Uno", "lat": 17.939728, "lng": -94.844095
},{
"label": "Mata de Palma", "lat": 17.850686, "lng": -94.781493
},{
"label": "Los Pinos", "lat": 17.948813, "lng": -94.819583
},{
"label": "La Verdad (David Osorio Santos)", "lat": 17.694789, "lng": -94.767447
},{
"label": "Santa Cruz", "lat": 17.945985, "lng": -94.821544
},{
"label": "Ojo de Agua", "lat": 17.773274, "lng": -94.804753
},{
"label": "El Cedral (Modesto Méndez)", "lat": 17.666497, "lng": -94.742519
},{
"label": "Lázaro Cárdenas", "lat": 17.678054, "lng": -94.724577
},{
"label": "El Olmeca", "lat": 17.72306, "lng": -94.76667
},{
"label": "Tatalaco", "lat": 17.840324, "lng": -94.862032
},{
"label": "Ojo de Agua (Zapotal)", "lat": 17.635575, "lng": -94.760819
},{
"label": "Rancho de Gallego", "lat": 17.776329, "lng": -94.774984
},{
"label": "Rancho Zamora", "lat": 17.957413, "lng": -94.820863
},{
"label": "Secundino Torres (Kilómetro 52)", "lat": 17.957841, "lng": -94.816732
},{
"label": "El Porvenir (Roberto Reyes)", "lat": 17.84917, "lng": -94.83528
},{
"label": "Santa Rosa (Efrén Alafita Domínguez)", "lat": 17.687419, "lng": -94.760233
},{
"label": "Lino Hipólito Gómez", "lat": 17.6669, "lng": -94.741463
},{
"label": "La Ceiba", "lat": 17.93917, "lng": -94.85417
},{
"label": "Xochiltepec", "lat": 17.735904, "lng": -94.716797
},{
"label": "Ejido Texistepec", "lat": 17.853309, "lng": -94.795593
},{
"label": "Las Carmelitas", "lat": 17.855826, "lng": -94.804438
},{
"label": "Texistepec", "lat": 17.894277, "lng": -94.815294
},{
"label": "Los Laureles", "lat": 17.896838, "lng": -94.858666
},{
"label": "Las Palomas", "lat": 17.820919, "lng": -94.803992
},{
"label": "Sección Seis FFCC", "lat": 17.920077, "lng": -94.81756
},{
"label": "Ampliación Tenochtitlán", "lat": 17.687607, "lng": -94.774445
},{
"label": "Las Salinas", "lat": 17.938204, "lng": -94.850109
},{
"label": "La Frontera Dos", "lat": 17.931566, "lng": -94.763369
},{
"label": "La Frontera", "lat": 17.923396, "lng": -94.768315
},{
"label": "Santa Isabel", "lat": 17.77918, "lng": -94.791523
},{
"label": "La Gravera (Camilo)", "lat": 17.742935, "lng": -94.775014
},{
"label": "La Cruz", "lat": 17.963381, "lng": -94.801024
},{
"label": "El Progreso", "lat": 17.957079, "lng": -94.838998
},{
"label": "La Báscula", "lat": 17.866421, "lng": -94.807578
},{
"label": "San Gabriel", "lat": 17.9579, "lng": -94.837069
},{
"label": "Ejido Texistepec (Ex-Hacienda Camahuacapa)", "lat": 17.850733, "lng": -94.845343
},{
"label": "El Jaguar", "lat": 17.740934, "lng": -94.769232
},{
"label": "El Suspiro", "lat": 17.944572, "lng": -94.822304
},{
"label": "La Esperanza", "lat": 17.876957, "lng": -94.834715
},{
"label": "Villa Alta", "lat": 17.599535, "lng": -94.756318
},{
"label": "El Corte", "lat": 17.959226, "lng": -94.801441
},{
"label": "Ixtepec", "lat": 17.692006, "lng": -94.716961
},{
"label": "San Francisco", "lat": 17.727645, "lng": -94.815493
},{
"label": "Francisco I. Madero", "lat": 17.950703, "lng": -94.847744
},{
"label": "El Aguacate", "lat": 17.856369, "lng": -94.830276
},{
"label": "Ejido Francisco I. Madero", "lat": 17.94139, "lng": -94.855
},{
"label": "El Mangal", "lat": 17.936478, "lng": -94.831802
},{
"label": "Loma Bonita", "lat": 17.794757, "lng": -94.780254
},{
"label": "Yatepec", "lat": 17.61015, "lng": -94.743121
},{
"label": "San Lorenzo Tenochtitlán", "lat": 17.755046, "lng": -94.760119
},{
"label": "Los Almendros", "lat": 17.628619, "lng": -94.760401
},{
"label": "Petapa", "lat": 17.92972, "lng": -94.76167
},{
"label": "Mario Zurita", "lat": 17.66533, "lng": -94.739836
},{
"label": "El Sinaí", "lat": 17.674769, "lng": -94.751959
},{
"label": "Encinal de Ojapa", "lat": 17.901018, "lng": -94.862346
}]