[{
"label": "Ursulo Galván", "lat": 19.406446, "lng": -96.35996
},{
"label": "Paso de Doña Juana", "lat": 19.477829, "lng": -96.356967
},{
"label": "Totonacapan", "lat": 19.409005, "lng": -96.429015
},{
"label": "El Paraíso", "lat": 19.435546, "lng": -96.395514
},{
"label": "Rancho Providencia", "lat": 19.427237, "lng": -96.440699
},{
"label": "Real del Oro", "lat": 19.424381, "lng": -96.409723
},{
"label": "Agua Fría", "lat": 19.468102, "lng": -96.381726
},{
"label": "La Gloria", "lat": 19.425464, "lng": -96.403049
},{
"label": "El Bienestar", "lat": 19.450917, "lng": -96.419883
},{
"label": "La Huerta", "lat": 19.454819, "lng": -96.378287
},{
"label": "Los Médanos", "lat": 19.44222, "lng": -96.32167
},{
"label": "Efigenio Santa María e Hijos", "lat": 19.429929, "lng": -96.379871
},{
"label": "Zempoala", "lat": 19.442571, "lng": -96.408762
},{
"label": "Balneario Guadalupe", "lat": 19.485641, "lng": -96.347558
},{
"label": "La Herradura (Predio el Espinal)", "lat": 19.432684, "lng": -96.449157
},{
"label": "La Desviación (Colonia Vicente Guerrero)", "lat": 19.436065, "lng": -96.382247
},{
"label": "Tres Alacranes", "lat": 19.40889, "lng": -96.35028
},{
"label": "Los Pinos", "lat": 19.413839, "lng": -96.324726
},{
"label": "José Guadalupe Rodríguez (Despoblado)", "lat": 19.422155, "lng": -96.414881
},{
"label": "Playa Juan Ángel", "lat": 19.493032, "lng": -96.329396
},{
"label": "Loma de la Calavera", "lat": 19.462712, "lng": -96.379793
},{
"label": "San Vicente", "lat": 19.483179, "lng": -96.355342
},{
"label": "Jareros", "lat": 19.44612, "lng": -96.474066
},{
"label": "Puente Roto", "lat": 19.459703, "lng": -96.400304
},{
"label": "El Arenal", "lat": 19.426012, "lng": -96.375247
},{
"label": "Don Chucho", "lat": 19.42058, "lng": -96.380064
},{
"label": "Oro Verde", "lat": 19.437094, "lng": -96.43511
},{
"label": "El Chalahuite", "lat": 19.472621, "lng": -96.372466
},{
"label": "Playa de Chachalacas", "lat": 19.422402, "lng": -96.323032
},{
"label": "Mata Verde", "lat": 19.454257, "lng": -96.435581
},{
"label": "La Isleta", "lat": 19.433029, "lng": -96.38718
},{
"label": "Monte de Oro", "lat": 19.401312, "lng": -96.440489
},{
"label": "La Guapota", "lat": 19.477623, "lng": -96.339771
},{
"label": "Víctor Riaño", "lat": 19.481137, "lng": -96.35497
},{
"label": "El Sacrificio", "lat": 19.434969, "lng": -96.437663
},{
"label": "La Zanja", "lat": 19.423309, "lng": -96.359138
},{
"label": "Platas", "lat": 19.414554, "lng": -96.371898
},{
"label": "Loma de San Rafael", "lat": 19.410171, "lng": -96.343793
},{
"label": "Familia Maya", "lat": 19.488487, "lng": -96.339919
},{
"label": "El Paraíso (La Charca)", "lat": 19.42849, "lng": -96.355174
},{
"label": "El Zapotito", "lat": 19.448334, "lng": -96.437377
},{
"label": "Rodolfo Romero", "lat": 19.435, "lng": -96.44028
},{
"label": "El Espinal", "lat": 19.43972, "lng": -96.43361
},{
"label": "Francisco I. Madero", "lat": 19.413704, "lng": -96.381372
},{
"label": "El Limoncito", "lat": 19.423041, "lng": -96.386744
},{
"label": "La Linda", "lat": 19.481071, "lng": -96.360993
},{
"label": "Ahmati Mendoza", "lat": 19.415872, "lng": -96.340525
},{
"label": "La Armonía", "lat": 19.403468, "lng": -96.453059
},{
"label": "La Chiripa", "lat": 19.482453, "lng": -96.365727
},{
"label": "El Tesoro", "lat": 19.434303, "lng": -96.436871
},{
"label": "El Porvenir", "lat": 19.426453, "lng": -96.365909
},{
"label": "Higuera Blanca", "lat": 19.439441, "lng": -96.379119
},{
"label": "Barra de Chachalacas", "lat": 19.407562, "lng": -96.339864
}]