[{
"label": "El Tanque", "lat": 19.41833, "lng": -96.9875
},{
"label": "Ingenio del Rosario", "lat": 19.50923, "lng": -97.087783
},{
"label": "El Temimil", "lat": 19.434537, "lng": -97.035118
},{
"label": "Mata Oscura", "lat": 19.42556, "lng": -97.06722
},{
"label": "Monasterio de las Benedictinas", "lat": 19.419033, "lng": -96.976481
},{
"label": "La Querencia", "lat": 19.408205, "lng": -96.991104
},{
"label": "Xico", "lat": 19.421269, "lng": -97.007233
},{
"label": "La Xicotera", "lat": 19.448279, "lng": -97.04362
},{
"label": "Colonia el Haya (Chapulapan)", "lat": 19.421038, "lng": -96.986795
},{
"label": "Arroyo Seco", "lat": 19.413172, "lng": -97.046827
},{
"label": "Buena Vista", "lat": 19.471439, "lng": -97.054971
},{
"label": "Los Pocitos", "lat": 19.465224, "lng": -97.094187
},{
"label": "Doctor Aarón", "lat": 19.40239, "lng": -97.019108
},{
"label": "Citlalapa", "lat": 19.436838, "lng": -97.030708
},{
"label": "Colonia Rodríguez Clara", "lat": 19.400098, "lng": -97.002879
},{
"label": "Finca San Bartolo", "lat": 19.408447, "lng": -96.995504
},{
"label": "San Luis", "lat": 19.427049, "lng": -96.988862
},{
"label": "La Puente Vieja", "lat": 19.414803, "lng": -97.007892
},{
"label": "Rusia", "lat": 19.493476, "lng": -97.096954
},{
"label": "El Cuajal", "lat": 19.401744, "lng": -96.997666
},{
"label": "Agua Escondida", "lat": 19.516407, "lng": -97.101386
},{
"label": "Las Cabañas de Texolo", "lat": 19.402685, "lng": -96.99738
},{
"label": "La Nuria", "lat": 19.446865, "lng": -97.017236
},{
"label": "Cruz Blanca", "lat": 19.473762, "lng": -97.085825
},{
"label": "Texolo (La Cascada)", "lat": 19.402313, "lng": -96.993877
},{
"label": "Chichila", "lat": 19.475621, "lng": -97.07178
},{
"label": "Matlalapa", "lat": 19.467973, "lng": -97.080261
},{
"label": "El Retiro", "lat": 19.404994, "lng": -96.993449
},{
"label": "Oxtlapa", "lat": 19.429234, "lng": -97.090398
},{
"label": "Los Distinguidos", "lat": 19.448517, "lng": -97.01838
},{
"label": "Coxmatla", "lat": 19.427323, "lng": -97.075223
},{
"label": "Ticuatipan", "lat": 19.438608, "lng": -97.055199
},{
"label": "El Filo", "lat": 19.396645, "lng": -96.927021
},{
"label": "El Terrero de Chivas", "lat": 19.464009, "lng": -97.118518
},{
"label": "Alto Lucero", "lat": 19.435103, "lng": -96.984642
},{
"label": "Sayago", "lat": 19.409271, "lng": -96.972632
},{
"label": "La Barranca de Matlacova", "lat": 19.400178, "lng": -96.980045
},{
"label": "Coatitilán", "lat": 19.463025, "lng": -97.080193
},{
"label": "Los Merino", "lat": 19.40357, "lng": -96.998145
},{
"label": "Las Dos Lupitas (Las Dos Vírgenes)", "lat": 19.409744, "lng": -97.008269
},{
"label": "La Casa de Piedra", "lat": 19.416942, "lng": -96.972315
},{
"label": "Tolaxtitla", "lat": 19.415987, "lng": -97.031122
},{
"label": "Ixóchitl", "lat": 19.448177, "lng": -97.071691
},{
"label": "El Hunga", "lat": 19.40472, "lng": -96.94194
},{
"label": "Agua Bendita", "lat": 19.40792, "lng": -97.013782
},{
"label": "Los Capulines", "lat": 19.51114, "lng": -97.103164
},{
"label": "Finca Don Vicencio Cabrera", "lat": 19.419659, "lng": -96.986645
},{
"label": "Amapa", "lat": 19.403387, "lng": -97.009598
},{
"label": "Los Abiertos (El Saucal)", "lat": 19.479941, "lng": -97.10201
},{
"label": "La Laguna", "lat": 19.394872, "lng": -96.934821
},{
"label": "San Andrés Tizapa", "lat": 19.407469, "lng": -97.016473
},{
"label": "La Chivería", "lat": 19.389647, "lng": -96.926172
},{
"label": "Beneficio de Cafe el Crucero", "lat": 19.425291, "lng": -96.976555
},{
"label": "Chapa", "lat": 19.42548, "lng": -97.044312
},{
"label": "Agua Regada", "lat": 19.402131, "lng": -97.033712
},{
"label": "San Miguel", "lat": 19.406431, "lng": -97.028646
},{
"label": "Nancontla (Rancho del Padre)", "lat": 19.4015, "lng": -97.024536
},{
"label": "Zacamila", "lat": 19.418597, "lng": -97.051755
},{
"label": "Finca Apantla", "lat": 19.406056, "lng": -96.967225
},{
"label": "Coauhtemecatla", "lat": 19.456279, "lng": -97.088684
},{
"label": "Rancho Peñitas", "lat": 19.424775, "lng": -97.032947
},{
"label": "San Marcos de León (San Marcos)", "lat": 19.423248, "lng": -96.964231
},{
"label": "La Chiripa (Asadero Doña Meche)", "lat": 19.420925, "lng": -96.97796
},{
"label": "Rancho de Abasomol", "lat": 19.405976, "lng": -96.991003
},{
"label": "Los Llanillos", "lat": 19.477082, "lng": -97.111258
},{
"label": "Rancho Alegre", "lat": 19.44168, "lng": -97.046244
},{
"label": "Camino al Coconal", "lat": 19.410619, "lng": -97.009877
},{
"label": "San José Paso Nuevo", "lat": 19.451726, "lng": -97.106114
},{
"label": "Los Morales", "lat": 19.513907, "lng": -97.097091
},{
"label": "Cocoxatla", "lat": 19.39942, "lng": -97.046874
},{
"label": "Malseseca", "lat": 19.448047, "lng": -97.062347
},{
"label": "Tlayahualapan", "lat": 19.449944, "lng": -97.008167
},{
"label": "Cuartelillo", "lat": 19.498512, "lng": -97.106536
},{
"label": "San Juan de los Pinos", "lat": 19.437484, "lng": -97.090195
},{
"label": "Pextlán (Rancho de los Hippies)", "lat": 19.424112, "lng": -97.022411
},{
"label": "Las Carabinas", "lat": 19.500264, "lng": -97.111474
},{
"label": "Puente Sumido", "lat": 19.492307, "lng": -97.106322
},{
"label": "El Pajonal", "lat": 19.403846, "lng": -96.974613
},{
"label": "Entrada a Finca Apant", "lat": 19.404643, "lng": -96.968119
},{
"label": "Paso Panal", "lat": 19.488058, "lng": -97.120682
},{
"label": "Tembladeras", "lat": 19.512192, "lng": -97.114064
},{
"label": "Tlacuilolan", "lat": 19.428598, "lng": -97.062629
},{
"label": "Santa Cruz", "lat": 19.420252, "lng": -96.977011
},{
"label": "Ojo de Agua", "lat": 19.438042, "lng": -97.122445
},{
"label": "Santa Elena", "lat": 19.431684, "lng": -97.037903
},{
"label": "Colonia Úrsulo Galván", "lat": 19.429058, "lng": -96.978791
},{
"label": "Las Cruces", "lat": 19.485247, "lng": -97.092348
},{
"label": "Las Palomas", "lat": 19.518308, "lng": -97.10051
},{
"label": "Xico Viejo", "lat": 19.446894, "lng": -97.058765
},{
"label": "Morey", "lat": 19.494312, "lng": -97.117063
},{
"label": "El Chorrito", "lat": 19.453028, "lng": -97.071534
},{
"label": "Finca Rosa Isaura", "lat": 19.42624, "lng": -96.973672
},{
"label": "Tonalaco", "lat": 19.429787, "lng": -97.133107
},{
"label": "Coyopola", "lat": 19.417525, "lng": -97.010961
},{
"label": "La Cruz", "lat": 19.427419, "lng": -96.990096
},{
"label": "El Trapiche", "lat": 19.425702, "lng": -96.975604
},{
"label": "La Chiripa (Salón Alameda)", "lat": 19.420136, "lng": -96.984745
},{
"label": "El Clavito", "lat": 19.416213, "lng": -97.046948
},{
"label": "La Alcantarilla", "lat": 19.4, "lng": -96.92861
},{
"label": "Plan de la Guinda", "lat": 19.487045, "lng": -97.12754
},{
"label": "Avacatla", "lat": 19.446199, "lng": -97.09304
},{
"label": "El Palco (Restaurante)", "lat": 19.420426, "lng": -96.984768
},{
"label": "Tula", "lat": 19.435691, "lng": -97.000287
},{
"label": "La Isleta Chica", "lat": 19.375457, "lng": -96.904282
},{
"label": "Micoxtla", "lat": 19.456579, "lng": -97.029455
},{
"label": "Los Cuates", "lat": 19.458742, "lng": -97.107519
},{
"label": "La Poza", "lat": 19.505514, "lng": -97.111876
},{
"label": "El Encanto", "lat": 19.402253, "lng": -96.975039
},{
"label": "Infiernillo", "lat": 19.47564, "lng": -97.120426
}]