[{
"label": "El Boxte", "lat": 20.537964, "lng": -98.265397
},{
"label": "La Planada", "lat": 20.488256, "lng": -98.309811
},{
"label": "La Laguna", "lat": 20.48182, "lng": -98.318738
},{
"label": "Agua Agria", "lat": 20.574188, "lng": -98.260036
},{
"label": "El Tzejeade", "lat": 20.531204, "lng": -98.284605
},{
"label": "Cerro Pelón", "lat": 20.522946, "lng": -98.357176
},{
"label": "Siete Palos", "lat": 20.546279, "lng": -98.366959
},{
"label": "Tlachichilquillo", "lat": 20.411667, "lng": -98.365714
},{
"label": "Bocami", "lat": 20.561593, "lng": -98.283712
},{
"label": "Carrizal Chiflón", "lat": 20.407776, "lng": -98.37872
},{
"label": "Los Telares", "lat": 20.441461, "lng": -98.342061
},{
"label": "General Prim (San Francisco)", "lat": 20.483462, "lng": -98.301811
},{
"label": "La Colmena", "lat": 20.503958, "lng": -98.376234
},{
"label": "Canalejas de Otates", "lat": 20.431323, "lng": -98.430733
},{
"label": "El Cojolite", "lat": 20.502085, "lng": -98.29071
},{
"label": "Buenavista", "lat": 20.490834, "lng": -98.379427
},{
"label": "Pueblo Nuevo", "lat": 20.564892, "lng": -98.261839
},{
"label": "Zacualpilla", "lat": 20.422989, "lng": -98.360685
},{
"label": "Las Mesillas", "lat": 20.51148, "lng": -98.416042
},{
"label": "Zacualpan", "lat": 20.433707, "lng": -98.348697
},{
"label": "Pezma Prieta", "lat": 20.585937, "lng": -98.255613
},{
"label": "La Paloma", "lat": 20.515348, "lng": -98.363558
},{
"label": "Monte Obscuro", "lat": 20.444338, "lng": -98.425055
},{
"label": "El Naranjo", "lat": 20.475467, "lng": -98.400133
},{
"label": "La Baldeza", "lat": 20.421388, "lng": -98.346618
},{
"label": "El Capulín", "lat": 20.470626, "lng": -98.338593
},{
"label": "Los Planes", "lat": 20.474806, "lng": -98.304289
},{
"label": "El Metate", "lat": 20.582091, "lng": -98.311798
},{
"label": "Atixtaca", "lat": 20.496895, "lng": -98.393563
},{
"label": "El Tigre", "lat": 20.489603, "lng": -98.265808
},{
"label": "Plan Grande", "lat": 20.494113, "lng": -98.29744
},{
"label": "La Media Plaza", "lat": 20.557016, "lng": -98.269663
},{
"label": "Los Duraznos", "lat": 20.459365, "lng": -98.365309
},{
"label": "El Guayabal", "lat": 20.422898, "lng": -98.319479
},{
"label": "La Guayaba", "lat": 20.534938, "lng": -98.388028
},{
"label": "La Pahua", "lat": 20.529728, "lng": -98.326948
},{
"label": "El Madroño", "lat": 20.460669, "lng": -98.318631
},{
"label": "El Demantza", "lat": 20.48929, "lng": -98.342359
},{
"label": "La Pezma", "lat": 20.528773, "lng": -98.338402
},{
"label": "Puerto Chico", "lat": 20.481537, "lng": -98.380823
},{
"label": "Monte Bueno", "lat": 20.546844, "lng": -98.276195
},{
"label": "Pueblo Viejo", "lat": 20.465859, "lng": -98.36476
},{
"label": "Ampliación de Canalejas de Otates", "lat": 20.428031, "lng": -98.400514
},{
"label": "El Manzano", "lat": 20.524959, "lng": -98.424094
},{
"label": "La Granada", "lat": 20.532975, "lng": -98.306423
},{
"label": "Cuarta Manzana", "lat": 20.438842, "lng": -98.363566
},{
"label": "Las Placetas", "lat": 20.516629, "lng": -98.400659
},{
"label": "La Lima", "lat": 20.563255, "lng": -98.249671
},{
"label": "El Tundo", "lat": 20.542416, "lng": -98.310925
},{
"label": "Tercera Manzana", "lat": 20.449529, "lng": -98.348673
},{
"label": "La Calabacita", "lat": 20.546133, "lng": -98.32668
},{
"label": "El Madotzi", "lat": 20.453088, "lng": -98.386447
},{
"label": "Tzocohuite", "lat": 20.462418, "lng": -98.411071
},{
"label": "Carrizal Chico", "lat": 20.439323, "lng": -98.325968
},{
"label": "Tepehuisco", "lat": 20.448644, "lng": -98.365517
},{
"label": "El Domeni", "lat": 20.526183, "lng": -98.408146
},{
"label": "Peña Blanca", "lat": 20.568983, "lng": -98.319763
},{
"label": "Cerro Chato", "lat": 20.555446, "lng": -98.297714
},{
"label": "La Concha", "lat": 20.441405, "lng": -98.374688
},{
"label": "El Manzanal", "lat": 20.425239, "lng": -98.36933
},{
"label": "Media Cuesta", "lat": 20.549228, "lng": -98.29139
},{
"label": "El Mezquite", "lat": 20.51818, "lng": -98.428372
},{
"label": "Agua de la Gallina", "lat": 20.478279, "lng": -98.300642
},{
"label": "La Cruz Barrida", "lat": 20.445914, "lng": -98.332853
},{
"label": "El Gunte", "lat": 20.491696, "lng": -98.40099
},{
"label": "Puerto Grande", "lat": 20.467986, "lng": -98.382929
},{
"label": "Carrizal Grande", "lat": 20.489991, "lng": -98.285871
},{
"label": "Palos Altos", "lat": 20.573998, "lng": -98.314461
},{
"label": "Ejido Tlachichilquillo (Las Jarillas)", "lat": 20.400017, "lng": -98.438654
},{
"label": "La Venta", "lat": 20.452738, "lng": -98.325683
},{
"label": "Cerro Delgado", "lat": 20.506593, "lng": -98.341745
},{
"label": "El Limón", "lat": 20.593064, "lng": -98.246198
}]