[{
"label": "Tenanzintla", "lat": 19.074426, "lng": -96.795748
},{
"label": "Pueblito de Matlaluca", "lat": 19.064674, "lng": -96.786708
},{
"label": "Puentecilla", "lat": 19.099944, "lng": -96.855596
},{
"label": "Corral de Piedra", "lat": 19.025508, "lng": -96.729106
},{
"label": "Zapotal", "lat": 19.031197, "lng": -96.794763
},{
"label": "Mata Coyote", "lat": 19.080925, "lng": -96.617153
},{
"label": "Paso del Cedro", "lat": 19.066229, "lng": -96.690622
},{
"label": "Colonia Chiquita", "lat": 19.094277, "lng": -96.803069
},{
"label": "Rincón Mariano", "lat": 19.053023, "lng": -96.653961
},{
"label": "Loma Sola", "lat": 19.076074, "lng": -96.632668
},{
"label": "San Miguel", "lat": 19.078553, "lng": -96.60219
},{
"label": "Buenavista", "lat": 19.120547, "lng": -96.860948
},{
"label": "Ejido la Piña (Maromilla)", "lat": 19.029013, "lng": -96.78331
},{
"label": "Potrero (Potrerillo)", "lat": 19.109046, "lng": -96.831566
},{
"label": "Paso Tiotonche (Los Almendros)", "lat": 19.04851, "lng": -96.677172
},{
"label": "La Estrella", "lat": 19.12599, "lng": -96.873135
},{
"label": "Rincón Tío Tamal", "lat": 19.068594, "lng": -96.765361
},{
"label": "Arroyo Zarco", "lat": 19.119592, "lng": -96.875033
},{
"label": "El León", "lat": 19.069812, "lng": -96.800118
},{
"label": "El Consuelo", "lat": 19.052979, "lng": -96.601407
},{
"label": "Dos Luceros", "lat": 19.057721, "lng": -96.668828
},{
"label": "La Flor", "lat": 19.054282, "lng": -96.692877
},{
"label": "El Tigre", "lat": 19.053646, "lng": -96.793394
},{
"label": "El Cazón", "lat": 19.110379, "lng": -96.861143
},{
"label": "Mafara", "lat": 19.070901, "lng": -96.648294
},{
"label": "Los Gómez", "lat": 19.04099, "lng": -96.684953
},{
"label": "San Jorge", "lat": 19.077095, "lng": -96.578103
},{
"label": "San Rafael Piña", "lat": 19.054033, "lng": -96.820909
},{
"label": "Contadero", "lat": 19.073121, "lng": -96.582163
},{
"label": "Mata Pastor", "lat": 19.056768, "lng": -96.751096
},{
"label": "Dos de Abril", "lat": 19.045607, "lng": -96.811946
},{
"label": "Coyotepec", "lat": 19.037335, "lng": -96.728824
},{
"label": "El Olvido", "lat": 19.073501, "lng": -96.810141
},{
"label": "San Vicente", "lat": 19.052186, "lng": -96.771044
},{
"label": "Agua Escondida (El Olvido)", "lat": 19.085171, "lng": -96.821696
},{
"label": "Potrerillo", "lat": 19.048453, "lng": -96.631924
},{
"label": "Rincón Cazuela", "lat": 19.076703, "lng": -96.567693
},{
"label": "Zentla", "lat": 19.098287, "lng": -96.811139
},{
"label": "Coyolito", "lat": 19.066007, "lng": -96.743381
},{
"label": "El Pochote", "lat": 19.089753, "lng": -96.789286
},{
"label": "Matlaluca", "lat": 19.056828, "lng": -96.774803
},{
"label": "El Castillo", "lat": 19.101981, "lng": -96.805873
},{
"label": "La Reforma", "lat": 19.087724, "lng": -96.794609
},{
"label": "Acapulco (El Crucero de Zentla)", "lat": 19.106736, "lng": -96.850699
},{
"label": "Colonia Manuel González", "lat": 19.115303, "lng": -96.858759
},{
"label": "Rincón Coria (Rincón Tlacuache)", "lat": 19.082472, "lng": -96.800418
},{
"label": "Zocapa del Rosario", "lat": 19.132315, "lng": -96.866986
},{
"label": "El Yual", "lat": 19.031069, "lng": -96.696629
},{
"label": "La Represa", "lat": 19.056437, "lng": -96.765483
},{
"label": "El Huaje", "lat": 19.05884, "lng": -96.733568
},{
"label": "El Refugio", "lat": 19.096349, "lng": -96.835997
},{
"label": "Rincón Patiño", "lat": 19.054735, "lng": -96.572778
},{
"label": "Corazón de Jesús (Piña)", "lat": 19.06766, "lng": -96.82517
},{
"label": "Maromilla", "lat": 19.041176, "lng": -96.789829
}]