[{
"label": "Comalapa", "lat": 18.645932, "lng": -96.895269
},{
"label": "Choapa", "lat": 18.736336, "lng": -96.962559
},{
"label": "San Francisco Atitla", "lat": 18.726199, "lng": -96.909964
},{
"label": "Tepetitlanapa", "lat": 18.642389, "lng": -97.011741
},{
"label": "Cuahutilica", "lat": 18.613418, "lng": -96.938121
},{
"label": "Cuahuixtlahuac", "lat": 18.607124, "lng": -96.903368
},{
"label": "San José Independencia", "lat": 18.756597, "lng": -96.945046
},{
"label": "Zomajapa", "lat": 18.668229, "lng": -96.911771
},{
"label": "Tepetlixpa", "lat": 18.701003, "lng": -96.977008
},{
"label": "Tonalixco Grande", "lat": 18.631948, "lng": -96.967128
},{
"label": "Barrio Buena Vista", "lat": 18.614242, "lng": -96.900391
},{
"label": "Acontla", "lat": 18.64583, "lng": -96.98278
},{
"label": "San Isidro", "lat": 18.553263, "lng": -96.914328
},{
"label": "Comalapa II", "lat": 18.64326, "lng": -96.903397
},{
"label": "Ejuitepec", "lat": 18.70051, "lng": -97.005504
},{
"label": "Citlalapa", "lat": 18.63929, "lng": -96.898664
},{
"label": "San Miguel Zacatilica", "lat": 18.645214, "lng": -97.000419
},{
"label": "La Virgencita", "lat": 18.649261, "lng": -96.990026
},{
"label": "Huixtla", "lat": 18.574407, "lng": -96.866802
},{
"label": "Acuapa", "lat": 18.594367, "lng": -96.887702
},{
"label": "Yoloxochio", "lat": 18.599216, "lng": -96.85627
},{
"label": "Zapaltécatl", "lat": 18.575807, "lng": -96.922346
},{
"label": "Coyametla", "lat": 18.648051, "lng": -96.93186
},{
"label": "Tepetzala", "lat": 18.55028, "lng": -96.94722
},{
"label": "La Pila", "lat": 18.736678, "lng": -96.921305
},{
"label": "Loma Linderos", "lat": 18.726715, "lng": -96.973626
},{
"label": "Mochichino", "lat": 18.577816, "lng": -96.845567
},{
"label": "Ochitla", "lat": 18.546212, "lng": -96.913159
},{
"label": "Olla Chica", "lat": 18.661929, "lng": -97.006052
},{
"label": "Nacaxtla", "lat": 18.668307, "lng": -96.940386
},{
"label": "Atonahuizapa", "lat": 18.537102, "lng": -96.879491
},{
"label": "Tlacuitlapa Grande", "lat": 18.60526, "lng": -96.923804
},{
"label": "La Cabaña", "lat": 18.642113, "lng": -96.948172
},{
"label": "Eptla", "lat": 18.595509, "lng": -96.933646
},{
"label": "Tezizapa", "lat": 18.772502, "lng": -96.955665
},{
"label": "La Palma", "lat": 18.624789, "lng": -96.912597
},{
"label": "Galindonga", "lat": 18.694527, "lng": -96.893839
},{
"label": "Cruz Verde", "lat": 18.649729, "lng": -96.991911
},{
"label": "Quetzaltótotl", "lat": 18.540208, "lng": -96.981818
},{
"label": "Acahualco", "lat": 18.605073, "lng": -96.933376
},{
"label": "Ayojapa Uno", "lat": 18.562274, "lng": -96.849567
},{
"label": "Loma de Zomajapa (Loma del Carmen)", "lat": 18.676393, "lng": -96.905882
},{
"label": "Tehuilango", "lat": 18.550317, "lng": -96.900007
},{
"label": "Colonia Modelo", "lat": 18.652791, "lng": -96.872537
},{
"label": "Tonalixco Chico", "lat": 18.649381, "lng": -96.956855
},{
"label": "Las Palmas", "lat": 18.690249, "lng": -96.896027
},{
"label": "Real del Monte", "lat": 18.748611, "lng": -96.906568
},{
"label": "Chicomapa Uno", "lat": 18.554701, "lng": -96.841473
},{
"label": "Laguna Ixpaluca", "lat": 18.708699, "lng": -96.974688
},{
"label": "Tepantícpac", "lat": 18.553671, "lng": -96.960737
},{
"label": "Loma Grande", "lat": 18.694973, "lng": -96.971476
},{
"label": "Apixtepec", "lat": 18.707637, "lng": -96.952553
},{
"label": "Azcuahutlamanca", "lat": 18.599799, "lng": -96.881634
},{
"label": "Tlacuiloltécatl Chico (Nogales)", "lat": 18.674794, "lng": -96.883938
},{
"label": "Yoloxochititla", "lat": 18.702472, "lng": -96.999478
},{
"label": "La Mojonera", "lat": 18.684515, "lng": -97.000723
},{
"label": "Tetlapanga", "lat": 18.714351, "lng": -96.954909
},{
"label": "Coapa Pinopa", "lat": 18.632416, "lng": -96.935452
},{
"label": "San José Chininiapan", "lat": 18.669942, "lng": -96.965306
},{
"label": "San Antonio", "lat": 18.563567, "lng": -96.922647
},{
"label": "Chicomapa", "lat": 18.558574, "lng": -96.847376
},{
"label": "Tonalixco Primero", "lat": 18.631898, "lng": -96.963878
},{
"label": "Macuilca", "lat": 18.651266, "lng": -96.919291
},{
"label": "Alta Luz", "lat": 18.546278, "lng": -96.888948
},{
"label": "Tenango", "lat": 18.665608, "lng": -96.992369
},{
"label": "Linda Estrella", "lat": 18.698288, "lng": -96.87992
},{
"label": "Dos Caminos", "lat": 18.562023, "lng": -96.882663
},{
"label": "Vicente Guerrero", "lat": 18.572281, "lng": -96.873945
},{
"label": "Palma Sola", "lat": 18.669646, "lng": -96.889427
},{
"label": "Teocotla", "lat": 18.77222, "lng": -96.93708
},{
"label": "Zapotla", "lat": 18.646709, "lng": -96.982647
},{
"label": "El Porvenir", "lat": 18.627866, "lng": -96.897615
},{
"label": "Atitla Chico 2", "lat": 18.704133, "lng": -96.906749
},{
"label": "Tlaixco", "lat": 18.70154, "lng": -96.988903
},{
"label": "Zacatal Chico", "lat": 18.661348, "lng": -96.933867
},{
"label": "Tlatlachialco", "lat": 18.673156, "lng": -96.988493
},{
"label": "Tecpatzinga", "lat": 18.710777, "lng": -96.928874
},{
"label": "Axalpa", "lat": 18.774487, "lng": -96.943149
},{
"label": "Xochiojca", "lat": 18.630696, "lng": -96.917664
},{
"label": "San Gerónimo Tonacalco", "lat": 18.662387, "lng": -96.976261
},{
"label": "Totomochapa", "lat": 18.763624, "lng": -96.957135
},{
"label": "Cotlaixco", "lat": 18.767858, "lng": -96.949598
},{
"label": "Xochiotepec", "lat": 18.689326, "lng": -96.920264
},{
"label": "Tecoxco", "lat": 18.720651, "lng": -96.978123
},{
"label": "Hostok", "lat": 18.611261, "lng": -96.888271
},{
"label": "Cuahuixtlahuac Centro", "lat": 18.612693, "lng": -96.914686
},{
"label": "Huaxtla Chico", "lat": 18.622319, "lng": -96.939286
},{
"label": "La Alianza", "lat": 18.568171, "lng": -96.930931
},{
"label": "Amatitla", "lat": 18.653246, "lng": -96.995587
},{
"label": "El Mirador", "lat": 18.564222, "lng": -96.895849
},{
"label": "Paso del Águila", "lat": 18.672326, "lng": -96.99434
},{
"label": "Emiliano Zapata", "lat": 18.750121, "lng": -96.937988
},{
"label": "Loma de Dolores", "lat": 18.677839, "lng": -96.929084
},{
"label": "El Aguaje Chico", "lat": 18.662806, "lng": -96.867992
},{
"label": "Zapotitla", "lat": 18.546899, "lng": -96.964797
},{
"label": "Aticpac", "lat": 18.58435, "lng": -96.892882
},{
"label": "Paraje Ayojapa", "lat": 18.692738, "lng": -96.948544
},{
"label": "Tlacuatzinga", "lat": 18.65284, "lng": -96.892983
},{
"label": "Adolfo Ruiz Cortines", "lat": 18.707451, "lng": -96.892198
},{
"label": "San Sebastián", "lat": 18.726718, "lng": -96.939731
},{
"label": "La Granja", "lat": 18.677642, "lng": -96.993741
},{
"label": "Tepepa II", "lat": 18.682235, "lng": -96.944275
},{
"label": "Cerro Chico", "lat": 18.687129, "lng": -96.892005
},{
"label": "Ixmaloyuca", "lat": 18.700359, "lng": -96.947727
},{
"label": "Cañada Rica", "lat": 18.692474, "lng": -96.999154
},{
"label": "Xonamanca", "lat": 18.678552, "lng": -96.97063
},{
"label": "La Providencia", "lat": 18.541569, "lng": -96.864168
},{
"label": "Temaxcalapa", "lat": 18.549361, "lng": -96.928674
},{
"label": "Tepenacaxtla", "lat": 18.587389, "lng": -96.908207
},{
"label": "Atexoxocuapa", "lat": 18.695014, "lng": -96.926298
},{
"label": "Nochitla", "lat": 18.542255, "lng": -96.912076
},{
"label": "Temaxcalapa Chico", "lat": 18.718384, "lng": -96.926849
},{
"label": "Almolonga", "lat": 18.547922, "lng": -96.847561
},{
"label": "Totolacatla", "lat": 18.712924, "lng": -96.945113
},{
"label": "Zacatal Grande", "lat": 18.654725, "lng": -96.958485
},{
"label": "Puente Porras", "lat": 18.647065, "lng": -96.949542
},{
"label": "Ameyalco", "lat": 18.642918, "lng": -96.924387
},{
"label": "Piedras Blancas", "lat": 18.662501, "lng": -96.90348
},{
"label": "Atexcatitla", "lat": 18.555168, "lng": -96.889603
},{
"label": "Ixcohuapa", "lat": 18.675846, "lng": -96.982217
},{
"label": "Palapa", "lat": 18.693164, "lng": -96.965093
},{
"label": "Ciatipa", "lat": 18.663861, "lng": -96.920519
},{
"label": "Ocotitla", "lat": 18.637805, "lng": -96.980923
},{
"label": "Tepepa I", "lat": 18.679741, "lng": -96.94667
},{
"label": "Tepecuitlapa", "lat": 18.542026, "lng": -96.886876
},{
"label": "Ixpalcuahutla (Moxala)", "lat": 18.672912, "lng": -96.953457
},{
"label": "Huaxtécatl Uno", "lat": 18.710598, "lng": -96.918231
},{
"label": "Amatepec", "lat": 18.615218, "lng": -96.907507
},{
"label": "La Quinta", "lat": 18.653413, "lng": -96.997256
},{
"label": "Palenque Cotlaixco", "lat": 18.774387, "lng": -96.947486
},{
"label": "Laguna Chica", "lat": 18.718636, "lng": -96.963891
},{
"label": "Zongolica", "lat": 18.666891, "lng": -96.998364
},{
"label": "Nepopoalco", "lat": 18.68345, "lng": -96.990377
},{
"label": "Tlanecpaquila", "lat": 18.741704, "lng": -96.934084
},{
"label": "Ranchito las Flores", "lat": 18.60056, "lng": -96.93361
},{
"label": "Tecopango (Chahuilera)", "lat": 18.653348, "lng": -96.908177
},{
"label": "San Isidro (Apanga)", "lat": 18.631831, "lng": -96.970188
},{
"label": "Atitla Chico", "lat": 18.710326, "lng": -96.910508
},{
"label": "Nopaltitla", "lat": 18.656341, "lng": -96.996443
},{
"label": "Tepetlampa", "lat": 18.668727, "lng": -96.934967
},{
"label": "Tlacuitlapa Chico", "lat": 18.600363, "lng": -96.924545
},{
"label": "Huaxtécatl Dos", "lat": 18.558512, "lng": -96.869447
},{
"label": "Ixpaluca", "lat": 18.715325, "lng": -96.978139
},{
"label": "Tlacuilola", "lat": 18.741778, "lng": -96.907401
},{
"label": "Ayojapa Dos", "lat": 18.706508, "lng": -96.932895
},{
"label": "La Concepción", "lat": 18.668479, "lng": -97.013628
},{
"label": "La Compañía", "lat": 18.649831, "lng": -97.006043
},{
"label": "Tlacuiloltécatl Grande", "lat": 18.64669, "lng": -96.878493
}]