[{
"label": "Bordo de la Presa", "lat": 18.915685, "lng": -98.876865
},{
"label": "Colonia San Francisco", "lat": 18.895406, "lng": -98.906862
},{
"label": "Ampliación San Antonio", "lat": 18.951774, "lng": -98.902851
},{
"label": "Asociación de Colonos Hacienda la Alborada", "lat": 18.969696, "lng": -98.862069
},{
"label": "Pilalpuente [Rancho]", "lat": 18.944196, "lng": -98.911423
},{
"label": "Puntas de Malpaís (Malpaís)", "lat": 18.925151, "lng": -98.882234
},{
"label": "Rancho Temecatitla", "lat": 18.950941, "lng": -98.918211
},{
"label": "Loma de Malpaís", "lat": 18.930703, "lng": -98.863084
},{
"label": "Cerrito del Goyero", "lat": 18.934693, "lng": -98.85661
},{
"label": "Rancho la Tortuga", "lat": 18.929291, "lng": -98.894658
},{
"label": "Telchicayac (El Cabellito)", "lat": 18.941762, "lng": -98.884086
},{
"label": "Barranca Seca", "lat": 18.913954, "lng": -98.889272
},{
"label": "Pozo del Jaral Uno", "lat": 18.897756, "lng": -98.933063
},{
"label": "Centro Asturiano de México", "lat": 18.975439, "lng": -98.866749
},{
"label": "El Astillero", "lat": 18.967675, "lng": -98.876403
},{
"label": "Colonia el Puente", "lat": 18.936797, "lng": -98.913317
},{
"label": "Jagüeycillos (Colonia 10 de Mayo)", "lat": 18.948461, "lng": -98.878882
},{
"label": "Fraccionamiento Tehuicil", "lat": 18.928218, "lng": -98.928825
},{
"label": "San Juan Texcalpan", "lat": 18.937145, "lng": -98.928393
},{
"label": "Las Minas", "lat": 18.887987, "lng": -98.927846
},{
"label": "Tlaltetelco (San Miguel Tlaltetelco)", "lat": 18.952159, "lng": -98.886945
},{
"label": "Rancho Zacanco (La Cueva)", "lat": 18.918194, "lng": -98.902891
},{
"label": "Linda Vista", "lat": 18.966409, "lng": -98.889406
},{
"label": "Fraccionamiento Lomas de Cocoyoc", "lat": 18.908661, "lng": -98.941716
},{
"label": "Colonia Rancho Santa Cruz", "lat": 18.932293, "lng": -98.881692
},{
"label": "El Jaral", "lat": 18.902407, "lng": -98.933976
},{
"label": "Telminca", "lat": 18.914874, "lng": -98.887433
},{
"label": "Unidad Habitacional Vicente Guerrero", "lat": 18.943734, "lng": -98.906658
},{
"label": "Malpaís", "lat": 18.924971, "lng": -98.861766
},{
"label": "Colonia Adolfo López Mateos", "lat": 18.886618, "lng": -98.917488
},{
"label": "Fraccionamiento Jardines de Jericó", "lat": 18.969685, "lng": -98.87977
},{
"label": "Atlatlahucan", "lat": 18.936271, "lng": -98.899175
},{
"label": "Campo Caballojapa", "lat": 18.937439, "lng": -98.907249
},{
"label": "Colonia Alta Vista", "lat": 18.971523, "lng": -98.888316
},{
"label": "San Diego Tepantongo", "lat": 18.976742, "lng": -98.881219
},{
"label": "Colonia Pozo Mancera", "lat": 18.960169, "lng": -98.868629
},{
"label": "Campo Chantepec", "lat": 18.957098, "lng": -98.906236
},{
"label": "Colonia el Salto", "lat": 18.919277, "lng": -98.894365
},{
"label": "Rancho Teoxtoc", "lat": 18.953798, "lng": -98.895895
},{
"label": "Colonia Campestre Lomas de Texcalpan", "lat": 18.930849, "lng": -98.942897
},{
"label": "Rancho Malpaís", "lat": 18.927303, "lng": -98.874358
},{
"label": "Rancho Santa Cruz", "lat": 18.950774, "lng": -98.869776
},{
"label": "Campo Tlacotlaco", "lat": 18.943991, "lng": -98.895554
},{
"label": "Ameyalco", "lat": 18.928514, "lng": -98.906977
},{
"label": "Los Cerritos", "lat": 18.906015, "lng": -98.900574
},{
"label": "Colonia Kilómetro 88", "lat": 18.927964, "lng": -98.88985
},{
"label": "Colonia la Guadalupana", "lat": 18.924154, "lng": -98.896394
},{
"label": "Santa Inés", "lat": 18.960879, "lng": -98.871441
}]