[{
"label": "Campo Santa Rosa", "lat": 18.697321, "lng": -98.905195
},{
"label": "Campo Bustamante", "lat": 18.772442, "lng": -98.907585
},{
"label": "Ejido Anenecuilco", "lat": 18.796209, "lng": -99.058181
},{
"label": "Tenerías", "lat": 18.801324, "lng": -98.965744
},{
"label": "Campo el Brasil", "lat": 18.626703, "lng": -98.995352
},{
"label": "Rancho el Pañuelo", "lat": 18.699358, "lng": -98.879951
},{
"label": "Fraccionamiento las Llaves", "lat": 18.758589, "lng": -98.850333
},{
"label": "El Pozo", "lat": 18.753114, "lng": -98.971524
},{
"label": "Campo Tlalzayanca", "lat": 18.798361, "lng": -98.977229
},{
"label": "Jaloxtoc", "lat": 18.718806, "lng": -98.901758
},{
"label": "El Sifón de la Cuera", "lat": 18.739367, "lng": -98.903054
},{
"label": "El Salitre", "lat": 18.675788, "lng": -98.955878
},{
"label": "La Joya", "lat": 18.783007, "lng": -98.952953
},{
"label": "Buena Vista", "lat": 18.711831, "lng": -98.960554
},{
"label": "Cerro Piaña", "lat": 18.680056, "lng": -99.041406
},{
"label": "Colonia Segunda Ampliación Moyotepec", "lat": 18.732874, "lng": -99.005593
},{
"label": "Unidad Habitacional 10 de Abril", "lat": 18.754349, "lng": -98.915722
},{
"label": "La Corredora", "lat": 18.731716, "lng": -98.976564
},{
"label": "Campo del Tescalamate", "lat": 18.709647, "lng": -98.912688
},{
"label": "Campo Puente de Fierro", "lat": 18.769549, "lng": -98.979775
},{
"label": "Valle del Pedregal [Fraccionamiento]", "lat": 18.737246, "lng": -98.905604
},{
"label": "Unidad Piscícola el Vergel", "lat": 18.606756, "lng": -99.029546
},{
"label": "Finca Guadalupe", "lat": 18.732009, "lng": -98.893646
},{
"label": "Fraccionamiento Villa Dorada", "lat": 18.668873, "lng": -99.000288
},{
"label": "Parque Industrial Cuautla", "lat": 18.744959, "lng": -98.908753
},{
"label": "Fraccionamiento Citlalin", "lat": 18.749439, "lng": -98.840573
},{
"label": "El Jagüey", "lat": 18.797392, "lng": -98.991898
},{
"label": "Rancho Agua Limpia", "lat": 18.757659, "lng": -98.963116
},{
"label": "Colonia la Libertad", "lat": 18.754019, "lng": -98.954235
},{
"label": "Campo Ojo de Agua", "lat": 18.707542, "lng": -98.897885
},{
"label": "Campo los Pilares", "lat": 18.784746, "lng": -98.8935
},{
"label": "Campo el Aguacate", "lat": 18.752087, "lng": -99.02646
},{
"label": "2da. Sección Benito Juárez", "lat": 18.756453, "lng": -98.954005
},{
"label": "Rafael Merino (San Antonio)", "lat": 18.752288, "lng": -98.979476
},{
"label": "Rancho Casa Colorada", "lat": 18.707911, "lng": -98.977288
},{
"label": "Ejido Nueva Olintepec", "lat": 18.739236, "lng": -98.991524
},{
"label": "Rancho Guamuchilar", "lat": 18.771369, "lng": -98.877173
},{
"label": "Las Lajas", "lat": 18.598459, "lng": -99.023052
},{
"label": "Rancho Parras", "lat": 18.640242, "lng": -98.994718
},{
"label": "Niños Héroes", "lat": 18.766013, "lng": -98.955825
},{
"label": "Colonia las Flores", "lat": 18.681766, "lng": -98.993948
},{
"label": "Rancho Palomar Grande", "lat": 18.777037, "lng": -98.956579
},{
"label": "Ampliación Tenextepango (La Parcela)", "lat": 18.723776, "lng": -98.956898
},{
"label": "La Joya Escondida", "lat": 18.759273, "lng": -99.004213
},{
"label": "Casa Blanca", "lat": 18.731152, "lng": -98.997165
},{
"label": "Fraccionamiento el Venadito", "lat": 18.740924, "lng": -98.8463
},{
"label": "Campo los Pedros", "lat": 18.784266, "lng": -98.976517
},{
"label": "Campo Iturbide", "lat": 18.720623, "lng": -98.943289
},{
"label": "Rancho la Herradura", "lat": 18.700108, "lng": -98.882593
},{
"label": "Residencial los Sauces", "lat": 18.754908, "lng": -98.919178
},{
"label": "Huerto el Paraíso", "lat": 18.624429, "lng": -99.017499
},{
"label": "Rancho Epifanio Sotelo", "lat": 18.694819, "lng": -98.88138
},{
"label": "Huitzililla", "lat": 18.694963, "lng": -98.89722
},{
"label": "Colonia General Emiliano Zapata (El Chivatero)", "lat": 18.692823, "lng": -98.995971
},{
"label": "Campo Palo Blanco", "lat": 18.649152, "lng": -98.99392
},{
"label": "Unidad Piscícola San Pedro Apatlaco", "lat": 18.782828, "lng": -98.966209
},{
"label": "Palo Blanco", "lat": 18.649407, "lng": -98.946089
},{
"label": "Unidad Piscícola Tenextepango", "lat": 18.706122, "lng": -98.984587
},{
"label": "Campo Ampliación", "lat": 18.709232, "lng": -98.989456
},{
"label": "Residencial la Cantera", "lat": 18.800085, "lng": -98.968923
},{
"label": "Rancho de Roberto Yáñez", "lat": 18.685039, "lng": -98.904307
},{
"label": "Rancho Santana 2", "lat": 18.769326, "lng": -98.868371
},{
"label": "Campo los Bandidos", "lat": 18.607459, "lng": -99.018583
},{
"label": "Unidad Piscícola de Chinameca", "lat": 18.634996, "lng": -98.995854
},{
"label": "Rancho Santana 1", "lat": 18.768308, "lng": -98.878253
},{
"label": "Valle de Morelos", "lat": 18.734491, "lng": -98.971228
},{
"label": "Rancho 7 Hermanos", "lat": 18.695171, "lng": -98.990506
},{
"label": "Fraccionamiento Isla de Cuautla", "lat": 18.744696, "lng": -98.840493
},{
"label": "Granja las Codornices (La Fábrica)", "lat": 18.751961, "lng": -98.862733
},{
"label": "Abelardo L. Rodríguez", "lat": 18.737978, "lng": -98.985074
},{
"label": "La Doncella", "lat": 18.778382, "lng": -98.955651
},{
"label": "Cerro del Tenayo", "lat": 18.755695, "lng": -98.995119
},{
"label": "Granja la Esperanza", "lat": 18.702041, "lng": -98.900515
},{
"label": "Huacatlaco (Los Anonos)", "lat": 18.678566, "lng": -98.907689
},{
"label": "Unidad Piscícola San Juan Ahuehueyo", "lat": 18.701075, "lng": -98.942527
},{
"label": "Campo Pochotillo", "lat": 18.646662, "lng": -98.985675
},{
"label": "San Rafael", "lat": 18.636914, "lng": -99.004418
},{
"label": "Granja las Cebollas", "lat": 18.711565, "lng": -98.900784
},{
"label": "Granja Tlayecac", "lat": 18.767681, "lng": -98.881434
},{
"label": "Parada a Huexca", "lat": 18.778252, "lng": -98.898369
},{
"label": "Tlayecac", "lat": 18.75651, "lng": -98.881039
},{
"label": "Campo Agua de los Patos", "lat": 18.634732, "lng": -98.945059
},{
"label": "Rancho los Aviña", "lat": 18.70638, "lng": -98.879018
},{
"label": "Campo la Canoa", "lat": 18.723798, "lng": -99.003723
},{
"label": "Benito Juárez", "lat": 18.760267, "lng": -98.958826
},{
"label": "Colonia las Joyas", "lat": 18.61487, "lng": -98.992973
},{
"label": "Rancho 40", "lat": 18.778886, "lng": -99.03574
},{
"label": "Presa San Esteban", "lat": 18.761884, "lng": -98.964466
},{
"label": "Unidad Habitacional Mariano Matamoros", "lat": 18.743982, "lng": -98.85234
},{
"label": "Campo el Chivatero", "lat": 18.701843, "lng": -98.996865
},{
"label": "Residencial Villa de los Arcos", "lat": 18.799724, "lng": -98.967001
},{
"label": "Colonia las Lumbreras", "lat": 18.745924, "lng": -98.95329
},{
"label": "La Bodega del Programa Nacional de Semilla", "lat": 18.701059, "lng": -98.874703
},{
"label": "Agua Salada", "lat": 18.647646, "lng": -98.937177
},{
"label": "Olintepec", "lat": 18.740525, "lng": -98.987407
},{
"label": "Ampliación las Flores", "lat": 18.79336, "lng": -98.993226
},{
"label": "San Juan Ahuehueyo", "lat": 18.714496, "lng": -98.933988
},{
"label": "Colonia Ejidal Rafael Merino", "lat": 18.742378, "lng": -98.985439
},{
"label": "Campo Hidalgo", "lat": 18.731944, "lng": -98.954542
},{
"label": "Rancho la Barranquilla", "lat": 18.712525, "lng": -98.892701
},{
"label": "Colonia Ampliación Norte", "lat": 18.783091, "lng": -98.994424
},{
"label": "Marcelino Ortega", "lat": 18.789205, "lng": -99.041592
},{
"label": "Rancho Rosa y Manuel (Casa Blanca)", "lat": 18.70457, "lng": -98.898243
},{
"label": "Colonia Leopoldo Heredia", "lat": 18.726346, "lng": -98.964143
},{
"label": "El Mirador", "lat": 18.764241, "lng": -98.886013
},{
"label": "El Barreal", "lat": 18.787984, "lng": -98.964563
},{
"label": "La Sábana", "lat": 18.771271, "lng": -98.895967
},{
"label": "Rancho Chicapa (Teteltitla)", "lat": 18.676466, "lng": -98.886658
},{
"label": "Rancho Antonio Orozco", "lat": 18.692114, "lng": -98.886173
},{
"label": "Campo la Escopeta", "lat": 18.788562, "lng": -98.955144
},{
"label": "San Vicente de Juárez (Las Piedras)", "lat": 18.68448, "lng": -98.985284
},{
"label": "El Cerro Olinche", "lat": 18.734352, "lng": -98.962912
},{
"label": "San Pedro Apatlaco", "lat": 18.792179, "lng": -98.962599
},{
"label": "Tenextepango", "lat": 18.728598, "lng": -98.957747
},{
"label": "Moyotepec", "lat": 18.717774, "lng": -98.993132
},{
"label": "Campo Nuevo", "lat": 18.748613, "lng": -99.013903
},{
"label": "El Axocoche", "lat": 18.750098, "lng": -98.985768
},{
"label": "Campo las Cruces", "lat": 18.725385, "lng": -99.010311
},{
"label": "Fraccionamiento Huertas de Cuautla", "lat": 18.761064, "lng": -98.91302
},{
"label": "Campo Amate Amarillo", "lat": 18.726739, "lng": -98.908544
},{
"label": "Ampliación la Cucaracha", "lat": 18.626411, "lng": -98.988651
},{
"label": "Fraccionamiento Prados del Sol", "lat": 18.743084, "lng": -98.848101
},{
"label": "Constancio Farfán (La Pascuala)", "lat": 18.741617, "lng": -98.953983
},{
"label": "Granja Huitzililla 2", "lat": 18.69144, "lng": -98.89078
},{
"label": "Campo Huizachera 2", "lat": 18.719589, "lng": -98.926725
},{
"label": "Rancho Chalpa", "lat": 18.703622, "lng": -98.881158
},{
"label": "Colonia Ampliación Cruz Verde", "lat": 18.758057, "lng": -98.973722
},{
"label": "Finca el Claustro", "lat": 18.732378, "lng": -98.897634
},{
"label": "Ampliación Campo el Higuerillo", "lat": 18.727023, "lng": -98.991363
},{
"label": "Anenecuilco", "lat": 18.778013, "lng": -98.985129
},{
"label": "Casa de Campo [Restaurante-Bar]", "lat": 18.795484, "lng": -98.978094
},{
"label": "Los Pinos", "lat": 18.688568, "lng": -98.882543
},{
"label": "Rancho el Amate", "lat": 18.772676, "lng": -98.955183
},{
"label": "Chinameca", "lat": 18.623308, "lng": -98.999177
},{
"label": "Campo la Huizachera", "lat": 18.73584, "lng": -98.922957
},{
"label": "Colonia Avilés", "lat": 18.619074, "lng": -98.999963
},{
"label": "Campo Palomar Chico", "lat": 18.782498, "lng": -98.960063
},{
"label": "El Potrero", "lat": 18.74875, "lng": -98.982937
},{
"label": "El Crucero de Chinameca", "lat": 18.626111, "lng": -99.004167
},{
"label": "Fraccionamiento la Paz", "lat": 18.731177, "lng": -98.96263
},{
"label": "Rancho José Barreto", "lat": 18.709529, "lng": -98.899591
},{
"label": "Tecomalco", "lat": 18.651854, "lng": -98.992418
},{
"label": "Fraccionamiento Paraíso Tlahuica", "lat": 18.755452, "lng": -98.84206
},{
"label": "Colonia las Arboledas", "lat": 18.782803, "lng": -98.940419
},{
"label": "El Almacén", "lat": 18.792832, "lng": -98.974414
},{
"label": "Puente Blanco", "lat": 18.761903, "lng": -98.973615
},{
"label": "Campo Pochotes", "lat": 18.736001, "lng": -99.031268
},{
"label": "Campo el Guajar", "lat": 18.775343, "lng": -98.995079
},{
"label": "Ampliación Chinameca", "lat": 18.611188, "lng": -99.016804
},{
"label": "Rancho las Torres", "lat": 18.772322, "lng": -98.857167
},{
"label": "La Taza", "lat": 18.759738, "lng": -99.013669
},{
"label": "Ciudad Ayala", "lat": 18.767087, "lng": -98.982142
},{
"label": "Campo la Soledad", "lat": 18.728658, "lng": -98.989884
},{
"label": "El Vergel", "lat": 18.58985, "lng": -99.037497
},{
"label": "Colonia Pablo Torres Burgos", "lat": 18.619196, "lng": -99.006067
},{
"label": "Campo el Salto", "lat": 18.688266, "lng": -98.893882
},{
"label": "Rancho las Huertas", "lat": 18.750156, "lng": -98.92014
},{
"label": "Rancho San José", "lat": 18.630726, "lng": -98.945982
},{
"label": "Rincón de los Sauces", "lat": 18.753504, "lng": -98.95201
},{
"label": "Fraccionamiento Rinconada del Valle", "lat": 18.692729, "lng": -98.999631
},{
"label": "Campo San Miguel", "lat": 18.789863, "lng": -98.986855
},{
"label": "Ampliación Rafael Merino", "lat": 18.752964, "lng": -98.976623
},{
"label": "Loma Bonita", "lat": 18.713036, "lng": -98.958449
},{
"label": "Huertos el Paraíso", "lat": 18.627864, "lng": -99.011711
},{
"label": "San Pablo Hidalgo", "lat": 18.579128, "lng": -99.039293
},{
"label": "Vida y Sol", "lat": 18.738025, "lng": -98.991925
},{
"label": "Rancho el Pedregal", "lat": 18.770649, "lng": -98.865534
},{
"label": "Rancho el Naranjo (La Escondida)", "lat": 18.774024, "lng": -98.951813
}]