[{
"label": "Caseta de Inspección Sanitaria", "lat": 18.690012, "lng": -98.751539
},{
"label": "El Chumil", "lat": 18.709817, "lng": -98.755633
},{
"label": "Colonia los Amates", "lat": 18.697788, "lng": -98.795487
},{
"label": "Amayuca", "lat": 18.724801, "lng": -98.799084
},{
"label": "Chalpa (El Puente)", "lat": 18.722981, "lng": -98.805553
},{
"label": "Corral Grande (Rancho el Coral)", "lat": 18.737127, "lng": -98.839287
},{
"label": "San Martín", "lat": 18.739661, "lng": -98.828423
},{
"label": "Campo Cupatitlan", "lat": 18.72408, "lng": -98.771865
},{
"label": "Campo Chalpa", "lat": 18.722847, "lng": -98.787359
},{
"label": "El Granadillo", "lat": 18.742693, "lng": -98.77824
},{
"label": "Azteca [Rancho]", "lat": 18.616528, "lng": -98.738887
},{
"label": "El Rastro", "lat": 18.715316, "lng": -98.769723
},{
"label": "Tenango (Santa Ana)", "lat": 18.618306, "lng": -98.751483
},{
"label": "Peñón de los Baños", "lat": 18.616443, "lng": -98.743287
},{
"label": "La Peña", "lat": 18.668672, "lng": -98.778633
},{
"label": "Campo de las Rentas", "lat": 18.732701, "lng": -98.800329
},{
"label": "Campo Amatzongo", "lat": 18.736016, "lng": -98.787755
},{
"label": "Santa Lucía", "lat": 18.712441, "lng": -98.795583
},{
"label": "La Joya", "lat": 18.682676, "lng": -98.777522
},{
"label": "Campo el Amate", "lat": 18.727195, "lng": -98.790084
},{
"label": "Serafín Marcial Bonilla", "lat": 18.727915, "lng": -98.79899
},{
"label": "El Ranchito (El Jagüey)", "lat": 18.708946, "lng": -98.781041
},{
"label": "San Antonio la Esperanza", "lat": 18.612245, "lng": -98.732134
},{
"label": "Chalcatzingo", "lat": 18.689106, "lng": -98.774798
},{
"label": "La Normal", "lat": 18.729507, "lng": -98.76404
},{
"label": "Zull Ayot", "lat": 18.701577, "lng": -98.802547
},{
"label": "Colonia Cuatro Caminos", "lat": 18.712023, "lng": -98.800381
},{
"label": "Colonia Mariano Matamoros (Puente Colorado)", "lat": 18.711778, "lng": -98.782826
},{
"label": "Colonia Manuel Alarcón", "lat": 18.72304, "lng": -98.777915
},{
"label": "Los Bordos", "lat": 18.737665, "lng": -98.824489
},{
"label": "La Y", "lat": 18.73306, "lng": -98.813456
},{
"label": "La Laja", "lat": 18.669343, "lng": -98.733166
},{
"label": "Rancho la Huerta", "lat": 18.637909, "lng": -98.719197
},{
"label": "Las Peñas Caídas (La Loma)", "lat": 18.712155, "lng": -98.749536
},{
"label": "Colonia Emiliano Zapata (La Granja)", "lat": 18.642227, "lng": -98.747674
},{
"label": "Jantetelco", "lat": 18.715206, "lng": -98.777301
},{
"label": "Ruinas de Chalcatzingo", "lat": 18.679358, "lng": -98.77355
},{
"label": "Huamuchilito", "lat": 18.723159, "lng": -98.826653
},{
"label": "Nuevo Xochimilco", "lat": 18.702171, "lng": -98.800761
},{
"label": "Campo de los Mezquites", "lat": 18.723779, "lng": -98.783022
},{
"label": "La Nopalera", "lat": 18.722461, "lng": -98.847044
},{
"label": "Fraccionamiento Alondra", "lat": 18.716986, "lng": -98.800915
},{
"label": "La Renta", "lat": 18.728486, "lng": -98.809233
},{
"label": "Amilcingo", "lat": 18.73053, "lng": -98.767384
}]