[{
"label": "Las Presas", "lat": 18.80208, "lng": -98.768966
},{
"label": "Chololoaya", "lat": 18.814041, "lng": -98.724903
},{
"label": "La Presa (El Cerro de la Era)", "lat": 18.800603, "lng": -98.753136
},{
"label": "Colonia Mariano Escobedo (Campo las Trancas)", "lat": 18.819141, "lng": -98.74006
},{
"label": "Tlacotepec", "lat": 18.814303, "lng": -98.751558
},{
"label": "Rancho Mayolo Velázquez", "lat": 18.815804, "lng": -98.732366
},{
"label": "Rancho de Fidel Sánchez", "lat": 18.805735, "lng": -98.772218
},{
"label": "Curiel", "lat": 18.779424, "lng": -98.750663
},{
"label": "Campo San Andrés", "lat": 18.797112, "lng": -98.774639
},{
"label": "Colonia Guadalupe Victoria", "lat": 18.786866, "lng": -98.772827
},{
"label": "Las Flores (Contlapalco)", "lat": 18.830466, "lng": -98.749754
},{
"label": "Campo Potrerillo", "lat": 18.811869, "lng": -98.740365
},{
"label": "Zacualpan de Amilpas", "lat": 18.784393, "lng": -98.765423
},{
"label": "Rancho Vicente Sandoval", "lat": 18.823392, "lng": -98.754912
},{
"label": "La Compuerta", "lat": 18.823036, "lng": -98.745102
},{
"label": "Agua Tepechi", "lat": 18.802596, "lng": -98.743446
},{
"label": "Campo las Trancas", "lat": 18.83177, "lng": -98.735381
},{
"label": "Barranca Amatzinac", "lat": 18.783513, "lng": -98.763224
},{
"label": "Rancho Toribio Rivera", "lat": 18.821792, "lng": -98.757502
},{
"label": "Campo del Anono", "lat": 18.801941, "lng": -98.762512
},{
"label": "Rancho Ebodio Molina", "lat": 18.824884, "lng": -98.756194
},{
"label": "Colonia Emiliano Zapata", "lat": 18.817766, "lng": -98.759535
},{
"label": "Poza Larga", "lat": 18.810286, "lng": -98.725468
}]