[{
"label": "El Pocillo (Los Arcos)", "lat": 20.511498, "lng": -100.528819
},{
"label": "La Campanita", "lat": 20.436742, "lng": -100.603125
},{
"label": "Corral de Piedra", "lat": 20.374289, "lng": -100.617403
},{
"label": "La Mesita (La Mesita de los Mandujano)", "lat": 20.391728, "lng": -100.612081
},{
"label": "La Playa", "lat": 20.398063, "lng": -100.506756
},{
"label": "El Tajo", "lat": 20.443371, "lng": -100.614933
},{
"label": "Número 16 [Granja Avícola]", "lat": 20.503889, "lng": -100.565
},{
"label": "El Mineral", "lat": 20.454858, "lng": -100.648391
},{
"label": "Ninguno [Planta Química]", "lat": 20.532544, "lng": -100.509483
},{
"label": "El Paraíso", "lat": 20.492495, "lng": -100.599397
},{
"label": "La Tinaja Samaritana", "lat": 20.453069, "lng": -100.668193
},{
"label": "El Calichar", "lat": 20.489419, "lng": -100.493174
},{
"label": "San José de la Loma [Fraccionamiento]", "lat": 20.408847, "lng": -100.485986
},{
"label": "Capiro [Granja Avícola]", "lat": 20.356297, "lng": -100.569722
},{
"label": "Destiladora (Rancho los Ureña)", "lat": 20.380786, "lng": -100.494049
},{
"label": "Las Gaviotas", "lat": 20.470899, "lng": -100.608355
},{
"label": "Aguaje de Espejo", "lat": 20.430077, "lng": -100.544972
},{
"label": "Belén", "lat": 20.367656, "lng": -100.523349
},{
"label": "El Soldado", "lat": 20.403151, "lng": -100.501618
},{
"label": "Salvador Ochoa", "lat": 20.436408, "lng": -100.534284
},{
"label": "La Soledad de Realengo", "lat": 20.426801, "lng": -100.503659
},{
"label": "Pozo de Oro", "lat": 20.474818, "lng": -100.605979
},{
"label": "El Talayote", "lat": 20.426434, "lng": -100.633381
},{
"label": "Celerino Ávila Franco (Potrero San José)", "lat": 20.425333, "lng": -100.550856
},{
"label": "Corazón", "lat": 20.441424, "lng": -100.535015
},{
"label": "La Ceja", "lat": 20.339825, "lng": -100.547773
},{
"label": "El Cedazo", "lat": 20.442157, "lng": -100.618892
},{
"label": "Mandujano Atepehuacán", "lat": 20.431904, "lng": -100.580509
},{
"label": "Trinidad Rodríguez (Trenco)", "lat": 20.43, "lng": -100.5975
},{
"label": "Jiménez", "lat": 20.329083, "lng": -100.549063
},{
"label": "Los Cervantes (San Antonio de los Cervantes)", "lat": 20.340833, "lng": -100.526667
},{
"label": "La Nuez", "lat": 20.446227, "lng": -100.621233
},{
"label": "Mesita de Cápula (El Catorce)", "lat": 20.412403, "lng": -100.571507
},{
"label": "San Antonio Calichar", "lat": 20.496573, "lng": -100.515649
},{
"label": "El Potrerito (Las Casas de Emiliano)", "lat": 20.483688, "lng": -100.64142
},{
"label": "Mandujano Hidalgo", "lat": 20.433146, "lng": -100.58297
},{
"label": "El Montecito", "lat": 20.431312, "lng": -100.550694
},{
"label": "El Encinal", "lat": 20.373749, "lng": -100.579799
},{
"label": "El Palacio de las Flores", "lat": 20.490833, "lng": -100.6
},{
"label": "Granja Número 15", "lat": 20.385833, "lng": -100.555278
},{
"label": "El Pedregalito", "lat": 20.423004, "lng": -100.605228
},{
"label": "Granja Número 16", "lat": 20.380412, "lng": -100.554374
},{
"label": "Número 12 [Granja Avícola]", "lat": 20.512222, "lng": -100.565278
},{
"label": "La Ventilla (La Ventilla del Puerto)", "lat": 20.381551, "lng": -100.648719
},{
"label": "Nopalera de Juárez", "lat": 20.348056, "lng": -100.535
},{
"label": "San José de la Loma", "lat": 20.405409, "lng": -100.489719
},{
"label": "La Mesa (La Mesa de Paredones)", "lat": 20.383425, "lng": -100.581742
},{
"label": "Pájaro Azul", "lat": 20.381431, "lng": -100.573738
},{
"label": "Número 47 [Granja Avícola]", "lat": 20.514167, "lng": -100.501944
},{
"label": "San Nicolás", "lat": 20.476951, "lng": -100.534396
},{
"label": "El Sauz de Belén (Quemado)", "lat": 20.343097, "lng": -100.505308
},{
"label": "Colonia el Huerto", "lat": 20.384442, "lng": -100.479236
},{
"label": "La Bomba [Balneario]", "lat": 20.441121, "lng": -100.599981
},{
"label": "El Puerto", "lat": 20.377544, "lng": -100.65241
},{
"label": "Prolongación Lerdo de Tejada", "lat": 20.468146, "lng": -100.631108
},{
"label": "Rancho Guadalupe (Rancho Luarca)", "lat": 20.503293, "lng": -100.53152
},{
"label": "Leodegario Rosales Durán (La Loma)", "lat": 20.370794, "lng": -100.4962
},{
"label": "El Salto de Espejo", "lat": 20.44973, "lng": -100.506479
},{
"label": "Estancia de Paredones", "lat": 20.390316, "lng": -100.577134
},{
"label": "La Esmeralda", "lat": 20.407694, "lng": -100.564325
},{
"label": "Marcos Guerrero", "lat": 20.420783, "lng": -100.604468
},{
"label": "Santa Cruz de Gamboa", "lat": 20.389193, "lng": -100.516164
},{
"label": "El Maguey", "lat": 20.426329, "lng": -100.55929
},{
"label": "San Rafael", "lat": 20.359813, "lng": -100.570326
},{
"label": "El Sabino", "lat": 20.486575, "lng": -100.590738
},{
"label": "La Tinaja del Refugio", "lat": 20.373254, "lng": -100.538868
},{
"label": "Palo Alto", "lat": 20.363648, "lng": -100.608477
},{
"label": "Buenos Aires (El Cerrito)", "lat": 20.352147, "lng": -100.563589
},{
"label": "El Pintor (Cervantes)", "lat": 20.334167, "lng": -100.526667
},{
"label": "Catalina González (Loma de San Isidro)", "lat": 20.516732, "lng": -100.517201
},{
"label": "Postura Número 14 [Granja Avícola]", "lat": 20.372413, "lng": -100.567426
},{
"label": "El Pocito (El Pocito de la Virgen)", "lat": 20.401668, "lng": -100.626154
},{
"label": "San Isidro de Gamboa", "lat": 20.394593, "lng": -100.526537
},{
"label": "La Tijera (San Antonio la Tijera)", "lat": 20.337297, "lng": -100.613894
},{
"label": "La Finca", "lat": 20.474012, "lng": -100.642751
},{
"label": "Bomba de Manuel Morales", "lat": 20.436414, "lng": -100.609323
},{
"label": "El Realengo", "lat": 20.426667, "lng": -100.490556
},{
"label": "Ninguno [Granja Porcina]", "lat": 20.515352, "lng": -100.507046
},{
"label": "Cerro Prieto", "lat": 20.368058, "lng": -100.591059
},{
"label": "Marroquín", "lat": 20.510683, "lng": -100.558606
},{
"label": "El Cardal (Tomasa Medina Cervantes)", "lat": 20.492438, "lng": -100.602067
},{
"label": "La Rosa Azul", "lat": 20.500949, "lng": -100.538083
},{
"label": "Ninguno [Gasolinera]", "lat": 20.509579, "lng": -100.572951
},{
"label": "El Varal", "lat": 20.373421, "lng": -100.604691
},{
"label": "Los Mayorga", "lat": 20.377308, "lng": -100.49077
},{
"label": "La Nopalera del Puerto", "lat": 20.37501, "lng": -100.658596
},{
"label": "Ojo de Agua de Espejo (Estancia de Espejo)", "lat": 20.460153, "lng": -100.542537
},{
"label": "Los Galvanes", "lat": 20.343729, "lng": -100.569768
},{
"label": "Quinta de Espejo", "lat": 20.45746, "lng": -100.549522
},{
"label": "Apaseo el Alto", "lat": 20.457171, "lng": -100.621626
},{
"label": "La Presita", "lat": 20.484683, "lng": -100.629492
},{
"label": "Benignos (El Cerrito)", "lat": 20.36227, "lng": -100.489826
},{
"label": "Ampliación de Aguaje", "lat": 20.431163, "lng": -100.539553
},{
"label": "San Rafael de los Piñas", "lat": 20.342589, "lng": -100.513046
},{
"label": "El Refugio de Gamboa", "lat": 20.382481, "lng": -100.511876
},{
"label": "El Llanito", "lat": 20.500746, "lng": -100.555329
},{
"label": "La Güilota", "lat": 20.339135, "lng": -100.549196
},{
"label": "La Herradura", "lat": 20.423078, "lng": -100.609266
},{
"label": "El Cajón", "lat": 20.353889, "lng": -100.609167
},{
"label": "El Mirador (Colonia Cervantes)", "lat": 20.501414, "lng": -100.523361
},{
"label": "El Cabero", "lat": 20.395513, "lng": -100.556817
},{
"label": "La Lagunilla", "lat": 20.357692, "lng": -100.628594
},{
"label": "Fracción San Agustín (La Bomba)", "lat": 20.452179, "lng": -100.53256
},{
"label": "La Providencia del Puerto (Pie de Gallo)", "lat": 20.373006, "lng": -100.64529
},{
"label": "La Providencia", "lat": 20.512125, "lng": -100.524097
},{
"label": "Congregación de la Cruz (La Cueva)", "lat": 20.456327, "lng": -100.690821
},{
"label": "La Peña Blanca", "lat": 20.372778, "lng": -100.595833
},{
"label": "El Petril", "lat": 20.444703, "lng": -100.566511
},{
"label": "Los Nogalitos", "lat": 20.461802, "lng": -100.601506
},{
"label": "Ninguno [Fundidora de Materiales]", "lat": 20.513419, "lng": -100.515864
},{
"label": "San Francisco de los Piñas", "lat": 20.336349, "lng": -100.518363
},{
"label": "Granja la Gloria", "lat": 20.493734, "lng": -100.64639
},{
"label": "Lázaro Cárdenas (Bordo de Santana)", "lat": 20.445671, "lng": -100.599326
},{
"label": "Torreón de los Ángeles", "lat": 20.378674, "lng": -100.475831
},{
"label": "La Canoa", "lat": 20.375096, "lng": -100.598333
},{
"label": "Eleazar Serrano Paredes", "lat": 20.487578, "lng": -100.602319
},{
"label": "Granja de Trinidad Mendoza", "lat": 20.453381, "lng": -100.600383
},{
"label": "Rancho de Berlín", "lat": 20.378866, "lng": -100.565858
},{
"label": "Número 15 [Granja Avícola]", "lat": 20.505833, "lng": -100.572778
},{
"label": "San Felipe Calichar", "lat": 20.494999, "lng": -100.499288
},{
"label": "San Vicente", "lat": 20.469493, "lng": -100.544321
},{
"label": "Las Ánimas", "lat": 20.368886, "lng": -100.635589
},{
"label": "El Espejo (Ex-Hacienda de Espejo)", "lat": 20.438858, "lng": -100.554111
},{
"label": "La Liebre (Soledad de la Liebre)", "lat": 20.370254, "lng": -100.482086
},{
"label": "San Juan del Llanito", "lat": 20.513255, "lng": -100.540841
},{
"label": "La Vía", "lat": 20.356396, "lng": -100.518626
},{
"label": "Benito Torres Salinas", "lat": 20.520259, "lng": -100.562127
},{
"label": "El Alcanfor (Don Pancho)", "lat": 20.485323, "lng": -100.623686
},{
"label": "El Secretario", "lat": 20.44731, "lng": -100.573633
},{
"label": "Canoas de Arriba (La Lagunilla)", "lat": 20.470294, "lng": -100.68842
},{
"label": "El Durazno", "lat": 20.378762, "lng": -100.601454
},{
"label": "El Chamizal (El Rosario)", "lat": 20.402193, "lng": -100.580194
},{
"label": "Potrero del Cerrito de la Cal", "lat": 20.461463, "lng": -100.602535
},{
"label": "Santa María del Rosario (Víctor Ledezma)", "lat": 20.460918, "lng": -100.564676
},{
"label": "San Bartolomé Aguas Calientes", "lat": 20.495455, "lng": -100.547159
},{
"label": "La Luisiada", "lat": 20.426605, "lng": -100.597024
},{
"label": "La Peña", "lat": 20.445617, "lng": -100.552524
},{
"label": "Barajas", "lat": 20.412552, "lng": -100.611053
},{
"label": "Rancho el Patol", "lat": 20.446406, "lng": -100.530177
},{
"label": "Santa Isabel", "lat": 20.373374, "lng": -100.565111
},{
"label": "La Mora", "lat": 20.402015, "lng": -100.490994
},{
"label": "Los Arquitos (La Canterita)", "lat": 20.399222, "lng": -100.569528
},{
"label": "El Zorrillo", "lat": 20.453817, "lng": -100.655754
},{
"label": "Colonia la Conquista y los Betunes", "lat": 20.50834, "lng": -100.51679
},{
"label": "Paredones", "lat": 20.390791, "lng": -100.563489
},{
"label": "La Norita", "lat": 20.529252, "lng": -100.51778
},{
"label": "El Oasis", "lat": 20.505842, "lng": -100.533479
},{
"label": "Luis Aguirre y Manuel Arvizu", "lat": 20.447138, "lng": -100.559186
},{
"label": "Rancho del Carmen (La Peña)", "lat": 20.342293, "lng": -100.593922
},{
"label": "Número 48 [Granja Avícola]", "lat": 20.511818, "lng": -100.51261
},{
"label": "Ojo de Agua de la Trinidad", "lat": 20.392784, "lng": -100.632273
},{
"label": "El Pedregal (Los Vera)", "lat": 20.506535, "lng": -100.511689
},{
"label": "Alejandro Aboytes (Las Coloradas)", "lat": 20.416089, "lng": -100.556857
},{
"label": "La Luz", "lat": 20.418943, "lng": -100.491244
},{
"label": "El Terrero (Terrero de Paredones)", "lat": 20.369924, "lng": -100.556828
},{
"label": "Belén [Granja Avícola]", "lat": 20.357182, "lng": -100.570502
},{
"label": "La Cañada", "lat": 20.436546, "lng": -100.616073
},{
"label": "Colonia 18 de Diciembre", "lat": 20.465164, "lng": -100.63943
},{
"label": "El Árbol", "lat": 20.396594, "lng": -100.607951
},{
"label": "La Cuevita", "lat": 20.339446, "lng": -100.578567
},{
"label": "El Mono", "lat": 20.333619, "lng": -100.519519
},{
"label": "La Mora (Jesús Yáñez)", "lat": 20.373839, "lng": -100.478706
},{
"label": "Fracción del Durazno (Bodegas de Paredones)", "lat": 20.396104, "lng": -100.562452
}]