[{
"label": "Mangas Cuatas", "lat": 21.257853, "lng": -99.763917
},{
"label": "El Platero", "lat": 21.250556, "lng": -99.861667
},{
"label": "Palo Verde", "lat": 21.245538, "lng": -99.76412
},{
"label": "El Mezquital", "lat": 21.262679, "lng": -99.775834
},{
"label": "Cerro Prieto", "lat": 21.278448, "lng": -99.738416
},{
"label": "El Torbellino (Puerto del Torbellino)", "lat": 21.169722, "lng": -99.868056
},{
"label": "El Ángel", "lat": 21.257222, "lng": -99.800834
},{
"label": "El Piñonal", "lat": 21.315208, "lng": -99.860992
},{
"label": "El Cantón", "lat": 21.22616, "lng": -99.854849
},{
"label": "El Sauz", "lat": 21.20471, "lng": -99.881621
},{
"label": "San Antón", "lat": 21.261764, "lng": -99.788863
},{
"label": "Aldama (Xoconoxtle)", "lat": 21.177298, "lng": -99.833865
},{
"label": "El Durazno", "lat": 21.311468, "lng": -99.780174
},{
"label": "La Lagunita", "lat": 21.232179, "lng": -99.874771
},{
"label": "Puerto la Escondida", "lat": 21.185178, "lng": -99.797314
},{
"label": "El Jabalí", "lat": 21.199111, "lng": -99.783339
},{
"label": "Ex-Hacienda de Charcas", "lat": 21.208476, "lng": -99.860091
},{
"label": "El Toro", "lat": 21.375153, "lng": -99.779968
},{
"label": "El Mago", "lat": 21.274917, "lng": -99.701767
},{
"label": "El Apartadero", "lat": 21.214593, "lng": -99.836595
},{
"label": "Salitrillo", "lat": 21.253733, "lng": -99.754333
},{
"label": "Morisquillas", "lat": 21.185883, "lng": -99.791467
},{
"label": "La Joya", "lat": 21.27742, "lng": -99.864243
},{
"label": "Maguey Blanco (Llanitos B)", "lat": 21.189597, "lng": -99.795318
},{
"label": "El Chilarito", "lat": 21.19034, "lng": -99.85902
},{
"label": "La Tapona", "lat": 21.187744, "lng": -99.870094
},{
"label": "San Juan de Dios", "lat": 21.254683, "lng": -99.856753
},{
"label": "El Carricillo", "lat": 21.315183, "lng": -99.833228
},{
"label": "Álamos", "lat": 21.235125, "lng": -99.801499
},{
"label": "Piedra Gorda", "lat": 21.214337, "lng": -99.869109
},{
"label": "El Charco", "lat": 21.290591, "lng": -99.71457
},{
"label": "La Luz", "lat": 21.225663, "lng": -99.837512
},{
"label": "El Pilón", "lat": 21.394444, "lng": -99.781389
},{
"label": "Atarjea", "lat": 21.26704, "lng": -99.720267
},{
"label": "El Chiquero", "lat": 21.301649, "lng": -99.767769
},{
"label": "El Pelón", "lat": 21.190883, "lng": -99.793906
},{
"label": "El Banco", "lat": 21.252803, "lng": -99.703816
},{
"label": "Los Llanitos", "lat": 21.195065, "lng": -99.823264
},{
"label": "El Repasadero (Llanitos B)", "lat": 21.19231, "lng": -99.810683
},{
"label": "Puerto de la Joya", "lat": 21.268643, "lng": -99.859699
}]