[{
"label": "Granja González", "lat": 20.565444, "lng": -100.865818
},{
"label": "Santa Elena Segunda Sección (Rancho Nuevo)", "lat": 20.606211, "lng": -100.835359
},{
"label": "La Machuca", "lat": 20.454759, "lng": -100.768415
},{
"label": "Luis Rojas Franco", "lat": 20.660278, "lng": -100.721944
},{
"label": "Canuto Aguirre Elías", "lat": 20.640716, "lng": -100.749412
},{
"label": "Jesús Sánchez", "lat": 20.501029, "lng": -100.790163
},{
"label": "Ninguno [Planta Química]", "lat": 20.516029, "lng": -100.896106
},{
"label": "Nicolás Calero Molina [Bodega]", "lat": 20.584637, "lng": -100.758708
},{
"label": "Caja los Rodríguez", "lat": 20.496261, "lng": -100.788669
},{
"label": "Ojo Seco", "lat": 20.385003, "lng": -100.795544
},{
"label": "Tenería de Valdez", "lat": 20.538336, "lng": -100.890792
},{
"label": "Oliveros (Juan Tapia)", "lat": 20.587557, "lng": -100.71136
},{
"label": "La Casa de las Cuatas", "lat": 20.511398, "lng": -100.879644
},{
"label": "Cuatro Esquinas", "lat": 20.455402, "lng": -100.774214
},{
"label": "San Agustín [Parador]", "lat": 20.597433, "lng": -100.806562
},{
"label": "San José de Guanajuato", "lat": 20.556928, "lng": -100.893021
},{
"label": "Zona Federal", "lat": 20.642395, "lng": -100.763176
},{
"label": "Surcos Largos (Los Eucaliptos)", "lat": 20.676364, "lng": -100.779977
},{
"label": "Carlos Montellano", "lat": 20.586728, "lng": -100.814642
},{
"label": "Ninguno [Deshidratadora Agrícola]", "lat": 20.536553, "lng": -100.873844
},{
"label": "Los Castelano [Invernadero]", "lat": 20.452836, "lng": -100.816397
},{
"label": "Granjita Santa Rosa (Andrés Morales Álvarez)", "lat": 20.576797, "lng": -100.762757
},{
"label": "Palace", "lat": 20.515519, "lng": -100.768796
},{
"label": "El Carricillo", "lat": 20.639637, "lng": -100.759669
},{
"label": "El Rodeo (Francisco Ramírez)", "lat": 20.418522, "lng": -100.740361
},{
"label": "Ninguno", "lat": 20.592982, "lng": -100.854548
},{
"label": "Los Arenales (Los Puentes)", "lat": 20.649923, "lng": -100.754429
},{
"label": "Cinco Barones", "lat": 20.538478, "lng": -100.861977
},{
"label": "El Santuario", "lat": 20.543267, "lng": -100.760968
},{
"label": "Establo San Ramón (Ramón Almanza Martínez)", "lat": 20.505906, "lng": -100.869467
},{
"label": "San Agustín", "lat": 20.418267, "lng": -100.792256
},{
"label": "San Isidro del Refugio (El Tajo)", "lat": 20.452193, "lng": -100.786419
},{
"label": "Nuevo Porvenir (El Pujido)", "lat": 20.392913, "lng": -100.775511
},{
"label": "Arturo Jacal Romero (La Huerta)", "lat": 20.642225, "lng": -100.77964
},{
"label": "Villas de Roque [La Ladrillera]", "lat": 20.576899, "lng": -100.853478
},{
"label": "Raúl Granados González [Balneario]", "lat": 20.489206, "lng": -100.845136
},{
"label": "Carmen Ramírez Sánchez", "lat": 20.604536, "lng": -100.771704
},{
"label": "San Andrés del Mezquite", "lat": 20.63098, "lng": -100.865643
},{
"label": "Segunda de Estrada (San Pablo)", "lat": 20.527222, "lng": -100.874167
},{
"label": "Antonio Sánchez Licea", "lat": 20.571601, "lng": -100.791241
},{
"label": "Bajada de Chihuahuita", "lat": 20.584635, "lng": -100.872718
},{
"label": "La Manga", "lat": 20.424927, "lng": -100.807554
},{
"label": "Rancho los Molina (Calle del Canal)", "lat": 20.585569, "lng": -100.811738
},{
"label": "Sandoval", "lat": 20.57589, "lng": -100.872038
},{
"label": "La Vega", "lat": 20.649961, "lng": -100.769578
},{
"label": "Colonia Nuevo México", "lat": 20.418059, "lng": -100.793969
},{
"label": "Ninguno [Hotel]", "lat": 20.516362, "lng": -100.890184
},{
"label": "Moralitos (Las Liebres)", "lat": 20.56396, "lng": -100.738083
},{
"label": "Las Liebres (Moralitos)", "lat": 20.575603, "lng": -100.732236
},{
"label": "Ninguno [Efraín Hernández]", "lat": 20.452114, "lng": -100.809625
},{
"label": "El Gran Chaparral [Camilo Miranda]", "lat": 20.381009, "lng": -100.781479
},{
"label": "Ex-Hacienda de Trojes", "lat": 20.500418, "lng": -100.776165
},{
"label": "San Isidro Crespo", "lat": 20.515267, "lng": -100.882739
},{
"label": "Ninguno [Trituradora]", "lat": 20.446667, "lng": -100.812356
},{
"label": "San José el Nuevo", "lat": 20.44273, "lng": -100.772398
},{
"label": "Almanza", "lat": 20.384502, "lng": -100.752429
},{
"label": "Granja Andrade", "lat": 20.551059, "lng": -100.905388
},{
"label": "Santa Bárbara (Basilio Hernández López)", "lat": 20.578722, "lng": -100.794526
},{
"label": "La Esperanza [Los Invernaderos]", "lat": 20.552775, "lng": -100.761553
},{
"label": "Santa Lucía (Refugio González Ibarra)", "lat": 20.536079, "lng": -100.856279
},{
"label": "Santa Cecilia", "lat": 20.539511, "lng": -100.758106
},{
"label": "Santo Domingo (Ex-Hacienda de Estrada)", "lat": 20.53197, "lng": -100.875579
},{
"label": "El Lindero", "lat": 20.570617, "lng": -100.840573
},{
"label": "Los Lupes", "lat": 20.407066, "lng": -100.774604
},{
"label": "Granja Galeazzi", "lat": 20.536089, "lng": -100.897594
},{
"label": "Granjita el Fresno (Benjamín Patiño Serrano)", "lat": 20.572651, "lng": -100.830118
},{
"label": "Número Siete [Granja Avícola]", "lat": 20.608794, "lng": -100.878951
},{
"label": "Moralitos", "lat": 20.488056, "lng": -100.798333
},{
"label": "Celestina Montecino", "lat": 20.578549, "lng": -100.861236
},{
"label": "Plaza de Toros", "lat": 20.546149, "lng": -100.874344
},{
"label": "Villamares", "lat": 20.633511, "lng": -100.772236
},{
"label": "Las Margaritas Uno", "lat": 20.608056, "lng": -100.821389
},{
"label": "José Antonio Quintanilla Solorzano", "lat": 20.506531, "lng": -100.880292
},{
"label": "Hacienda de Sanabria", "lat": 20.61759, "lng": -100.743324
},{
"label": "Segura [Taller]", "lat": 20.545589, "lng": -100.875706
},{
"label": "San Cayetano", "lat": 20.603604, "lng": -100.821048
},{
"label": "Tierra Blanca (La Mesa de los Jiménez)", "lat": 20.549783, "lng": -100.755187
},{
"label": "José Luis Mata Salazar", "lat": 20.579006, "lng": -100.808611
},{
"label": "Entrada a Presa Blanca", "lat": 20.638472, "lng": -100.777228
},{
"label": "Santa Adela (La Hacienda)", "lat": 20.605278, "lng": -100.849167
},{
"label": "Andrés Olivares", "lat": 20.631272, "lng": -100.742014
},{
"label": "La Cuchilla", "lat": 20.521674, "lng": -100.771993
},{
"label": "Oporto [Fraccionamiento]", "lat": 20.506683, "lng": -100.856403
},{
"label": "Granja Santa Ana", "lat": 20.557279, "lng": -100.870138
},{
"label": "Puente Enterrado", "lat": 20.477308, "lng": -100.762057
},{
"label": "Gasca", "lat": 20.604417, "lng": -100.856
},{
"label": "San Isidro de Elguera", "lat": 20.571414, "lng": -100.882644
},{
"label": "Senda Real [Fraccionamiento]", "lat": 20.534118, "lng": -100.861071
},{
"label": "Severiano Mancera Figueroa", "lat": 20.622801, "lng": -100.841461
},{
"label": "Pozo Jáuregui (José Jáuregui)", "lat": 20.583758, "lng": -100.75084
},{
"label": "Caja la Compuerta Sola (Lucero del Río)", "lat": 20.494884, "lng": -100.787368
},{
"label": "Salvador Medina", "lat": 20.515401, "lng": -100.774409
},{
"label": "San Luis Rey", "lat": 20.569276, "lng": -100.786575
},{
"label": "Ninguno [Fábrica de Partes Automotriz]", "lat": 20.362882, "lng": -100.798522
},{
"label": "El Establo", "lat": 20.591162, "lng": -100.802646
},{
"label": "La Mora", "lat": 20.537573, "lng": -100.775565
},{
"label": "La Cruz", "lat": 20.460558, "lng": -100.796413
},{
"label": "Yustis (San José de Yustis)", "lat": 20.58131, "lng": -100.865446
},{
"label": "Los Pinos (Granja Sarita)", "lat": 20.621082, "lng": -100.830684
},{
"label": "Ninguno [Severo León]", "lat": 20.377648, "lng": -100.791998
},{
"label": "Ninguno [Eulogio Herrera Rentería]", "lat": 20.378781, "lng": -100.796192
},{
"label": "Primera Fracción de Crespo (El Molino)", "lat": 20.496626, "lng": -100.850476
},{
"label": "Los Corrales", "lat": 20.419443, "lng": -100.735224
},{
"label": "Jáuregui", "lat": 20.591442, "lng": -100.721252
},{
"label": "Parada de San Nicolás", "lat": 20.646715, "lng": -100.769794
},{
"label": "Puente de las Brujas", "lat": 20.670331, "lng": -100.785621
},{
"label": "Granja San Martín", "lat": 20.527632, "lng": -100.870915
},{
"label": "Rancho San José", "lat": 20.556566, "lng": -100.899529
},{
"label": "José Pérez (Hoyos de Arena)", "lat": 20.578972, "lng": -100.858357
},{
"label": "Ninguno [Campo Agrícola Experimental]", "lat": 20.579696, "lng": -100.820536
},{
"label": "La Finca (Reyes Cofradía Vázquez)", "lat": 20.622137, "lng": -100.748137
},{
"label": "San Francisco", "lat": 20.408018, "lng": -100.756743
},{
"label": "San Rafael de Yustis (Loretío)", "lat": 20.567771, "lng": -100.852074
},{
"label": "La Concepción", "lat": 20.615191, "lng": -100.794751
},{
"label": "Camino a la Palmita", "lat": 20.503314, "lng": -100.876704
},{
"label": "Fraccionamiento los Mezquites", "lat": 20.532608, "lng": -100.884386
},{
"label": "La Soledad", "lat": 20.597086, "lng": -100.854415
},{
"label": "Avenida los Pinos (Casa de los Carreño)", "lat": 20.373394, "lng": -100.782574
},{
"label": "Ignacio González Sanabria", "lat": 20.577488, "lng": -100.827582
},{
"label": "Ayalkar [Parque Industrial]", "lat": 20.396183, "lng": -100.789511
},{
"label": "Puerta del Monte (Elguera)", "lat": 20.56285, "lng": -100.887467
},{
"label": "Ninguno [Campo de Tiro]", "lat": 20.454069, "lng": -100.806502
},{
"label": "Ninguno [Pozo de Don Beto]", "lat": 20.449286, "lng": -100.819814
},{
"label": "Ninguno [Deshidratadora de Vegetales]", "lat": 20.521616, "lng": -100.877448
},{
"label": "Las Tres Chuminas", "lat": 20.462717, "lng": -100.818269
},{
"label": "Canoas (Congregación de Canoas)", "lat": 20.41453, "lng": -100.712802
},{
"label": "El Pozo", "lat": 20.602031, "lng": -100.794756
},{
"label": "Campo Azul [Fraccionamiento]", "lat": 20.492004, "lng": -100.831441
},{
"label": "La Caja del Zancón", "lat": 20.494161, "lng": -100.786128
},{
"label": "Esperanza Rodríguez", "lat": 20.581406, "lng": -100.870245
},{
"label": "Caja San Luis (Santa María)", "lat": 20.482817, "lng": -100.824692
},{
"label": "Santa Lucía", "lat": 20.531231, "lng": -100.857175
},{
"label": "Los Establos (Los Arenales)", "lat": 20.581659, "lng": -100.759565
},{
"label": "Ojo de Agüita (Guayabo)", "lat": 20.458032, "lng": -100.723865
},{
"label": "Fraccionamiento Palma Mallorca", "lat": 20.544857, "lng": -100.868964
},{
"label": "Santa Teresa", "lat": 20.637214, "lng": -100.85732
},{
"label": "El Cajón (La Pomona)", "lat": 20.52771, "lng": -100.773814
},{
"label": "Tenería del Santuario", "lat": 20.598429, "lng": -100.796431
},{
"label": "Las Peñitas", "lat": 20.464454, "lng": -100.709427
},{
"label": "Rancho las Herraduras", "lat": 20.622011, "lng": -100.740766
},{
"label": "Ninguno [Saturnino Rodríguez Juárez]", "lat": 20.420678, "lng": -100.795878
},{
"label": "Hacienda del Rincón [Fraccionamiento]", "lat": 20.422681, "lng": -100.778183
},{
"label": "Guadalupe (Fracción de San Cayetano)", "lat": 20.617606, "lng": -100.830496
},{
"label": "Ninguno [Granjas]", "lat": 20.428889, "lng": -100.795556
},{
"label": "Michinelas", "lat": 20.478694, "lng": -100.809623
},{
"label": "Los Cármenes", "lat": 20.493974, "lng": -100.832747
},{
"label": "Alberto Rangel", "lat": 20.629106, "lng": -100.744143
},{
"label": "El Pitahayo", "lat": 20.437871, "lng": -100.811114
},{
"label": "La Saca", "lat": 20.563288, "lng": -100.892595
},{
"label": "Ninguno [Martina Oro Ramírez]", "lat": 20.398319, "lng": -100.805236
},{
"label": "Gregorio León Mancera", "lat": 20.637839, "lng": -100.777753
},{
"label": "Jesús Medina Miranda (Los Álamos)", "lat": 20.411149, "lng": -100.765363
},{
"label": "Los Arreguines (La Recibidora) [Granja]", "lat": 20.494376, "lng": -100.827608
},{
"label": "Jesús Barroso (Santa Teresita)", "lat": 20.537798, "lng": -100.764873
},{
"label": "Vallejito", "lat": 20.574052, "lng": -100.73573
},{
"label": "Ferropuerto del Bajío [Parque Industrial]", "lat": 20.422544, "lng": -100.788678
},{
"label": "El Milagro [Rancho]", "lat": 20.384063, "lng": -100.809659
},{
"label": "Santa Rita", "lat": 20.567877, "lng": -100.785203
},{
"label": "Granja San Isidro", "lat": 20.539143, "lng": -100.865761
},{
"label": "Rubén Nolasco Hernández", "lat": 20.641767, "lng": -100.784813
},{
"label": "Ninguno [Camino a Jofre]", "lat": 20.485726, "lng": -100.823423
},{
"label": "Palo Blanco", "lat": 20.471682, "lng": -100.703254
},{
"label": "San Nicolás Esquiros", "lat": 20.677986, "lng": -100.791491
},{
"label": "San Antonio", "lat": 20.597061, "lng": -100.788722
},{
"label": "La Providencia [Granja]", "lat": 20.445186, "lng": -100.795036
},{
"label": "Fraccionamiento Camino Real", "lat": 20.540278, "lng": -100.883333
},{
"label": "La Trinidad", "lat": 20.563338, "lng": -100.782584
},{
"label": "Granja Santana", "lat": 20.576111, "lng": -100.839722
},{
"label": "Rancho Santa Rosa (Alfonso Montoya Melesio)", "lat": 20.585, "lng": -100.7625
},{
"label": "La Conchita", "lat": 20.619259, "lng": -100.793927
},{
"label": "Los Capulines", "lat": 20.643844, "lng": -100.674762
},{
"label": "El Charro [Elías González Ramírez]", "lat": 20.419615, "lng": -100.780793
},{
"label": "Elías Cuarenta Pérez", "lat": 20.609293, "lng": -100.732767
},{
"label": "Los Albañiles (Ejido Santa María del Refugio)", "lat": 20.508706, "lng": -100.841939
},{
"label": "Granja Santa Cecilia", "lat": 20.600943, "lng": -100.873213
},{
"label": "Mateo Juárez Mancera", "lat": 20.632848, "lng": -100.801243
},{
"label": "José Cornejo [Las Granjas]", "lat": 20.4573, "lng": -100.755358
},{
"label": "El Sauz (El Sauz de Villaseñor)", "lat": 20.410676, "lng": -100.799073
},{
"label": "Chihuahuita", "lat": 20.596625, "lng": -100.870286
},{
"label": "La Esperanza de Yustis (Los Martínez)", "lat": 20.572359, "lng": -100.865499
},{
"label": "Heladio Aguilar (Quinta de Estrada)", "lat": 20.529663, "lng": -100.857356
},{
"label": "Los Álamos", "lat": 20.375, "lng": -100.771944
},{
"label": "Los Galvanes", "lat": 20.648999, "lng": -100.70969
},{
"label": "Ninguno [Fábrica de Pigmentos]", "lat": 20.537656, "lng": -100.875476
},{
"label": "Las Morenas (Francisco Rubio)", "lat": 20.550595, "lng": -100.882132
},{
"label": "Elías Jáuregui", "lat": 20.580423, "lng": -100.719419
},{
"label": "El Puesto", "lat": 20.469652, "lng": -100.830221
},{
"label": "Fraccionamiento Porta Magiore", "lat": 20.573603, "lng": -100.824524
},{
"label": "Fracción Rancho el Alto", "lat": 20.519167, "lng": -100.771667
},{
"label": "Raymundo Verde", "lat": 20.557167, "lng": -100.792691
},{
"label": "Granja Cuatro Milpas", "lat": 20.508154, "lng": -100.898218
},{
"label": "Silvia [Quinta]", "lat": 20.421736, "lng": -100.785125
},{
"label": "El Vergel [Parque Industrial]", "lat": 20.518772, "lng": -100.885003
},{
"label": "La Soledad [José Arreguín]", "lat": 20.407798, "lng": -100.784851
},{
"label": "Estrada", "lat": 20.529756, "lng": -100.865784
},{
"label": "San Antonio Espinoza", "lat": 20.652738, "lng": -100.794671
},{
"label": "Los Pirules", "lat": 20.504287, "lng": -100.769229
},{
"label": "Rancho el Roble", "lat": 20.527955, "lng": -100.76962
},{
"label": "Granja Vancini", "lat": 20.545758, "lng": -100.901973
},{
"label": "La Concepción (Quinta Fracción)", "lat": 20.626186, "lng": -100.799539
},{
"label": "Bernabé Sandoval de Ramírez", "lat": 20.584204, "lng": -100.87369
},{
"label": "Caja San Miguel", "lat": 20.491183, "lng": -100.779906
},{
"label": "La Guayaba", "lat": 20.532491, "lng": -100.771342
},{
"label": "Granja los Ángeles", "lat": 20.559655, "lng": -100.788088
},{
"label": "San Vicente (Fracción de San Cayetano)", "lat": 20.616464, "lng": -100.821234
},{
"label": "San Judas", "lat": 20.497619, "lng": -100.844794
},{
"label": "San Vicente", "lat": 20.565692, "lng": -100.73547
},{
"label": "Don Eulalio", "lat": 20.511194, "lng": -100.870776
},{
"label": "Caja Santa Ana", "lat": 20.442818, "lng": -100.792209
},{
"label": "El Pozo del Huizachal", "lat": 20.598588, "lng": -100.848451
},{
"label": "Jofre", "lat": 20.473981, "lng": -100.841896
},{
"label": "Sequía de Raya (La Divina Providencia)", "lat": 20.589279, "lng": -100.758594
},{
"label": "Felipe Rodríguez", "lat": 20.615721, "lng": -100.828101
},{
"label": "Universidad de Guanajuato", "lat": 20.492486, "lng": -100.837292
},{
"label": "Cliserio Albañil Mancera", "lat": 20.507222, "lng": -100.840278
},{
"label": "La Cejita", "lat": 20.424781, "lng": -100.797872
},{
"label": "Santiago de la Cruz", "lat": 20.497061, "lng": -100.835459
},{
"label": "Ninguno [Fábrica de Ensamble]", "lat": 20.520278, "lng": -100.861944
},{
"label": "Lorenzo Núñez Ramírez", "lat": 20.503922, "lng": -100.763411
},{
"label": "San Antonio Gallardo", "lat": 20.627475, "lng": -100.767848
},{
"label": "La Concepción Oriente", "lat": 20.614202, "lng": -100.791655
},{
"label": "Arreguín de Abajo", "lat": 20.474544, "lng": -100.83176
},{
"label": "San Juan", "lat": 20.616934, "lng": -100.771924
},{
"label": "La Loma", "lat": 20.426414, "lng": -100.723249
},{
"label": "La Cañita", "lat": 20.58363, "lng": -100.797774
},{
"label": "Rancho Jaime Torres", "lat": 20.653866, "lng": -100.785484
},{
"label": "Ninguno [Fábrica de Alimento para Ganado]", "lat": 20.422644, "lng": -100.790794
},{
"label": "La Luz", "lat": 20.462441, "lng": -100.790106
},{
"label": "La Trinidad (El Rifle)", "lat": 20.617371, "lng": -100.836928
},{
"label": "José Luis Ramírez Cruz", "lat": 20.641827, "lng": -100.778186
},{
"label": "Ex-Hacienda de Elguera (Sandoval)", "lat": 20.574741, "lng": -100.882152
},{
"label": "El Cerrito (Jesús Tierra Blanca)", "lat": 20.573128, "lng": -100.80244
},{
"label": "Ninguno [Guadalupe Martínez Mexicano]", "lat": 20.497163, "lng": -100.840078
},{
"label": "El Tanque", "lat": 20.462394, "lng": -100.706326
},{
"label": "Los Dos Arbolitos (Los Villanueva)", "lat": 20.575053, "lng": -100.75954
},{
"label": "Los Joaquines (Pozo los Joaquines)", "lat": 20.650644, "lng": -100.780709
},{
"label": "Santa Elena Tercera Sección", "lat": 20.613631, "lng": -100.833587
},{
"label": "Granja San Juan", "lat": 20.535656, "lng": -100.87056
},{
"label": "El Salto", "lat": 20.456464, "lng": -100.759876
},{
"label": "El Diamante de la Virgen", "lat": 20.577424, "lng": -100.867343
},{
"label": "Santa Elena Primera Sección", "lat": 20.610141, "lng": -100.84809
},{
"label": "Ninguno [José Juan Arredondo Galván]", "lat": 20.4989, "lng": -100.830758
},{
"label": "Sección Cuatro [Caseta del Canalero]", "lat": 20.624728, "lng": -100.801029
},{
"label": "El Carrizo", "lat": 20.526204, "lng": -100.769745
},{
"label": "Isidro Rosiles Salomón", "lat": 20.575141, "lng": -100.862348
},{
"label": "Fortino Martínez Martínez (Pozo Diez)", "lat": 20.622976, "lng": -100.787307
},{
"label": "Las Palmas [Colonia]", "lat": 20.464334, "lng": -100.812846
},{
"label": "El Monte", "lat": 20.500114, "lng": -100.872469
},{
"label": "La Trinidad (Las Granjas)", "lat": 20.556639, "lng": -100.777047
},{
"label": "La Caja", "lat": 20.607002, "lng": -100.806463
},{
"label": "Granja el Monte [Fábrica de Muelles]", "lat": 20.501425, "lng": -100.842637
},{
"label": "El Capulín (Francisco Javier González)", "lat": 20.587859, "lng": -100.751815
},{
"label": "Pablo Pérez Espinoza", "lat": 20.633871, "lng": -100.740565
},{
"label": "Los Ramírez (Los Centeno)", "lat": 20.495006, "lng": -100.79485
},{
"label": "San Isidro del Palmar", "lat": 20.386111, "lng": -100.773611
},{
"label": "Condominio Campestre las Huertas", "lat": 20.369379, "lng": -100.810024
},{
"label": "Fracción San Cayetano (La Alberca)", "lat": 20.532988, "lng": -100.765466
},{
"label": "Roque (ITA)", "lat": 20.579445, "lng": -100.826901
},{
"label": "Las Jacarandas", "lat": 20.518163, "lng": -100.771566
},{
"label": "Universidad Tecnológica Laja Bajío", "lat": 20.447933, "lng": -100.812231
},{
"label": "Primera Fracción de Crespo (El Tanque)", "lat": 20.507364, "lng": -100.843362
},{
"label": "Número Dos [Granja Porcina]", "lat": 20.473333, "lng": -100.769722
},{
"label": "La Ahogada", "lat": 20.424622, "lng": -100.739895
},{
"label": "Colonia Luis Donaldo Colosio", "lat": 20.566621, "lng": -100.765345
},{
"label": "El Colorado", "lat": 20.5466, "lng": -100.758893
},{
"label": "Palmas [Quinta]", "lat": 20.414458, "lng": -100.790617
},{
"label": "San Isidro de la Concepción", "lat": 20.628459, "lng": -100.785123
},{
"label": "Hacienda San Cayetano", "lat": 20.602642, "lng": -100.823977
},{
"label": "Gabino Gámez León", "lat": 20.598091, "lng": -100.782551
},{
"label": "Caja Yerena", "lat": 20.500263, "lng": -100.865692
},{
"label": "Celaya Norte [Parque Industrial]", "lat": 20.625608, "lng": -100.792172
},{
"label": "Pozo Ejido Elguera", "lat": 20.561613, "lng": -100.869958
},{
"label": "Las Cajitas (Los Puentes)", "lat": 20.643286, "lng": -100.752594
},{
"label": "Granja Santa Rosa", "lat": 20.608367, "lng": -100.812614
},{
"label": "San Isidro de Trojes", "lat": 20.5098, "lng": -100.776762
},{
"label": "Trinidad López", "lat": 20.618976, "lng": -100.784298
},{
"label": "Ninguno [Recicladora de Refrigeradores]", "lat": 20.449283, "lng": -100.804433
},{
"label": "José Ramírez Sánchez", "lat": 20.605761, "lng": -100.771605
},{
"label": "Tío Pepe", "lat": 20.395499, "lng": -100.793468
},{
"label": "Ninguno [Don Santiago]", "lat": 20.452261, "lng": -100.808725
},{
"label": "Fraccionamiento el Álamo", "lat": 20.553408, "lng": -100.903294
},{
"label": "La Máquina", "lat": 20.472326, "lng": -100.803987
},{
"label": "Número 24 [Granja Avícola]", "lat": 20.54072, "lng": -100.76561
},{
"label": "Granja el Vergel", "lat": 20.52755, "lng": -100.886311
},{
"label": "Santa Anita", "lat": 20.470881, "lng": -100.812412
},{
"label": "Monte Grande", "lat": 20.470109, "lng": -100.785764
},{
"label": "Rincón de Tamayo", "lat": 20.42317, "lng": -100.754951
},{
"label": "Caja del Chino", "lat": 20.488739, "lng": -100.787911
},{
"label": "Camino a Presa Blanca 1400", "lat": 20.639322, "lng": -100.785097
},{
"label": "San José de la Presa", "lat": 20.611377, "lng": -100.751605
},{
"label": "Granja el Becerrito", "lat": 20.546424, "lng": -100.871619
},{
"label": "La Liebre", "lat": 20.568238, "lng": -100.907051
},{
"label": "J. Concepción Valencia", "lat": 20.605023, "lng": -100.822511
},{
"label": "Camino Real", "lat": 20.3675, "lng": -100.783611
},{
"label": "Tecnológico de Monterrey", "lat": 20.548337, "lng": -100.883958
},{
"label": "La Aurora", "lat": 20.627417, "lng": -100.757782
},{
"label": "Granja Santa Ana (Galeazzi)", "lat": 20.540861, "lng": -100.897991
},{
"label": "San Fernando (El Zapote)", "lat": 20.605933, "lng": -100.868053
},{
"label": "Colonia Pedro María Anaya", "lat": 20.527699, "lng": -100.875557
},{
"label": "Aureliano García", "lat": 20.603611, "lng": -100.740556
},{
"label": "La Escondida (Los Eucaliptos)", "lat": 20.413888, "lng": -100.766985
},{
"label": "Granja Melo", "lat": 20.545699, "lng": -100.898341
},{
"label": "Bordo Mocho (Los Robertos)", "lat": 20.655449, "lng": -100.780214
},{
"label": "Celso Viviano", "lat": 20.634605, "lng": -100.780504
},{
"label": "Francisco Montoya Rodríguez", "lat": 20.455445, "lng": -100.753719
},{
"label": "Las Pulgas", "lat": 20.633278, "lng": -100.662191
},{
"label": "Ninguno [Autopartes Jorge Antonio Maldonado]", "lat": 20.427911, "lng": -100.794281
},{
"label": "Celaya", "lat": 20.521524, "lng": -100.813573
},{
"label": "Caja los Atravesaños", "lat": 20.4946, "lng": -100.786083
},{
"label": "La Palmita (La Palmita de San Gabriel)", "lat": 20.496526, "lng": -100.876014
},{
"label": "Granja el Arroyo (Juan Arreguín)", "lat": 20.535164, "lng": -100.870328
},{
"label": "Ninguno [Central de Abastos]", "lat": 20.401598, "lng": -100.791429
},{
"label": "Monte Blanco [José Romero]", "lat": 20.498842, "lng": -100.828156
},{
"label": "Ex-Hacienda de Santa Rita (Pacífico Fernández)", "lat": 20.581176, "lng": -100.780912
},{
"label": "Joaquín Aguilera Baeza", "lat": 20.649797, "lng": -100.806073
},{
"label": "Ninguno [Complejo Industrial]", "lat": 20.513953, "lng": -100.894539
},{
"label": "César Trejo Quintanero", "lat": 20.629855, "lng": -100.740651
},{
"label": "El Romeral", "lat": 20.514671, "lng": -100.772803
},{
"label": "Juan Martín", "lat": 20.468766, "lng": -100.748891
},{
"label": "Alex Ranch", "lat": 20.644108, "lng": -100.770793
},{
"label": "Los Martínez (Los Pinos)", "lat": 20.517045, "lng": -100.764702
},{
"label": "Fraccionamiento las Huertas", "lat": 20.525472, "lng": -100.875896
},{
"label": "Ninguno [Antonio Orduño]", "lat": 20.440369, "lng": -100.811289
},{
"label": "Cerro Blanco", "lat": 20.395326, "lng": -100.779719
},{
"label": "Los Dolores", "lat": 20.539283, "lng": -100.763201
},{
"label": "Ninguno [Fábrica de Artesanías]", "lat": 20.399722, "lng": -100.7875
},{
"label": "Ninguno [Planta de Concretos]", "lat": 20.539055, "lng": -100.863366
},{
"label": "Ninguno [Pozo de Don Raúl Romero]", "lat": 20.449647, "lng": -100.824328
},{
"label": "San Antonio de Guadalupe", "lat": 20.653116, "lng": -100.747736
},{
"label": "Rancho la Capilla (Floriberto Trejo)", "lat": 20.406525, "lng": -100.75294
},{
"label": "Los Aguirre", "lat": 20.610186, "lng": -100.880046
},{
"label": "Buena Opción [Parque Industrial]", "lat": 20.516425, "lng": -100.902603
},{
"label": "Colonia los Pirules de Trojes", "lat": 20.507186, "lng": -100.769077
},{
"label": "El Magueyal (Los Mendoza)", "lat": 20.534091, "lng": -100.770927
},{
"label": "Gonzalo Patiño", "lat": 20.536858, "lng": -100.768612
},{
"label": "Ninguno [Club Hípico]", "lat": 20.370391, "lng": -100.801112
},{
"label": "La Tarasca", "lat": 20.564283, "lng": -100.794784
},{
"label": "Los Martínez (Romualdo y Concepción)", "lat": 20.595457, "lng": -100.801431
},{
"label": "Pedro Hernández Pintor", "lat": 20.57, "lng": -100.793889
},{
"label": "Agua Caliente", "lat": 20.554397, "lng": -100.740642
},{
"label": "La Laja", "lat": 20.529589, "lng": -100.762553
},{
"label": "Número 37 [Granja Avícola]", "lat": 20.550681, "lng": -100.765194
},{
"label": "Los Mancera", "lat": 20.470042, "lng": -100.802339
},{
"label": "San José (La Huerta)", "lat": 20.368663, "lng": -100.795501
},{
"label": "Ninguno [Fábrica de Quesos]", "lat": 20.515914, "lng": -100.772428
},{
"label": "El Cazador [Lienzo Charro Emiliano Zapata]", "lat": 20.450899, "lng": -100.803363
},{
"label": "Javier Gasca Rodríguez", "lat": 20.586144, "lng": -100.860282
},{
"label": "San Antonio Mujica", "lat": 20.598389, "lng": -100.77657
},{
"label": "Fracción San Nicolás", "lat": 20.66842, "lng": -100.780548
},{
"label": "Relleno las Tinajitas", "lat": 20.511054, "lng": -100.904134
},{
"label": "Ninguno [Camino a Plancarte Casa Uno]", "lat": 20.575323, "lng": -100.799883
},{
"label": "Martín Robles Fuentes", "lat": 20.652293, "lng": -100.750647
},{
"label": "Granja Francisco Villa (Francisco Méndez)", "lat": 20.37477, "lng": -100.784132
},{
"label": "San Miguel Octopan", "lat": 20.573537, "lng": -100.749026
},{
"label": "El Pensamiento", "lat": 20.602296, "lng": -100.873767
},{
"label": "Villas de Santa Rita", "lat": 20.461982, "lng": -100.815625
},{
"label": "Entrada Group [Campus Industrial]", "lat": 20.363561, "lng": -100.800464
},{
"label": "Las Margaritas Tres", "lat": 20.611694, "lng": -100.821486
},{
"label": "San Lorenzo", "lat": 20.465952, "lng": -100.719142
},{
"label": "Granja las Palomas", "lat": 20.558675, "lng": -100.868169
},{
"label": "Número 62 [Granja Avícola]", "lat": 20.554495, "lng": -100.776726
},{
"label": "Villas de Elguera [Fraccionamiento]", "lat": 20.565335, "lng": -100.877909
},{
"label": "Arturo Aguirre Vázquez", "lat": 20.622362, "lng": -100.777951
},{
"label": "Colonia Benito Juárez", "lat": 20.518992, "lng": -100.866667
},{
"label": "Las Arenas", "lat": 20.603059, "lng": -100.758587
},{
"label": "Manuel Sánchez Arreguín", "lat": 20.663204, "lng": -100.791245
},{
"label": "Ninguno [Alberto Triana García]", "lat": 20.488853, "lng": -100.839483
},{
"label": "Cuarta Fracción Ex-Hacienda de Silva", "lat": 20.543713, "lng": -100.778166
},{
"label": "Los Huesos", "lat": 20.387074, "lng": -100.736833
},{
"label": "Amistad Celaya Sur [Parque Industrial]", "lat": 20.406997, "lng": -100.791317
},{
"label": "Presa Blanca", "lat": 20.642486, "lng": -100.792331
},{
"label": "El Semental [Salvador Ramírez]", "lat": 20.456697, "lng": -100.803989
},{
"label": "Valle de los Reyes", "lat": 20.566992, "lng": -100.801284
},{
"label": "Número 21 [Granja Avícola]", "lat": 20.535902, "lng": -100.866694
},{
"label": "Granja el Jazmín", "lat": 20.527648, "lng": -100.882194
},{
"label": "San Elías", "lat": 20.633421, "lng": -100.841798
},{
"label": "Rancho Santa Elena", "lat": 20.526675, "lng": -100.879059
},{
"label": "Miguel Ángel Rodríguez (Colonia Santa Isabel)", "lat": 20.503319, "lng": -100.821194
},{
"label": "Ninguno [Hielera]", "lat": 20.515228, "lng": -100.904352
},{
"label": "Ninguno [Balneario]", "lat": 20.463738, "lng": -100.805286
},{
"label": "Fraccionamiento Parque Tabachines", "lat": 20.529167, "lng": -100.8625
},{
"label": "Banda", "lat": 20.549286, "lng": -100.761226
},{
"label": "El Pasamano (María de Jesús Romero)", "lat": 20.569167, "lng": -100.910278
},{
"label": "La Recibidora", "lat": 20.599271, "lng": -100.813771
},{
"label": "Plancarte", "lat": 20.586196, "lng": -100.796698
},{
"label": "La Esmeralda", "lat": 20.582273, "lng": -100.815483
},{
"label": "Granja de Rayas", "lat": 20.596521, "lng": -100.762591
},{
"label": "El Rosario [Baños]", "lat": 20.451967, "lng": -100.801358
},{
"label": "Rancho la Vega", "lat": 20.647807, "lng": -100.762081
},{
"label": "Ranchito San Luis Rey (Vicente Villanueva)", "lat": 20.601124, "lng": -100.752779
},{
"label": "Granja Gámez (Apolonio Gámez)", "lat": 20.614367, "lng": -100.800932
},{
"label": "Benito Juárez", "lat": 20.613667, "lng": -100.831561
},{
"label": "Los Cucús", "lat": 20.525, "lng": -100.861111
},{
"label": "Próximo Elguera (El Llano)", "lat": 20.574513, "lng": -100.889505
},{
"label": "El Marqués Celaya [Parque Industrial]", "lat": 20.423497, "lng": -100.785739
},{
"label": "Partidas (San Juan de Partidas)", "lat": 20.460833, "lng": -100.806944
},{
"label": "San Juan de la Vega", "lat": 20.624128, "lng": -100.76101
},{
"label": "Serafín Rivera", "lat": 20.565574, "lng": -100.79814
},{
"label": "El Becerro (Santos Degollado)", "lat": 20.545204, "lng": -100.85424
},{
"label": "Gran Hacienda (Granja Eréndira)", "lat": 20.553156, "lng": -100.866941
},{
"label": "El Alto", "lat": 20.523379, "lng": -100.765816
},{
"label": "Socorro León (El Llano)", "lat": 20.571669, "lng": -100.896905
},{
"label": "Segunda Fracción de San José (José Aizcorbe)", "lat": 20.565558, "lng": -100.895967
},{
"label": "San Francisco [Granja]", "lat": 20.622531, "lng": -100.811247
},{
"label": "Villamalí", "lat": 20.461516, "lng": -100.821218
},{
"label": "José Martínez (Cuarta Fracción la Concepción)", "lat": 20.618604, "lng": -100.780369
},{
"label": "La Begoña", "lat": 20.639016, "lng": -100.751072
},{
"label": "Santa María del Refugio", "lat": 20.441639, "lng": -100.799698
},{
"label": "Bellavista [Fraccionamiento]", "lat": 20.434481, "lng": -100.804494
},{
"label": "Los Rosales", "lat": 20.575281, "lng": -100.849002
},{
"label": "Fraccionamiento San Lorenzo", "lat": 20.520875, "lng": -100.76741
},{
"label": "CEDEI", "lat": 20.520319, "lng": -100.870707
},{
"label": "La Granja", "lat": 20.466389, "lng": -100.805278
},{
"label": "Colonia Patria Nueva", "lat": 20.52875, "lng": -100.878358
},{
"label": "Las Coloradas", "lat": 20.429321, "lng": -100.775043
},{
"label": "La Purísima", "lat": 20.416083, "lng": -100.764833
},{
"label": "Pelavacas (Los Pinos)", "lat": 20.493936, "lng": -100.750993
},{
"label": "Los Elías (El Llano)", "lat": 20.660986, "lng": -100.785458
},{
"label": "El Cuije", "lat": 20.471667, "lng": -100.789722
},{
"label": "Sergio Aranda de la Parra", "lat": 20.592222, "lng": -100.768333
},{
"label": "San Francisco [Colonia]", "lat": 20.455767, "lng": -100.803147
},{
"label": "El Mezquite Gordo", "lat": 20.506028, "lng": -100.772833
},{
"label": "Los Tres Puentes", "lat": 20.661769, "lng": -100.77931
},{
"label": "Jesús Miranda Serrano", "lat": 20.61112, "lng": -100.825737
},{
"label": "Los Arcos (Sergio Prieto Rodríguez)", "lat": 20.5699, "lng": -100.793872
},{
"label": "Rancho San José de Ojo Seco (Plácido Patiño)", "lat": 20.365376, "lng": -100.787319
},{
"label": "Ninguno [Taller Mecánico Cesar Luna]", "lat": 20.423289, "lng": -100.793047
},{
"label": "Pozo de Morales", "lat": 20.580299, "lng": -100.712023
},{
"label": "San José de Mendoza", "lat": 20.610172, "lng": -100.771507
},{
"label": "La Bienvenida", "lat": 20.627456, "lng": -100.774976
},{
"label": "Celaya [Aeropuerto]", "lat": 20.545301, "lng": -100.887379
},{
"label": "La Palapa", "lat": 20.437653, "lng": -100.817047
},{
"label": "Segunda Fracción de Crespo (Alto del Parral)", "lat": 20.526507, "lng": -100.887115
},{
"label": "Ninguno [Planta Beneficiadora]", "lat": 20.515161, "lng": -100.907344
},{
"label": "Los Sauces [Salvador González Martínez]", "lat": 20.410303, "lng": -100.788744
},{
"label": "Charcas", "lat": 20.586558, "lng": -100.781038
},{
"label": "Julio Flores Álvarez (Cuarta Fracción)", "lat": 20.624751, "lng": -100.792774
},{
"label": "Ejido de Silva (San Isidro)", "lat": 20.566351, "lng": -100.835459
},{
"label": "Granja las Carmelitas", "lat": 20.54366, "lng": -100.904791
},{
"label": "Granja las Maravillas", "lat": 20.537202, "lng": -100.879042
},{
"label": "Tepetates", "lat": 20.489756, "lng": -100.761219
},{
"label": "Ninguno [Elaboradora de Lácteos]", "lat": 20.632987, "lng": -100.786252
},{
"label": "Las Doce Cruces", "lat": 20.576565, "lng": -100.844958
},{
"label": "Roberto Cabrera Luna", "lat": 20.598328, "lng": -100.848096
},{
"label": "Santa Rosa de Lima", "lat": 20.391723, "lng": -100.726932
},{
"label": "Colonia Fraccionamiento el Puente", "lat": 20.525985, "lng": -100.895897
},{
"label": "Roque", "lat": 20.581749, "lng": -100.83824
},{
"label": "Caja la Recibidora [Rubén Rodríguez]", "lat": 20.496767, "lng": -100.825661
}]