[{
"label": "Antonio Camarillo (El Siete)", "lat": 20.340283, "lng": -101.519906
},{
"label": "Jarrillas", "lat": 20.347959, "lng": -101.501606
},{
"label": "San Antonio de Eguía (El Ranchito)", "lat": 20.33968, "lng": -101.445399
},{
"label": "San Cristóbal de Ayala", "lat": 20.3327, "lng": -101.476669
},{
"label": "Rancho de Guadalupe (El Gato)", "lat": 20.345282, "lng": -101.560654
},{
"label": "San Juan Grande", "lat": 20.376068, "lng": -101.527613
},{
"label": "La Granja (La Gata)", "lat": 20.358714, "lng": -101.561908
},{
"label": "Granja el Rosal", "lat": 20.350046, "lng": -101.44399
},{
"label": "El Durazno (El Duraznito)", "lat": 20.329906, "lng": -101.560786
},{
"label": "San José de Ayala", "lat": 20.387217, "lng": -101.438034
},{
"label": "La Tinaja", "lat": 20.388517, "lng": -101.475694
},{
"label": "Granja de los Vargas", "lat": 20.352906, "lng": -101.519031
},{
"label": "Cora", "lat": 20.331146, "lng": -101.465891
},{
"label": "San Cristóbal", "lat": 20.396533, "lng": -101.431496
},{
"label": "Ramón García", "lat": 20.373428, "lng": -101.483084
},{
"label": "Zapotito de Mancilla", "lat": 20.334313, "lng": -101.553255
},{
"label": "Granja San Antonio", "lat": 20.371693, "lng": -101.554897
},{
"label": "Cerrito de Aguirre", "lat": 20.331726, "lng": -101.545593
},{
"label": "Granja la Loma", "lat": 20.375349, "lng": -101.548302
},{
"label": "Granja Beatriz", "lat": 20.36073, "lng": -101.487773
},{
"label": "Jesús Sánchez Zárate (La Desmayada)", "lat": 20.314687, "lng": -101.498406
},{
"label": "Huanímaro [Agroservicios]", "lat": 20.367746, "lng": -101.522108
},{
"label": "Huanímaro", "lat": 20.368274, "lng": -101.496867
},{
"label": "La Lobera (El Riñón)", "lat": 20.358952, "lng": -101.540585
},{
"label": "San Ramón", "lat": 20.357402, "lng": -101.448929
},{
"label": "Paso de Cobos", "lat": 20.330066, "lng": -101.484105
},{
"label": "Álvaro García", "lat": 20.347841, "lng": -101.519463
},{
"label": "Granja Jaime Zavala", "lat": 20.360542, "lng": -101.512131
},{
"label": "Joroches (Joroches Viejo)", "lat": 20.321028, "lng": -101.513873
},{
"label": "Paso de Carretas", "lat": 20.387201, "lng": -101.413981
},{
"label": "Los Otates", "lat": 20.400187, "lng": -101.480385
},{
"label": "Zapote de Aguirre", "lat": 20.331974, "lng": -101.531441
},{
"label": "Granja de los Chacón", "lat": 20.362018, "lng": -101.517041
},{
"label": "Granja Carmelitas", "lat": 20.382224, "lng": -101.462394
},{
"label": "Pablo Sierra Martínez", "lat": 20.351559, "lng": -101.504977
},{
"label": "Granja Miguel Arriaga", "lat": 20.362749, "lng": -101.484502
},{
"label": "San Antonio Buenavista", "lat": 20.379001, "lng": -101.557906
},{
"label": "Monte Blanco", "lat": 20.353772, "lng": -101.528337
},{
"label": "Las Cuevitas", "lat": 20.377704, "lng": -101.503061
},{
"label": "Cerrito Alto Viejo", "lat": 20.324558, "lng": -101.489236
},{
"label": "La Cantera", "lat": 20.405005, "lng": -101.438145
},{
"label": "Colonia de Armenta", "lat": 20.336929, "lng": -101.560859
},{
"label": "Joroches (Joroches Nuevo)", "lat": 20.328877, "lng": -101.509183
},{
"label": "Granja Aurelio Morales", "lat": 20.367227, "lng": -101.482823
},{
"label": "Carmen Rodríguez", "lat": 20.367354, "lng": -101.518478
},{
"label": "Grano de Oro", "lat": 20.326919, "lng": -101.461229
},{
"label": "Cerrito Alto Nuevo", "lat": 20.337756, "lng": -101.496887
},{
"label": "Loma Bonita", "lat": 20.356598, "lng": -101.481732
},{
"label": "Ojos de Agua", "lat": 20.392363, "lng": -101.573981
},{
"label": "Colonia Rafael García", "lat": 20.401922, "lng": -101.436626
},{
"label": "Granja la Joya", "lat": 20.348432, "lng": -101.488386
},{
"label": "Copales", "lat": 20.381789, "lng": -101.562292
},{
"label": "San Isidro de Ayala", "lat": 20.369235, "lng": -101.447154
}]