[{
"label": "Cristo Rey", "lat": 21.06736, "lng": -101.63934
},{
"label": "San Pedro Dos [Granja Avícola]", "lat": 21.033754, "lng": -101.696588
},{
"label": "Zamora", "lat": 21.076914, "lng": -101.55524
},{
"label": "El Tajo", "lat": 20.980107, "lng": -101.598313
},{
"label": "Granja Mayo", "lat": 21.080645, "lng": -101.571958
},{
"label": "Las Palomas (Rogelio Hernández)", "lat": 21.011637, "lng": -101.672696
},{
"label": "La Noria", "lat": 21.179046, "lng": -101.732777
},{
"label": "La Tambora", "lat": 21.213601, "lng": -101.72883
},{
"label": "El Centenario (David Moreno)", "lat": 21.017062, "lng": -101.733954
},{
"label": "Lomas del Suspiro", "lat": 21.027946, "lng": -101.552516
},{
"label": "La Querencia", "lat": 21.168947, "lng": -101.740833
},{
"label": "San Francisco (La Divina Providencia)", "lat": 21.217066, "lng": -101.705906
},{
"label": "Tres Marías", "lat": 21.024284, "lng": -101.664992
},{
"label": "Granja Arca de Noé", "lat": 21.034847, "lng": -101.693635
},{
"label": "Puerto del Aire", "lat": 21.209695, "lng": -101.489647
},{
"label": "Rancho los Sauces (La Huerta)", "lat": 21.191361, "lng": -101.434171
},{
"label": "Valle de Aránzazu", "lat": 21.031728, "lng": -101.543142
},{
"label": "Nuevo Lindero", "lat": 20.958874, "lng": -101.638436
},{
"label": "La Manga de los Novillos", "lat": 20.937988, "lng": -101.651262
},{
"label": "Terralta [Fraccionamiento]", "lat": 21.201717, "lng": -101.754086
},{
"label": "Santa Rosa de Lima (Ojo de Agua)", "lat": 21.146412, "lng": -101.493003
},{
"label": "Santa Elena de la Cruz (El Ranchito)", "lat": 21.105688, "lng": -101.804218
},{
"label": "San Antonio del Gigante", "lat": 21.171426, "lng": -101.567883
},{
"label": "Granja Vega", "lat": 21.053343, "lng": -101.70601
},{
"label": "Mesa de Borregos", "lat": 21.317463, "lng": -101.627152
},{
"label": "Ninguno", "lat": 21.194444, "lng": -101.751389
},{
"label": "Rosita (Ma. Trinidad Ortíz)", "lat": 21.055373, "lng": -101.711677
},{
"label": "Fraccionamiento Paraíso Real", "lat": 21.112155, "lng": -101.582756
},{
"label": "Duarte", "lat": 21.086682, "lng": -101.521503
},{
"label": "El Huizache", "lat": 21.244768, "lng": -101.586934
},{
"label": "Granja Flor de Azalea", "lat": 21.064775, "lng": -101.659889
},{
"label": "Campo Verde", "lat": 21.065643, "lng": -101.531001
},{
"label": "Lomas de Comanjilla", "lat": 21.033809, "lng": -101.538188
},{
"label": "Espíritu Santo [Granja]", "lat": 21.201222, "lng": -101.757142
},{
"label": "Rancho de Don Alberto García", "lat": 21.092396, "lng": -101.588411
},{
"label": "Los Gallinos (Ejido Duarte)", "lat": 21.079848, "lng": -101.521234
},{
"label": "Los Salazares", "lat": 21.007419, "lng": -101.659959
},{
"label": "Piedra Blanca", "lat": 21.074107, "lng": -101.753978
},{
"label": "Álvaro Obregón (Santa Ana del Conde)", "lat": 20.959144, "lng": -101.577859
},{
"label": "Noria de Septién (San José de San Juan)", "lat": 21.06239, "lng": -101.642641
},{
"label": "María del Refugio", "lat": 21.01526, "lng": -101.722492
},{
"label": "Agua Zarca", "lat": 21.250141, "lng": -101.578953
},{
"label": "Hacienda Valbuena [Fraccionamiento]", "lat": 21.188028, "lng": -101.747744
},{
"label": "Estancia de Vaqueros", "lat": 21.060255, "lng": -101.759648
},{
"label": "Fraccionamiento el Pato (Loma del Laurel)", "lat": 21.177625, "lng": -101.746437
},{
"label": "Familia Rizo Tejeda", "lat": 21.043049, "lng": -101.516296
},{
"label": "Villa Seca", "lat": 21.279136, "lng": -101.65389
},{
"label": "Plan de Ayala (Santa Rosa)", "lat": 21.070287, "lng": -101.725811
},{
"label": "Seminario Conciliar de León", "lat": 21.061611, "lng": -101.71368
},{
"label": "La Manga", "lat": 21.058819, "lng": -101.557096
},{
"label": "Mayan", "lat": 21.02503, "lng": -101.770792
},{
"label": "Piedras Lisas", "lat": 21.156134, "lng": -101.559309
},{
"label": "La Correa (San Antonio del Monte)", "lat": 21.020598, "lng": -101.696318
},{
"label": "San Juan de Abajo", "lat": 21.057648, "lng": -101.636441
},{
"label": "Los Álamos (Rincón de Patiño)", "lat": 21.04049, "lng": -101.522211
},{
"label": "El Tajo (Carlos Muñoz Horta)", "lat": 21.021619, "lng": -101.620058
},{
"label": "Los Lazos", "lat": 21.176634, "lng": -101.497591
},{
"label": "Fracción Nuevo Lindero", "lat": 20.949712, "lng": -101.656993
},{
"label": "Loma Alta", "lat": 21.092858, "lng": -101.802704
},{
"label": "El Tecuán", "lat": 21.093056, "lng": -101.5175
},{
"label": "El Llano", "lat": 21.083761, "lng": -101.489596
},{
"label": "Fraccionamiento los Laureles", "lat": 21.185241, "lng": -101.75681
},{
"label": "Granja Santa Teresita (José Segoviano)", "lat": 21.058701, "lng": -101.7026
},{
"label": "Colonia Vista Aero", "lat": 21.208899, "lng": -101.667211
},{
"label": "Las Tablas (León)", "lat": 20.953102, "lng": -101.705695
},{
"label": "Lucita (Alfredo Mena)", "lat": 21.055818, "lng": -101.715626
},{
"label": "Las Güeras", "lat": 21.126827, "lng": -101.830937
},{
"label": "Villas del Paraíso", "lat": 21.090278, "lng": -101.577778
},{
"label": "Rancho Nuevo de la Venta", "lat": 21.080196, "lng": -101.786632
},{
"label": "Las Pilas", "lat": 21.116777, "lng": -101.521569
},{
"label": "Granja el Carmen", "lat": 21.020045, "lng": -101.665177
},{
"label": "Los Charcos", "lat": 21.176254, "lng": -101.578343
},{
"label": "Los Olivos (El Nuevo Paraíso)", "lat": 21.028779, "lng": -101.523062
},{
"label": "La Angostura", "lat": 21.143446, "lng": -101.522792
},{
"label": "La Negrita", "lat": 21.055228, "lng": -101.616511
},{
"label": "Rinconada de Ibarrilla", "lat": 21.184858, "lng": -101.640586
},{
"label": "Los Pinos (Valente Durán González)", "lat": 21.192888, "lng": -101.749134
},{
"label": "La Falda del Picacho (El Arroyo de la Mora)", "lat": 21.098509, "lng": -101.518039
},{
"label": "Las Tablas de Santa Rosa (Ignacio González)", "lat": 21.062475, "lng": -101.732199
},{
"label": "Monte de San Juan (San Diego)", "lat": 21.044179, "lng": -101.775993
},{
"label": "Rancho Avelín", "lat": 21.163685, "lng": -101.779599
},{
"label": "Carretera León-Duarte Kilómetro Nueve", "lat": 21.092222, "lng": -101.532778
},{
"label": "Puerta de San Germán (Morelos)", "lat": 21.033351, "lng": -101.780463
},{
"label": "El Ramillete", "lat": 21.038433, "lng": -101.768775
},{
"label": "Colonia de los Sauces", "lat": 21.024662, "lng": -101.545243
},{
"label": "Lucio Blanco (Los Gavilanes)", "lat": 21.114244, "lng": -101.556038
},{
"label": "Granja Guadalupe los Pinos", "lat": 21.023333, "lng": -101.656111
},{
"label": "La Presita", "lat": 21.019007, "lng": -101.73836
},{
"label": "Granja Santa Anita (Los Mena)", "lat": 20.981852, "lng": -101.616158
},{
"label": "Granja San José de Barrón", "lat": 21.025413, "lng": -101.624681
},{
"label": "Los Alcatraces", "lat": 20.949192, "lng": -101.599314
},{
"label": "El Puente", "lat": 21.033326, "lng": -101.71158
},{
"label": "Camino a Cortijos de la Gloria (María Reyes)", "lat": 21.085628, "lng": -101.75952
},{
"label": "El Lobo", "lat": 21.17044, "lng": -101.434715
},{
"label": "Ex-Hacienda el Xoconoxtle", "lat": 21.063771, "lng": -101.63363
},{
"label": "Granja San Gabriel", "lat": 21.055215, "lng": -101.695548
},{
"label": "Colonia Zarcihuiles", "lat": 21.208516, "lng": -101.664966
},{
"label": "Gertrudis (Santa Tula)", "lat": 21.061224, "lng": -101.604179
},{
"label": "El Chepinque", "lat": 21.196706, "lng": -101.661236
},{
"label": "Predio Albarradones", "lat": 21.051179, "lng": -101.505913
},{
"label": "El Divisadero", "lat": 21.124417, "lng": -101.763338
},{
"label": "San Martín (Camilo Macías García)", "lat": 21.026296, "lng": -101.760887
},{
"label": "Granja Misericordia", "lat": 21.024117, "lng": -101.661359
},{
"label": "San Jorge", "lat": 21.215153, "lng": -101.615063
},{
"label": "Granja Santa Ana", "lat": 21.024006, "lng": -101.576078
},{
"label": "Vista Hermosa", "lat": 21.053514, "lng": -101.689498
},{
"label": "San Roberto (Rodrigo Elías Orozco)", "lat": 21.033611, "lng": -101.721111
},{
"label": "Lomas de la Paz", "lat": 21.120986, "lng": -101.735378
},{
"label": "Los Nogales", "lat": 21.032998, "lng": -101.659564
},{
"label": "Granja los Girasoles", "lat": 21.205833, "lng": -101.760278
},{
"label": "Capellanía de San Sebastián", "lat": 21.033926, "lng": -101.636631
},{
"label": "San José del Consuelo (La Envidia)", "lat": 21.011944, "lng": -101.690236
},{
"label": "Estancia de Medina", "lat": 21.193804, "lng": -101.600616
},{
"label": "La Luz (El Copete)", "lat": 21.047553, "lng": -101.530338
},{
"label": "Las Limas (Granjas la Flor)", "lat": 21.076309, "lng": -101.489026
},{
"label": "El Penitente", "lat": 21.180941, "lng": -101.637995
},{
"label": "Miguel Hidalgo Dos (El Bordo)", "lat": 20.935341, "lng": -101.661192
},{
"label": "El CERESO", "lat": 21.022383, "lng": -101.689521
},{
"label": "San Pedro Uno [Granja Avícola]", "lat": 21.047748, "lng": -101.70778
},{
"label": "Rocha (Mineral de la Luz)", "lat": 21.046381, "lng": -101.519509
},{
"label": "Rancho Nuevo del Maguey", "lat": 20.948977, "lng": -101.689146
},{
"label": "El Vergel", "lat": 21.072938, "lng": -101.689643
},{
"label": "El Lindero Viejo", "lat": 20.924064, "lng": -101.717374
},{
"label": "Granja el Diamante", "lat": 21.051892, "lng": -101.689399
},{
"label": "La Mora", "lat": 21.067525, "lng": -101.76502
},{
"label": "La Cruz", "lat": 21.246004, "lng": -101.67584
},{
"label": "El Progreso", "lat": 21.106964, "lng": -101.785616
},{
"label": "Rincón Verde", "lat": 21.223234, "lng": -101.552671
},{
"label": "Epazote", "lat": 21.236409, "lng": -101.597615
},{
"label": "San Nicolás de los González", "lat": 21.118256, "lng": -101.582924
},{
"label": "Rancho el Rodeo", "lat": 21.242896, "lng": -101.681763
},{
"label": "La Rosa Amarilla", "lat": 21.086254, "lng": -101.585518
},{
"label": "San Antonio (Blancarte)", "lat": 21.080531, "lng": -101.553999
},{
"label": "Los Afligidos", "lat": 21.321179, "lng": -101.633417
},{
"label": "Granja Guadalupe", "lat": 21.009645, "lng": -101.730074
},{
"label": "Luis Hernández", "lat": 21.012029, "lng": -101.678717
},{
"label": "Loma de la Luz", "lat": 21.027916, "lng": -101.756344
},{
"label": "El Bajío (Emeterio Aguirre)", "lat": 21.035696, "lng": -101.729818
},{
"label": "San Pedro del Monte (Victor Armando Loza)", "lat": 21.055336, "lng": -101.727802
},{
"label": "La Soledad", "lat": 21.179497, "lng": -101.48382
},{
"label": "Presa de Sardeneta", "lat": 21.183824, "lng": -101.632638
},{
"label": "El Encanto", "lat": 21.084129, "lng": -101.574932
},{
"label": "Garabatillo", "lat": 21.213452, "lng": -101.594861
},{
"label": "Los Ramírez", "lat": 21.019194, "lng": -101.644323
},{
"label": "Ignacio Zaragoza", "lat": 21.031602, "lng": -101.507404
},{
"label": "San Isidro de las Colonias", "lat": 21.036483, "lng": -101.722246
},{
"label": "El Tusco", "lat": 21.086764, "lng": -101.564698
},{
"label": "Corral de Piedra", "lat": 21.102453, "lng": -101.776841
},{
"label": "Anzures Dos", "lat": 21.088611, "lng": -101.582778
},{
"label": "Ampliación Ignacio Zaragoza", "lat": 21.036017, "lng": -101.515369
},{
"label": "El Trébol", "lat": 21.055431, "lng": -101.604205
},{
"label": "Entronque a las Coloradas", "lat": 21.081201, "lng": -101.509291
},{
"label": "Kilómetro Ocho [Gasolinera]", "lat": 21.184902, "lng": -101.745106
},{
"label": "Monte Nuevo", "lat": 20.957429, "lng": -101.620566
},{
"label": "Fracción de Capellanía (Basilio Hernández)", "lat": 21.032563, "lng": -101.639074
},{
"label": "La Gloria", "lat": 21.092105, "lng": -101.773582
},{
"label": "Roberto Elizondo", "lat": 21.058401, "lng": -101.624218
},{
"label": "Cipreses", "lat": 21.028809, "lng": -101.542987
},{
"label": "San Antonio del Monte", "lat": 21.07254, "lng": -101.702559
},{
"label": "Eco Parque León", "lat": 21.078314, "lng": -101.709958
},{
"label": "Rancho el Cuije", "lat": 21.024542, "lng": -101.622202
},{
"label": "La Alberca (La Providencia)", "lat": 21.024304, "lng": -101.715573
},{
"label": "José Hernández", "lat": 21.046321, "lng": -101.625898
},{
"label": "La Joya", "lat": 20.982823, "lng": -101.593224
},{
"label": "El Rayo", "lat": 21.205914, "lng": -101.613974
},{
"label": "Granja María Leticia", "lat": 21.188333, "lng": -101.746111
},{
"label": "Media Luna", "lat": 21.232561, "lng": -101.639413
},{
"label": "Sauz Seco", "lat": 21.172293, "lng": -101.542943
},{
"label": "Fraccionamiento Loma Griega", "lat": 21.18719, "lng": -101.736611
},{
"label": "San Jorge (Miguel Fuentes)", "lat": 21.018056, "lng": -101.624444
},{
"label": "Guanajuatito (Guanajuatillo)", "lat": 21.264589, "lng": -101.65649
},{
"label": "Mangas del Presidio", "lat": 21.202172, "lng": -101.683504
},{
"label": "San Pablo del Monte (El Rayo)", "lat": 20.917097, "lng": -101.663506
},{
"label": "Brinco de la Zorra", "lat": 21.260787, "lng": -101.637177
},{
"label": "Granja la Alberca", "lat": 20.966711, "lng": -101.591806
},{
"label": "El Gachupín", "lat": 21.171864, "lng": -101.558265
},{
"label": "Barbosa Dos (El Canelo)", "lat": 21.295553, "lng": -101.630038
},{
"label": "La Huaracha", "lat": 21.047831, "lng": -101.611802
},{
"label": "Granja los Cadengo", "lat": 21.136514, "lng": -101.61179
},{
"label": "Granja Beatriz", "lat": 21.056544, "lng": -101.702425
},{
"label": "Tomasa Tavares", "lat": 21.074617, "lng": -101.724611
},{
"label": "San José de los Sapos (Roberto Meléndez)", "lat": 21.017385, "lng": -101.754626
},{
"label": "El Bajío de la Purísima (Malagana)", "lat": 21.036073, "lng": -101.746532
},{
"label": "Nueva Colonia San Carlos", "lat": 21.04933, "lng": -101.59457
},{
"label": "La Cabaña", "lat": 21.103759, "lng": -101.570229
},{
"label": "Cuatro Estaciones", "lat": 21.202307, "lng": -101.748846
},{
"label": "Nápoles", "lat": 21.016917, "lng": -101.523925
},{
"label": "Los Alisos", "lat": 21.194622, "lng": -101.52932
},{
"label": "San Antonio de Padua", "lat": 21.260264, "lng": -101.717302
},{
"label": "Granja Víctor (Los Tomates)", "lat": 21.046867, "lng": -101.58745
},{
"label": "Ex-Hacienda Valenciana", "lat": 21.102615, "lng": -101.546573
},{
"label": "Cerrito de las Ánimas", "lat": 21.043193, "lng": -101.560708
},{
"label": "El Encinal", "lat": 21.215949, "lng": -101.466917
},{
"label": "Las Higueras", "lat": 21.097428, "lng": -101.550592
},{
"label": "La Guadalupana (La Virgencita)", "lat": 21.063366, "lng": -101.714804
},{
"label": "Cuatro Milpas (Estancia de los Sapos)", "lat": 21.019658, "lng": -101.780734
},{
"label": "Ejido de los López (José Cruz Navarro)", "lat": 21.041094, "lng": -101.579288
},{
"label": "Granja los Laureles", "lat": 21.003075, "lng": -101.578008
},{
"label": "La Tijera (La Loma)", "lat": 21.07218, "lng": -101.738038
},{
"label": "Valle Nuevo", "lat": 21.010466, "lng": -101.699129
},{
"label": "Granja San Juan del Río", "lat": 21.019605, "lng": -101.657831
},{
"label": "Rizos de la Joya (Rizos del Saucillo)", "lat": 21.148984, "lng": -101.761821
},{
"label": "La Estrella (Juan Jiménez)", "lat": 21.005622, "lng": -101.614467
},{
"label": "Guadalupe Victoria", "lat": 21.018909, "lng": -101.579835
},{
"label": "Rancho la Caja (Pino Dos)", "lat": 21.205833, "lng": -101.745833
},{
"label": "Fraccionamiento Buenaventura", "lat": 21.19909, "lng": -101.762164
},{
"label": "Los Sapos (Rancho la Fe)", "lat": 21.011356, "lng": -101.735553
},{
"label": "San Isidro (La Virgencita)", "lat": 21.02668, "lng": -101.707884
},{
"label": "Campo Alegre (Santa Cecilia)", "lat": 21.208516, "lng": -101.763858
},{
"label": "La Calera de los Alisos", "lat": 21.206154, "lng": -101.524166
},{
"label": "Colinas de León I [Parque Industrial]", "lat": 21.108667, "lng": -101.758864
},{
"label": "Granja Genoveva", "lat": 21.010393, "lng": -101.753648
},{
"label": "Granja San Antonio la Luz", "lat": 21.011712, "lng": -101.662142
},{
"label": "Buenos Aires", "lat": 21.260661, "lng": -101.580924
},{
"label": "San Lucas", "lat": 21.088378, "lng": -101.587193
},{
"label": "Los Hernández", "lat": 21.010698, "lng": -101.580675
},{
"label": "Granja el Establo (Cristóbal Macías)", "lat": 21.029767, "lng": -101.769363
},{
"label": "Valle de las Flores", "lat": 21.03471, "lng": -101.708404
},{
"label": "El Edén", "lat": 21.118772, "lng": -101.745799
},{
"label": "Lomas San José de la Joya", "lat": 21.155511, "lng": -101.755346
},{
"label": "El Derramadero", "lat": 21.168079, "lng": -101.416432
},{
"label": "San Antonio", "lat": 21.066121, "lng": -101.561558
},{
"label": "Bajío de Santa Rosa", "lat": 21.042215, "lng": -101.734608
},{
"label": "San José de Otates Sur (Piedras de Coche)", "lat": 21.163035, "lng": -101.497923
},{
"label": "Las Tablas (Los Guerrero)", "lat": 21.063133, "lng": -101.719017
},{
"label": "Granja la Esperanza", "lat": 21.144312, "lng": -101.602634
},{
"label": "La Cieneguita", "lat": 21.066983, "lng": -101.49342
},{
"label": "Lienzo Charro Santa Fe", "lat": 21.054477, "lng": -101.611623
},{
"label": "Medina [Granja]", "lat": 21.147744, "lng": -101.743803
},{
"label": "Las Cabañas del Gigante", "lat": 21.167688, "lng": -101.569211
},{
"label": "El Resplandor (El Chorro)", "lat": 21.000799, "lng": -101.605133
},{
"label": "Rinconada la Esmeralda", "lat": 21.029527, "lng": -101.702345
},{
"label": "La Reserva", "lat": 21.078567, "lng": -101.744419
},{
"label": "Casiano Servín", "lat": 21.01486, "lng": -101.591646
},{
"label": "La Compuertita", "lat": 21.060533, "lng": -101.556539
},{
"label": "Entrada a la Noria", "lat": 21.176169, "lng": -101.738799
},{
"label": "Segoviano", "lat": 21.075898, "lng": -101.694099
},{
"label": "Ninguno [Ex-Escuela de Medicina]", "lat": 21.048428, "lng": -101.699669
},{
"label": "La Conchita", "lat": 21.041194, "lng": -101.589592
},{
"label": "Rancho UBAC (San Miguel Febres Cordero)", "lat": 21.014833, "lng": -101.664456
},{
"label": "Los Camacho", "lat": 21.181579, "lng": -101.497005
},{
"label": "Rancho Nuevo de la Luz (Los Montes)", "lat": 20.957533, "lng": -101.66161
},{
"label": "Granja Chiquita", "lat": 21.18093, "lng": -101.741068
},{
"label": "Quinta Daniela", "lat": 21.149943, "lng": -101.601283
},{
"label": "Roca Alta", "lat": 21.059169, "lng": -101.728309
},{
"label": "Residencial Urbivilla del Roble", "lat": 21.166835, "lng": -101.763333
},{
"label": "Lomita de las Ánimas", "lat": 21.046084, "lng": -101.5649
},{
"label": "Los Gavilanes", "lat": 21.067555, "lng": -101.504392
},{
"label": "Fundiciones", "lat": 21.246432, "lng": -101.556133
},{
"label": "Brisas del Valle", "lat": 20.934219, "lng": -101.713019
},{
"label": "Granja Becerra (El Arenal)", "lat": 21.212533, "lng": -101.704407
},{
"label": "Rancho el Atravesaño", "lat": 21.210473, "lng": -101.704471
},{
"label": "Martha Lira", "lat": 21.010896, "lng": -101.60371
},{
"label": "Santa Ana", "lat": 21.058566, "lng": -101.676871
},{
"label": "Puerto Blanco", "lat": 21.163751, "lng": -101.589948
},{
"label": "Ejido Pompa (Los Valdivia)", "lat": 21.075358, "lng": -101.688101
},{
"label": "Lomas de San Carlos", "lat": 21.082638, "lng": -101.581301
},{
"label": "Estancia de Otates", "lat": 21.158774, "lng": -101.556744
},{
"label": "Granja Lupita", "lat": 21.013561, "lng": -101.752972
},{
"label": "Rancho Betel", "lat": 21.153433, "lng": -101.767766
},{
"label": "Los Jacales (La Loma)", "lat": 21.040224, "lng": -101.544501
},{
"label": "Juan Oláis", "lat": 21.16238, "lng": -101.616938
},{
"label": "Granja la Trinidad", "lat": 21.132468, "lng": -101.61845
},{
"label": "Granja las Flores", "lat": 21.040535, "lng": -101.717537
},{
"label": "Bajío de Santa Rosa (Juan Ledezma)", "lat": 21.041031, "lng": -101.727305
},{
"label": "La Cantera (Ejido Duarte)", "lat": 21.073238, "lng": -101.535836
},{
"label": "San José del Potrero", "lat": 21.128081, "lng": -101.598055
},{
"label": "La Tinaja", "lat": 21.111544, "lng": -101.593271
},{
"label": "Potrero Nuevo", "lat": 21.137271, "lng": -101.801606
},{
"label": "Ninguno [Club Cinegético]", "lat": 21.203271, "lng": -101.755527
},{
"label": "Los Cocuyos", "lat": 21.069344, "lng": -101.500159
},{
"label": "Altor [Escuela]", "lat": 21.172223, "lng": -101.760855
},{
"label": "Granja Luis Arturo (Dimen)", "lat": 21.192222, "lng": -101.753333
},{
"label": "La Esperanza de Alfaro", "lat": 21.139024, "lng": -101.602543
},{
"label": "Los Conejales", "lat": 21.126004, "lng": -101.738949
},{
"label": "Los Sauces (Federico Andrade Martínez)", "lat": 21.014512, "lng": -101.630949
},{
"label": "Real de la Joya", "lat": 21.150679, "lng": -101.756046
},{
"label": "Rancho Alegre", "lat": 20.956259, "lng": -101.601319
},{
"label": "Fracción Santa Julia", "lat": 21.217107, "lng": -101.738713
},{
"label": "La Mesa del Obispo", "lat": 21.14775, "lng": -101.435491
},{
"label": "Rancho Nuevo de la Luz", "lat": 20.96267, "lng": -101.645654
},{
"label": "El Laurel (Elías González)", "lat": 21.027408, "lng": -101.680048
},{
"label": "Los Vallejo", "lat": 20.974945, "lng": -101.651634
},{
"label": "Granja Carmelita", "lat": 21.029524, "lng": -101.722868
},{
"label": "La Laborcita", "lat": 21.106882, "lng": -101.551992
},{
"label": "San Isidro de los Sauces", "lat": 21.020613, "lng": -101.536374
},{
"label": "Ex-Hacienda Capellanía de Loera", "lat": 21.049629, "lng": -101.596564
},{
"label": "San Ignacio (Lourdes Salazar Nicasio)", "lat": 21.028676, "lng": -101.641331
},{
"label": "Granja los Padilla", "lat": 21.207222, "lng": -101.759444
},{
"label": "Los Cuatro Potrillos (Estancia de los Sapos)", "lat": 21.017147, "lng": -101.775234
},{
"label": "La Sardina", "lat": 20.883794, "lng": -101.665931
},{
"label": "La Esperanza del Refugio", "lat": 21.014199, "lng": -101.520535
},{
"label": "Granja Ofelia", "lat": 21.190278, "lng": -101.747778
},{
"label": "Escondida de la Selva", "lat": 21.174196, "lng": -101.628078
},{
"label": "Los Cerritos", "lat": 21.191924, "lng": -101.727487
},{
"label": "San Jorge (Rodolfo Macías )", "lat": 21.047049, "lng": -101.72737
},{
"label": "Siglo XXI", "lat": 21.153563, "lng": -101.755386
},{
"label": "San José de los Romeros", "lat": 21.036526, "lng": -101.491196
},{
"label": "Campestre Rústico los Sauces", "lat": 21.029519, "lng": -101.557518
},{
"label": "San José de Durán (Los Troncoso)", "lat": 21.064856, "lng": -101.6735
},{
"label": "Rincones de la Mora", "lat": 21.066597, "lng": -101.778512
},{
"label": "Rancho de los Cabeza de Vaca", "lat": 21.19, "lng": -101.744722
},{
"label": "Ojo de Agua", "lat": 21.125373, "lng": -101.554883
},{
"label": "San Judas", "lat": 20.999457, "lng": -101.707592
},{
"label": "Yolis [Purificadora de Agua]", "lat": 20.928987, "lng": -101.688591
},{
"label": "San Vicente", "lat": 21.055325, "lng": -101.725795
},{
"label": "Lomas del Paraíso", "lat": 20.929188, "lng": -101.56982
},{
"label": "San Francisco de Durán (San Agustín del Mirasol)", "lat": 21.0058, "lng": -101.621593
},{
"label": "San Javier", "lat": 21.134637, "lng": -101.813871
},{
"label": "Granjas Económicas", "lat": 21.038171, "lng": -101.557185
},{
"label": "Rústico San Pedro", "lat": 21.033564, "lng": -101.706028
},{
"label": "El Caracol", "lat": 21.185501, "lng": -101.533898
},{
"label": "Ampliación Providencia", "lat": 21.068501, "lng": -101.665136
},{
"label": "Albarradones", "lat": 21.040028, "lng": -101.504062
},{
"label": "La Estancia de la Sandía", "lat": 20.901779, "lng": -101.679045
},{
"label": "Rancho Santa Rosalía", "lat": 21.029259, "lng": -101.665314
},{
"label": "Santa Rosa (Irma Hernández Durán)", "lat": 21.066224, "lng": -101.717477
},{
"label": "El Río", "lat": 21.083063, "lng": -101.683235
},{
"label": "El Mirasol", "lat": 21.196124, "lng": -101.451647
},{
"label": "Granja José Magaña", "lat": 21.051947, "lng": -101.727618
},{
"label": "Rosendo Meléndez Flores", "lat": 21.072822, "lng": -101.692209
},{
"label": "La Ermita", "lat": 21.153065, "lng": -101.734311
},{
"label": "El Laurel", "lat": 21.185388, "lng": -101.736014
},{
"label": "La Loma", "lat": 21.09466, "lng": -101.797209
},{
"label": "Granja San Ignacio", "lat": 21.024254, "lng": -101.643134
},{
"label": "El Maíz Pinto", "lat": 21.218401, "lng": -101.444526
},{
"label": "Bosques de la Luz (Ejido la Laborcita)", "lat": 21.098013, "lng": -101.540808
},{
"label": "La Esperanza", "lat": 21.142316, "lng": -101.623509
},{
"label": "La Luz", "lat": 21.057079, "lng": -101.516736
},{
"label": "La Cañada", "lat": 21.078856, "lng": -101.757175
},{
"label": "Granja Alfredo Mena", "lat": 21.053233, "lng": -101.709659
},{
"label": "Rancho Madrigal", "lat": 21.06735, "lng": -101.648512
},{
"label": "Alberto Novoa Támez", "lat": 21.047688, "lng": -101.613877
},{
"label": "Providencia", "lat": 21.09723, "lng": -101.775276
},{
"label": "El Sauco", "lat": 21.286072, "lng": -101.649496
},{
"label": "Granjas Santa Anita de la Nopalera", "lat": 20.958714, "lng": -101.599276
},{
"label": "San Rafael de los Ramírez", "lat": 21.00415, "lng": -101.59007
},{
"label": "Jesús Fuentes", "lat": 21.044444, "lng": -101.62
},{
"label": "Granja el Rodeo (Eufrasio García)", "lat": 21.243293, "lng": -101.678748
},{
"label": "Las Presitas", "lat": 21.151877, "lng": -101.780924
},{
"label": "Plan Guanajuato (La Sandía)", "lat": 20.921123, "lng": -101.696668
},{
"label": "Villas del Rosario", "lat": 21.045831, "lng": -101.667449
},{
"label": "Fraccionamiento Paseo de las Torres", "lat": 21.166698, "lng": -101.755759
},{
"label": "Puerta del Sol", "lat": 21.101339, "lng": -101.551528
},{
"label": "El Monte de Arriba", "lat": 20.949722, "lng": -101.665
},{
"label": "Peñuelas", "lat": 21.023801, "lng": -101.520051
},{
"label": "Sitio Viejo", "lat": 21.250661, "lng": -101.598042
},{
"label": "Las Delgadas Cinco (Ejido Duarte)", "lat": 21.078786, "lng": -101.540915
},{
"label": "Providencia de Pedrero (Mariano Pedrero)", "lat": 21.071667, "lng": -101.651111
},{
"label": "Santa Julia", "lat": 21.194901, "lng": -101.736229
},{
"label": "El Tajo (La Loma)", "lat": 20.973349, "lng": -101.591224
},{
"label": "Fraccionamiento Campestre del Sol", "lat": 21.091804, "lng": -101.555169
},{
"label": "Alfaro", "lat": 21.146775, "lng": -101.607001
},{
"label": "Quintas el Galeno", "lat": 21.184674, "lng": -101.703033
},{
"label": "Granja el Centenario", "lat": 21.024845, "lng": -101.730251
},{
"label": "La Santa Fe", "lat": 21.015998, "lng": -101.572203
},{
"label": "Arboledas de los López Primera Sección", "lat": 21.046607, "lng": -101.583178
},{
"label": "Santa Rosa [Parque Industrial]", "lat": 21.079456, "lng": -101.710433
},{
"label": "Granja Macías (San Isidro)", "lat": 21.024795, "lng": -101.773677
},{
"label": "San José de los Sapos (Santa Elena)", "lat": 21.030581, "lng": -101.737177
},{
"label": "Ejido la Joya", "lat": 21.143866, "lng": -101.73788
},{
"label": "Granja los Pinos", "lat": 21.030453, "lng": -101.608528
},{
"label": "Los Gutiérrez (El Zancudo)", "lat": 20.96969, "lng": -101.584684
},{
"label": "Cortijos de la Gloria", "lat": 21.084682, "lng": -101.770252
},{
"label": "Rancho San José de los Sapos", "lat": 21.020569, "lng": -101.746937
},{
"label": "Los Loza", "lat": 21.006888, "lng": -101.726991
},{
"label": "Granja el Rincón del Viejo", "lat": 21.018723, "lng": -101.697812
},{
"label": "Ninguno [Fraccionamiento]", "lat": 21.049492, "lng": -101.516272
},{
"label": "Granja Santa Lucía", "lat": 21.059196, "lng": -101.696778
},{
"label": "Rancho la Florida", "lat": 21.055104, "lng": -101.667413
},{
"label": "Vynmsa León [Parque Industrial]", "lat": 21.030464, "lng": -101.696256
},{
"label": "Granja el Charro Dos", "lat": 21.051027, "lng": -101.689741
},{
"label": "León de los Aldama", "lat": 21.121972, "lng": -101.6832
},{
"label": "La Patiña", "lat": 21.195816, "lng": -101.703726
},{
"label": "Mesa de Ibarrilla", "lat": 21.21813, "lng": -101.640793
},{
"label": "Fraccionamiento San Manuel", "lat": 21.032429, "lng": -101.549709
},{
"label": "Fracción el Saucillo", "lat": 21.036081, "lng": -101.658456
},{
"label": "El Alto de las Carreras", "lat": 21.091904, "lng": -101.538573
},{
"label": "Rancho los Lozano", "lat": 21.208889, "lng": -101.760556
},{
"label": "Granja la Soledad", "lat": 21.036972, "lng": -101.615892
},{
"label": "Majada de las Hierbas", "lat": 21.23014, "lng": -101.565929
},{
"label": "Don Refugio", "lat": 20.950098, "lng": -101.572979
},{
"label": "Anzures", "lat": 21.089722, "lng": -101.578889
},{
"label": "Bajío de Bolas Blancas", "lat": 20.998021, "lng": -101.591397
},{
"label": "El Lucero", "lat": 21.017813, "lng": -101.726439
},{
"label": "Rancho de la Señora Macías", "lat": 21.019907, "lng": -101.574579
},{
"label": "El Pino (Potrero de la Caja)", "lat": 21.188333, "lng": -101.744722
},{
"label": "Rancho los González", "lat": 21.027383, "lng": -101.646739
},{
"label": "Valle de Santa Rita [Fraccionamiento]", "lat": 20.940256, "lng": -101.710775
},{
"label": "El Imperio (Guadalupe Cadengo)", "lat": 21.221125, "lng": -101.424811
},{
"label": "La Floresta", "lat": 21.02328, "lng": -101.758214
},{
"label": "Carretera a Presa Duarte", "lat": 21.094284, "lng": -101.52646
},{
"label": "La Asunción [Parcela]", "lat": 21.145475, "lng": -101.743906
},{
"label": "La Cinta", "lat": 20.92898, "lng": -101.671491
},{
"label": "La Barranca", "lat": 21.108166, "lng": -101.738981
},{
"label": "La Soledad (Los Oliva)", "lat": 20.964149, "lng": -101.670151
},{
"label": "Los Arcos", "lat": 21.04772, "lng": -101.688376
},{
"label": "El Vallado de San Antonio (El Vallado)", "lat": 21.08492, "lng": -101.693114
},{
"label": "La Manga (Ejido la Joya)", "lat": 21.148729, "lng": -101.744822
},{
"label": "San Rafael Cerro Verde", "lat": 21.162456, "lng": -101.461516
},{
"label": "El Zócalo", "lat": 20.904549, "lng": -101.699349
},{
"label": "La Campiña del Bosque", "lat": 21.189256, "lng": -101.740461
},{
"label": "Fraccionamiento Lagunillas", "lat": 21.205499, "lng": -101.76401
},{
"label": "Cordillera [Residencial]", "lat": 21.178594, "lng": -101.751214
},{
"label": "Llano de Mendoza (Rancho Mendoza)", "lat": 21.202743, "lng": -101.438288
},{
"label": "San Pedro del Monte (José Luis Loza)", "lat": 21.048341, "lng": -101.718513
},{
"label": "Granja el Jacalito", "lat": 21.066987, "lng": -101.69871
},{
"label": "Quinta María de Ornelas", "lat": 21.075806, "lng": -101.731252
},{
"label": "El Chilillo", "lat": 21.172752, "lng": -101.53788
},{
"label": "La Ponderosa de Antillón", "lat": 20.992778, "lng": -101.615
},{
"label": "Hacienda Arriba (San José de la Concepción)", "lat": 21.230113, "lng": -101.705563
},{
"label": "La Mesa", "lat": 21.057693, "lng": -101.795498
},{
"label": "Lomas de los Sapos", "lat": 21.015076, "lng": -101.748907
},{
"label": "Rancho Viejo (Las Viboras)", "lat": 21.212881, "lng": -101.6794
},{
"label": "Mesa de los Reyes", "lat": 21.194412, "lng": -101.625518
},{
"label": "San José del Castillo", "lat": 21.166726, "lng": -101.607619
},{
"label": "Barretos", "lat": 20.937687, "lng": -101.641383
},{
"label": "Rancho Nuevo del Bajío", "lat": 20.947955, "lng": -101.674989
},{
"label": "La Valenciana", "lat": 21.211421, "lng": -101.419196
},{
"label": "El Herradero", "lat": 21.189878, "lng": -101.707463
},{
"label": "La Venta", "lat": 21.053158, "lng": -101.777326
},{
"label": "La Joya (Cerro Gigante)", "lat": 21.197967, "lng": -101.561261
},{
"label": "Cañadita del Agua", "lat": 21.163413, "lng": -101.546433
},{
"label": "San Antonio (López Martínez)", "lat": 21.009139, "lng": -101.582462
},{
"label": "Bartolo López", "lat": 21.163021, "lng": -101.608455
},{
"label": "Puerta de Santa Rita", "lat": 20.935616, "lng": -101.715178
},{
"label": "Haciendas de Ibarrilla", "lat": 21.186944, "lng": -101.638636
},{
"label": "Granja la Florida (Gómez Guerra)", "lat": 21.052135, "lng": -101.702069
},{
"label": "Rincón Grande", "lat": 21.231487, "lng": -101.55369
},{
"label": "Las Granjas", "lat": 21.03227, "lng": -101.547961
},{
"label": "San Joaquín", "lat": 20.969843, "lng": -101.592587
},{
"label": "La Mesa de Juan Grande", "lat": 21.277057, "lng": -101.715229
},{
"label": "Villas del Campo Uno", "lat": 21.110338, "lng": -101.594812
},{
"label": "San Martín Uno", "lat": 21.023181, "lng": -101.734223
},{
"label": "La Foresta", "lat": 21.167127, "lng": -101.740987
},{
"label": "El Fuerte", "lat": 21.322738, "lng": -101.635691
},{
"label": "Puerta del Cerro", "lat": 21.051579, "lng": -101.786707
},{
"label": "Los Gemelos", "lat": 21.0525, "lng": -101.721389
},{
"label": "Los Naranjos", "lat": 21.168566, "lng": -101.62603
},{
"label": "Portones de Comanjilla [Fraccionamiento]", "lat": 21.053397, "lng": -101.510822
},{
"label": "Cañada de Ochoa", "lat": 21.215819, "lng": -101.657733
},{
"label": "Las Cinco Llagas", "lat": 21.029733, "lng": -101.6383
},{
"label": "Santa Lucía [Parque Ecológico Industrial]", "lat": 21.060949, "lng": -101.70027
},{
"label": "Los Medina Torres", "lat": 21.135325, "lng": -101.742254
},{
"label": "Granja la Luz", "lat": 21.007024, "lng": -101.666338
},{
"label": "San Agustín (El Vallo)", "lat": 20.991404, "lng": -101.632678
},{
"label": "Monte de Dolores", "lat": 21.066024, "lng": -101.748901
},{
"label": "Ignacio Mares", "lat": 21.025676, "lng": -101.724202
},{
"label": "Loma de los Sauces", "lat": 21.031432, "lng": -101.54894
},{
"label": "Rancho el Trece", "lat": 21.212142, "lng": -101.765369
},{
"label": "Granja Aracely (Cristela)", "lat": 21.195833, "lng": -101.750833
},{
"label": "Rancho la Salud", "lat": 21.005348, "lng": -101.730691
},{
"label": "San Antonio del Monte (Ramón Valdivia)", "lat": 21.074339, "lng": -101.694754
},{
"label": "Laderas de Ibarrilla", "lat": 21.186414, "lng": -101.637361
},{
"label": "Granja San Rafael (La Calma)", "lat": 20.99547, "lng": -101.610849
},{
"label": "El Capulín", "lat": 21.265786, "lng": -101.622767
},{
"label": "Granja Santa Mónica", "lat": 21.059676, "lng": -101.690811
},{
"label": "Granja Mena", "lat": 21.059397, "lng": -101.717794
},{
"label": "María Guadalupe Ayala Muñoz", "lat": 21.056064, "lng": -101.622202
},{
"label": "San José de Malpaso", "lat": 21.14519, "lng": -101.787889
},{
"label": "Las Coloradas de Duarte (El As de Oro)", "lat": 21.084039, "lng": -101.502044
},{
"label": "Lomas de la Loza", "lat": 21.062535, "lng": -101.552945
},{
"label": "Rinconada de la Esmeralda Dos", "lat": 21.022909, "lng": -101.704085
},{
"label": "Rancho la Flor (Creplas)", "lat": 21.204727, "lng": -101.706488
},{
"label": "El Venadito (El Venadito de Pedro Moreno)", "lat": 21.183258, "lng": -101.401885
},{
"label": "El Canalizo (Las Sábilas)", "lat": 21.075956, "lng": -101.511501
},{
"label": "Los Bancos", "lat": 21.173233, "lng": -101.512548
},{
"label": "Fraccionamiento Mirasierra", "lat": 21.09725, "lng": -101.555831
},{
"label": "Granja el Recreo", "lat": 21.030905, "lng": -101.755869
},{
"label": "La Estancia de San Pedro del Monte", "lat": 21.011602, "lng": -101.71139
},{
"label": "La Mesa de en Medio", "lat": 21.271063, "lng": -101.708215
},{
"label": "San José del Resplandor (El Capricho)", "lat": 20.998153, "lng": -101.691403
},{
"label": "Rancho Viejo", "lat": 21.229006, "lng": -101.583045
},{
"label": "El Molino Viejo", "lat": 21.220478, "lng": -101.426794
},{
"label": "San Antonio (Los González)", "lat": 20.961224, "lng": -101.642374
},{
"label": "La Sandía (El Crucero)", "lat": 20.93141, "lng": -101.711536
},{
"label": "Canelas", "lat": 21.219026, "lng": -101.45593
},{
"label": "Granja el Tres", "lat": 20.96234, "lng": -101.595508
},{
"label": "Lagunillas", "lat": 21.20205, "lng": -101.764592
},{
"label": "Providencia Real 2000", "lat": 21.123889, "lng": -101.737778
},{
"label": "El Durazno", "lat": 21.167823, "lng": -101.551202
},{
"label": "Las Palomas", "lat": 21.028013, "lng": -101.546157
},{
"label": "Callejón Largo Dos (La Cuadrilla)", "lat": 21.092222, "lng": -101.520556
},{
"label": "Centro Familiar la Soledad", "lat": 21.139892, "lng": -101.754777
},{
"label": "Mesa de la Virgen", "lat": 21.243694, "lng": -101.663451
},{
"label": "Hacienda Arriba (Los Rocha)", "lat": 21.119162, "lng": -101.579121
},{
"label": "Nuevo Valle de Moreno", "lat": 21.212479, "lng": -101.424676
},{
"label": "Granja María del Rocío", "lat": 21.189209, "lng": -101.748004
},{
"label": "Colonia Maravillas", "lat": 21.031329, "lng": -101.571358
},{
"label": "La Luz (Hernán Macías)", "lat": 21.03113, "lng": -101.754635
},{
"label": "Xoconoxtle", "lat": 21.229444, "lng": -101.597778
},{
"label": "Miguel Apolinar (La Laborcita)", "lat": 21.100676, "lng": -101.563042
},{
"label": "Rivera del Carmen (Divina Infantita)", "lat": 21.18213, "lng": -101.638165
},{
"label": "San Antonio del Monte (Manuel Rangel)", "lat": 21.074765, "lng": -101.701888
},{
"label": "La Veta", "lat": 21.273569, "lng": -101.707863
},{
"label": "Entrada a Comanja", "lat": 21.290171, "lng": -101.655691
},{
"label": "Brisas del Campestre", "lat": 21.187902, "lng": -101.76576
},{
"label": "Granja Santa Martha", "lat": 20.944587, "lng": -101.645072
},{
"label": "El Verde", "lat": 21.186129, "lng": -101.762234
},{
"label": "Palos Colorados (Ejido de Manzanillas)", "lat": 21.233206, "lng": -101.57543
},{
"label": "La Santa Cruz", "lat": 21.170911, "lng": -101.629021
},{
"label": "Saucillo de Ávalos", "lat": 21.235222, "lng": -101.617064
},{
"label": "San José (Los Pinos)", "lat": 21.026595, "lng": -101.607916
},{
"label": "La Coyotera", "lat": 20.972419, "lng": -101.586711
},{
"label": "Colonia Latinoamericana", "lat": 21.027113, "lng": -101.705243
},{
"label": "La Candelaria (El Vallado Viejo)", "lat": 20.915833, "lng": -101.681111
},{
"label": "San Juan de Otates", "lat": 21.111963, "lng": -101.560335
},{
"label": "Camino a los Pirules", "lat": 21.073991, "lng": -101.561383
},{
"label": "Ninguno [Curtiduría]", "lat": 21.056616, "lng": -101.711949
},{
"label": "La Soledad Dos", "lat": 21.065256, "lng": -101.792597
},{
"label": "Granja Romo", "lat": 21.051174, "lng": -101.693459
},{
"label": "Granja los Pinos (Rancho Oñate)", "lat": 21.193333, "lng": -101.750556
},{
"label": "Fraccionamiento Primavera", "lat": 21.07502, "lng": -101.503153
},{
"label": "Kilómetro Cuatro", "lat": 21.234517, "lng": -101.681933
},{
"label": "Refugio de Rosas", "lat": 21.11671, "lng": -101.786573
},{
"label": "Madroños", "lat": 21.23563, "lng": -101.481848
},{
"label": "Calli [Colegio]", "lat": 21.174612, "lng": -101.738674
},{
"label": "Ladrilleras del Refugio", "lat": 21.084825, "lng": -101.553692
},{
"label": "San Nicolás del Palote", "lat": 21.187926, "lng": -101.689137
},{
"label": "Portón del Valle [Residencial]", "lat": 21.171538, "lng": -101.741748
},{
"label": "Lomas de Punta del Este [Residencial]", "lat": 21.134514, "lng": -101.602319
},{
"label": "Mesa de Medina", "lat": 21.176802, "lng": -101.603178
},{
"label": "Rancho el Abandonado", "lat": 21.023939, "lng": -101.670421
},{
"label": "La Jaraleña", "lat": 21.25476, "lng": -101.572774
},{
"label": "Agrícola el Pedregoso", "lat": 21.062709, "lng": -101.710035
},{
"label": "Joachi", "lat": 21.127801, "lng": -101.534161
},{
"label": "Elías Amézquita Horta", "lat": 21.023841, "lng": -101.653306
},{
"label": "La Nueva Estancia (La Floreña)", "lat": 21.020808, "lng": -101.758753
},{
"label": "Cañada de Ibarrilla", "lat": 21.189847, "lng": -101.638228
},{
"label": "San Martín Dos (La Vuelta del CERESO)", "lat": 21.024975, "lng": -101.696717
},{
"label": "Vaquerías", "lat": 21.156754, "lng": -101.395551
},{
"label": "El Charco (El Romeral)", "lat": 21.106407, "lng": -101.530663
},{
"label": "San José del Aguadal", "lat": 21.2912, "lng": -101.629819
},{
"label": "Las Tres Rosas (Los Rivera)", "lat": 21.018084, "lng": -101.682324
},{
"label": "Las Jarillas", "lat": 21.225775, "lng": -101.487313
},{
"label": "Las Enramadas", "lat": 21.139254, "lng": -101.50159
},{
"label": "Palos Blancos", "lat": 21.107895, "lng": -101.524988
},{
"label": "Villas de la Joya", "lat": 21.15524, "lng": -101.757202
},{
"label": "Las Tablas de Santa Rosa (Los Romero)", "lat": 21.067818, "lng": -101.709502
},{
"label": "San José de Barrón (El Cachete)", "lat": 21.034221, "lng": -101.632917
},{
"label": "Granja de Francisco Muñoz", "lat": 21.044389, "lng": -101.720084
},{
"label": "La Alameda", "lat": 21.077205, "lng": -101.714961
},{
"label": "El Saucillo", "lat": 21.134537, "lng": -101.75914
},{
"label": "Granja Don Elí (La Hacienda)", "lat": 21.100949, "lng": -101.555296
},{
"label": "Granja la Palma", "lat": 21.066036, "lng": -101.707112
},{
"label": "La Estrella del Mirador (Mesa de Ibarrilla)", "lat": 21.193414, "lng": -101.645584
},{
"label": "El Cerrito", "lat": 21.107187, "lng": -101.567185
},{
"label": "Granja las Palomas", "lat": 21.017689, "lng": -101.668254
},{
"label": "El Potrerito", "lat": 21.268446, "lng": -101.589105
},{
"label": "San José de Zertuche Dos", "lat": 21.029059, "lng": -101.664751
},{
"label": "La Presa Blanca", "lat": 21.091723, "lng": -101.699394
},{
"label": "Casimiro Pérez Cortez", "lat": 21.016944, "lng": -101.540556
},{
"label": "La Escondida", "lat": 21.024639, "lng": -101.728331
},{
"label": "San Fernando", "lat": 21.253946, "lng": -101.675277
},{
"label": "San Jerónimo", "lat": 20.957393, "lng": -101.553634
},{
"label": "Norberto Vargas", "lat": 21.157715, "lng": -101.617122
},{
"label": "Fracción Nuevo Lindero (Vallejo)", "lat": 20.95499, "lng": -101.653326
},{
"label": "El Plan", "lat": 21.199483, "lng": -101.418788
},{
"label": "Santa Fe del Resplandor", "lat": 20.98752, "lng": -101.593945
},{
"label": "Ejido la Cieneguita", "lat": 21.079187, "lng": -101.487172
},{
"label": "San José de Otates Norte", "lat": 21.193824, "lng": -101.499028
},{
"label": "Alto de la Vaca", "lat": 21.033346, "lng": -101.650282
},{
"label": "El Sitio de San Ignacio", "lat": 21.269127, "lng": -101.595102
},{
"label": "San Jerónimo del Bajío", "lat": 21.044317, "lng": -101.723768
},{
"label": "Rancho los Juanes", "lat": 21.080553, "lng": -101.574259
},{
"label": "Fraccionamiento Campestre Lomas del Sur", "lat": 20.95008, "lng": -101.557234
},{
"label": "La Soledad (Los Gutiérrez)", "lat": 20.957563, "lng": -101.666232
},{
"label": "Piedra Parada", "lat": 21.220278, "lng": -101.420833
},{
"label": "Colonia Nuevo Progreso", "lat": 21.033333, "lng": -101.708071
},{
"label": "Katania", "lat": 21.172215, "lng": -101.745478
},{
"label": "Las Tablas (J. Concepción Martínez)", "lat": 21.052671, "lng": -101.732079
},{
"label": "Granja Fracción Uno", "lat": 20.966604, "lng": -101.595684
},{
"label": "Hacienda el Campestre", "lat": 21.094965, "lng": -101.55504
},{
"label": "León-Bajío [Parque Industrial]", "lat": 21.017, "lng": -101.579742
},{
"label": "Quinta las Delicias", "lat": 21.193889, "lng": -101.752222
},{
"label": "Granja la Providencia", "lat": 21.136805, "lng": -101.613876
},{
"label": "Loza de los Padres", "lat": 21.069114, "lng": -101.547126
},{
"label": "Ojo de Agua de los Reyes", "lat": 21.189252, "lng": -101.621196
},{
"label": "Rincón de Ibarrilla", "lat": 21.184219, "lng": -101.639008
},{
"label": "Campestre el Rodeo (Lomas del Rodeo)", "lat": 21.247997, "lng": -101.67788
},{
"label": "San Pedro del Monte (La Huizachera)", "lat": 21.032098, "lng": -101.714601
},{
"label": "El Romero", "lat": 21.055165, "lng": -101.661538
},{
"label": "La Manzanilla", "lat": 21.207306, "lng": -101.579156
},{
"label": "Advance Puerto Interior", "lat": 21.016611, "lng": -101.500694
},{
"label": "Capellanía de Loera", "lat": 21.038475, "lng": -101.595982
},{
"label": "El Bordo Grande", "lat": 21.076517, "lng": -101.725911
},{
"label": "Jesús María (El Vergel)", "lat": 21.132413, "lng": -101.602431
},{
"label": "San José de Zertuche Uno", "lat": 21.023303, "lng": -101.651755
},{
"label": "Santa Rita (La Financiera)", "lat": 21.023796, "lng": -101.710733
},{
"label": "La Esmeralda", "lat": 21.031389, "lng": -101.703333
},{
"label": "Jorge Andrade Espinoza", "lat": 21.015476, "lng": -101.61023
},{
"label": "Las Tortugas (San Jorge)", "lat": 21.226882, "lng": -101.608973
},{
"label": "Los Reyes", "lat": 21.083474, "lng": -101.571884
},{
"label": "San Rafael", "lat": 21.137319, "lng": -101.801508
},{
"label": "El Huizachal", "lat": 20.947152, "lng": -101.603786
},{
"label": "Arturo Navarro", "lat": 21.057027, "lng": -101.567123
},{
"label": "Los Operadores", "lat": 21.077853, "lng": -101.529649
},{
"label": "Ampliación Latinoamericana", "lat": 21.027974, "lng": -101.70243
},{
"label": "La Providencia Uno", "lat": 21.05506, "lng": -101.653219
},{
"label": "Joel Amézquita Horta", "lat": 21.039084, "lng": -101.648833
},{
"label": "El Fresno", "lat": 21.140848, "lng": -101.796721
},{
"label": "Laguna de la Hacienda", "lat": 21.094231, "lng": -101.549419
},{
"label": "Virgen de Alfaro", "lat": 21.183368, "lng": -101.584155
},{
"label": "Rancho el Pino Uno", "lat": 21.192222, "lng": -101.746389
},{
"label": "Jesús Ponce", "lat": 21.07208, "lng": -101.64721
},{
"label": "Granja San Rafael", "lat": 21.210158, "lng": -101.767393
},{
"label": "Estancia de los Sapos", "lat": 21.023311, "lng": -101.768751
},{
"label": "Los Sauces", "lat": 21.023131, "lng": -101.538823
},{
"label": "Fracción San José de Zertuche", "lat": 21.028025, "lng": -101.651739
},{
"label": "La Laguna", "lat": 21.065423, "lng": -101.798988
},{
"label": "Cuesta Blanca", "lat": 21.106164, "lng": -101.490298
},{
"label": "Mesa del Mastranto", "lat": 21.145273, "lng": -101.564408
},{
"label": "San Antonio de los Tepetates", "lat": 21.044938, "lng": -101.674513
},{
"label": "Toronjas", "lat": 21.222187, "lng": -101.686194
},{
"label": "Cerro Alto", "lat": 21.253344, "lng": -101.639296
},{
"label": "San Felipe", "lat": 21.038776, "lng": -101.623423
},{
"label": "Granja la Chingada", "lat": 21.194722, "lng": -101.751944
},{
"label": "La Lagunita", "lat": 21.246589, "lng": -101.604839
},{
"label": "Granja Alvarado (Las Tienditas)", "lat": 21.06099, "lng": -101.706543
},{
"label": "Ibarrilla", "lat": 21.185974, "lng": -101.645919
},{
"label": "El Nacimiento", "lat": 21.060156, "lng": -101.773754
},{
"label": "Medina", "lat": 21.147336, "lng": -101.620268
},{
"label": "El Aguacate (Rubén Godínez)", "lat": 21.098176, "lng": -101.579033
},{
"label": "Kilómetro 15 [Restaurante]", "lat": 21.198534, "lng": -101.753554
},{
"label": "El Gigante", "lat": 21.193254, "lng": -101.561106
},{
"label": "Las Coloradas", "lat": 21.098226, "lng": -101.502763
},{
"label": "Fraccionamiento el Carmen (Las Granjas)", "lat": 21.155591, "lng": -101.773031
},{
"label": "Bosques del Pedregal", "lat": 21.140418, "lng": -101.61774
},{
"label": "Los Carrizos", "lat": 21.274444, "lng": -101.708889
},{
"label": "La Arcina", "lat": 20.94079, "lng": -101.614043
},{
"label": "El Cielo [Residencial]", "lat": 21.1837, "lng": -101.749686
},{
"label": "San José del Granjeno", "lat": 20.901201, "lng": -101.648598
},{
"label": "La Y Griega", "lat": 21.177574, "lng": -101.742242
},{
"label": "Barranca de Venaderos", "lat": 21.115698, "lng": -101.741724
},{
"label": "Granja Tres Pulgas del Rodeo", "lat": 21.238894, "lng": -101.682186
},{
"label": "El Tecuán (Ejido de Duarte)", "lat": 21.080219, "lng": -101.511644
},{
"label": "Pomona", "lat": 21.038395, "lng": -101.587388
},{
"label": "Fraccionamiento el Pino (Camino a la Pedrera)", "lat": 21.200907, "lng": -101.741343
},{
"label": "La Providencia", "lat": 21.134309, "lng": -101.529833
},{
"label": "La Quinta Estrella", "lat": 21.014611, "lng": -101.600433
},{
"label": "La Soledad (Los González)", "lat": 20.96989, "lng": -101.665461
},{
"label": "Rancho el Polaco", "lat": 20.974724, "lng": -101.654434
},{
"label": "El Campeón [Rancho]", "lat": 21.196925, "lng": -101.754603
},{
"label": "El Cuije", "lat": 21.025852, "lng": -101.616292
},{
"label": "Estación Trinidad", "lat": 21.030221, "lng": -101.573673
},{
"label": "Santa Teresita", "lat": 21.066301, "lng": -101.702425
},{
"label": "Granja el Recuerdo (Los Medina)", "lat": 20.953991, "lng": -101.604118
},{
"label": "Granja la Esperanza (Santa Fe)", "lat": 21.02535, "lng": -101.754121
},{
"label": "El Ratón (Celso Ramírez Muñoz)", "lat": 21.017798, "lng": -101.689223
},{
"label": "El Desagüe (León)", "lat": 20.951977, "lng": -101.710863
},{
"label": "El Charro Tres", "lat": 21.036353, "lng": -101.692983
},{
"label": "Jorge Ulit", "lat": 21.143056, "lng": -101.603889
},{
"label": "Sotelo", "lat": 21.020555, "lng": -101.505171
},{
"label": "La Mora Alta", "lat": 21.075338, "lng": -101.774512
},{
"label": "Barbosa Uno (Hacienda de Barbosa)", "lat": 21.277891, "lng": -101.628114
},{
"label": "El Kennedy (La Resolana)", "lat": 20.992074, "lng": -101.663464
},{
"label": "El Garbancillo (Esquina del Garbancillo)", "lat": 20.985991, "lng": -101.648481
},{
"label": "Fracción la Arcina (El Monte)", "lat": 20.9502, "lng": -101.627848
},{
"label": "Fuellecitos (Los Negrete)", "lat": 21.157208, "lng": -101.502693
},{
"label": "Simón Vargas Aguilar", "lat": 21.048979, "lng": -101.669076
},{
"label": "La Y Griega (Kilómetro Ocho)", "lat": 21.17709, "lng": -101.741489
},{
"label": "Ninguno [Las Ladrilleras]", "lat": 21.212267, "lng": -101.702616
},{
"label": "Los Tanques (Granja Carmelita)", "lat": 21.029575, "lng": -101.730236
},{
"label": "Rancho María Isabel", "lat": 20.955593, "lng": -101.588003
},{
"label": "Ramón Ibarra Becerra", "lat": 21.040903, "lng": -101.612892
},{
"label": "Malagana (San Antonio del Monte)", "lat": 21.048116, "lng": -101.753038
},{
"label": "Tomás Ponce (La Soledad)", "lat": 21.038033, "lng": -101.612751
},{
"label": "Granja el Chapingo", "lat": 21.029397, "lng": -101.621951
},{
"label": "Rancho el Refugio", "lat": 21.005835, "lng": -101.583732
},{
"label": "San José de Olmos (Granja Mena)", "lat": 21.067696, "lng": -101.713568
},{
"label": "El Saltillo", "lat": 21.156501, "lng": -101.622406
},{
"label": "La Campechana", "lat": 21.235992, "lng": -101.606699
},{
"label": "Santa Anita [Complejo Agropecuario]", "lat": 20.984722, "lng": -101.624722
},{
"label": "Los Cerritos (Ignacio Lira)", "lat": 21.078774, "lng": -101.497731
},{
"label": "Fraccionamiento las Coloradas", "lat": 21.088453, "lng": -101.492892
},{
"label": "Los Tejabanes (San Pedro)", "lat": 21.04778, "lng": -101.699425
},{
"label": "Real Providencia [Balneario]", "lat": 21.057138, "lng": -101.642244
},{
"label": "Casco del Molino Viejo", "lat": 21.220278, "lng": -101.444722
},{
"label": "Granja Rosita", "lat": 21.051414, "lng": -101.711486
},{
"label": "El Terrero", "lat": 20.960412, "lng": -101.60612
},{
"label": "Campo de Tiro (Cazadores)", "lat": 21.21242, "lng": -101.769472
},{
"label": "Granja la Coyotera Dos", "lat": 20.975556, "lng": -101.585278
},{
"label": "Llano Grande", "lat": 21.157789, "lng": -101.579256
},{
"label": "Blas Vargas", "lat": 21.169184, "lng": -101.605207
},{
"label": "Granja Jericó", "lat": 20.996596, "lng": -101.66258
},{
"label": "San José del Carmen", "lat": 21.255833, "lng": -101.758889
},{
"label": "Las Tablas de Santa Rosa (Jesús Gómez Vázquez)", "lat": 21.059394, "lng": -101.73507
},{
"label": "Ninguno [Taller Mecánico]", "lat": 21.082888, "lng": -101.703489
},{
"label": "Valle de la Joya", "lat": 21.154775, "lng": -101.753149
},{
"label": "Rancho Deli", "lat": 21.006953, "lng": -101.700776
},{
"label": "Santa Rita [La Gasolinera]", "lat": 20.943939, "lng": -101.712903
},{
"label": "Pelayos", "lat": 20.978834, "lng": -101.605715
},{
"label": "Fracción los Ramírez (Granja Lucy)", "lat": 20.994712, "lng": -101.656499
},{
"label": "Fracción Providencia (San Rafael)", "lat": 21.045872, "lng": -101.652733
},{
"label": "Las Dos Aguas", "lat": 21.236937, "lng": -101.753371
},{
"label": "San Pedro del Monte (El Hospital)", "lat": 21.040698, "lng": -101.711292
}]