[{
"label": "El Tepame", "lat": 20.117933, "lng": -101.216254
},{
"label": "Monte de los Olivos (Las Flores)", "lat": 20.090253, "lng": -101.204104
},{
"label": "Granja el Jinete", "lat": 20.117654, "lng": -101.21081
},{
"label": "La Yácata", "lat": 20.109918, "lng": -101.225818
},{
"label": "Piñícuaro", "lat": 20.048105, "lng": -101.239162
},{
"label": "Ninguno [Lienzo Charro]", "lat": 20.111797, "lng": -101.2289
},{
"label": "Amoles", "lat": 20.055638, "lng": -101.308408
},{
"label": "Cepio", "lat": 20.081118, "lng": -101.20741
},{
"label": "El Salto", "lat": 20.048964, "lng": -101.184249
},{
"label": "Llano Verde", "lat": 20.109401, "lng": -101.221451
},{
"label": "Las Peñas", "lat": 20.098296, "lng": -101.244046
},{
"label": "La Ordeña", "lat": 20.100124, "lng": -101.28025
},{
"label": "Quiahuyo", "lat": 20.130761, "lng": -101.24609
},{
"label": "La Barranca", "lat": 20.079418, "lng": -101.236785
},{
"label": "Cuanamuco", "lat": 20.054084, "lng": -101.217971
},{
"label": "Las Cútucuas", "lat": 20.093131, "lng": -101.218917
},{
"label": "Calderón", "lat": 20.133775, "lng": -101.216529
},{
"label": "Chilapa", "lat": 20.14907, "lng": -101.262669
},{
"label": "Ninguno [Trinidad López]", "lat": 20.117131, "lng": -101.225458
},{
"label": "Fraccionamiento la Cuesta del Sol", "lat": 20.141424, "lng": -101.225321
},{
"label": "La Cruz", "lat": 20.118827, "lng": -101.220786
},{
"label": "Potrero la Raya", "lat": 20.069306, "lng": -101.275063
},{
"label": "La Loma", "lat": 20.076441, "lng": -101.250979
},{
"label": "El Huanumo", "lat": 20.109329, "lng": -101.185827
},{
"label": "El Corralón", "lat": 20.13372, "lng": -101.224039
},{
"label": "El Capulín", "lat": 20.097338, "lng": -101.211849
},{
"label": "Caricheo", "lat": 20.108507, "lng": -101.243408
},{
"label": "Santa Gertrudis", "lat": 20.065834, "lng": -101.290773
},{
"label": "Jardines de la Eternidad", "lat": 20.134249, "lng": -101.232548
},{
"label": "Ninguno", "lat": 20.107591, "lng": -101.2081
},{
"label": "Valle Paraíso [Fraccionamiento]", "lat": 20.117506, "lng": -101.229297
},{
"label": "El Cinco", "lat": 20.104673, "lng": -101.218022
},{
"label": "Moroleón", "lat": 20.13187, "lng": -101.189209
},{
"label": "La Soledad", "lat": 20.089655, "lng": -101.198737
},{
"label": "Ojo de Agua de en Medio", "lat": 20.136289, "lng": -101.25885
},{
"label": "Rinconadas del Bosque", "lat": 20.085774, "lng": -101.198339
},{
"label": "Rancho Nuevo", "lat": 20.035995, "lng": -101.229349
},{
"label": "Pamaseo", "lat": 20.09768, "lng": -101.26877
},{
"label": "Colonia el Llavero", "lat": 20.09509, "lng": -101.217733
}]