[{
"label": "El Sartenejo (Eleazar Hernández)", "lat": 20.33887, "lng": -100.704738
},{
"label": "La Presa Vieja", "lat": 20.290423, "lng": -100.739419
},{
"label": "Fracción de Buenavista (Rancho Arenas)", "lat": 20.363337, "lng": -100.774063
},{
"label": "Providencia de Cacalote", "lat": 20.346212, "lng": -100.789876
},{
"label": "Rancho el Borrego (Domingo Rodríguez Noyda)", "lat": 20.391022, "lng": -100.701964
},{
"label": "Rancho el Conejo", "lat": 20.288101, "lng": -100.790138
},{
"label": "Las Agujas (Providencia)", "lat": 20.248753, "lng": -100.750136
},{
"label": "El Carrizo", "lat": 20.3793, "lng": -100.671505
},{
"label": "Quinta el Mirador", "lat": 20.255266, "lng": -100.759244
},{
"label": "La Primavera", "lat": 20.255206, "lng": -100.797888
},{
"label": "Buenavista", "lat": 20.346463, "lng": -100.782856
},{
"label": "Javier Jiménez Tirado", "lat": 20.360204, "lng": -100.781716
},{
"label": "El Cuervo", "lat": 20.288984, "lng": -100.777546
},{
"label": "Los Vegas (Pedro Parra)", "lat": 20.214333, "lng": -100.7492
},{
"label": "Rancho de Guadalupe (Las Casas Coloradas)", "lat": 20.238822, "lng": -100.747675
},{
"label": "Guadalupe Govea Hernández", "lat": 20.344636, "lng": -100.79939
},{
"label": "El Montecillo", "lat": 20.283889, "lng": -100.796944
},{
"label": "Noria de San Isidro (Providencia de la Noria)", "lat": 20.337765, "lng": -100.782669
},{
"label": "El Alambrado", "lat": 20.287688, "lng": -100.745808
},{
"label": "Serafín Jiménez Tirado", "lat": 20.358254, "lng": -100.772077
},{
"label": "La Mezquitada", "lat": 20.264629, "lng": -100.751659
},{
"label": "La Noria del Agua", "lat": 20.34051, "lng": -100.793282
},{
"label": "Tamayo [Acabados Finos]", "lat": 20.351936, "lng": -100.803528
},{
"label": "Camilo Ortiz Lara", "lat": 20.269722, "lng": -100.758056
},{
"label": "El Cerrito (FOVISSSTE)", "lat": 20.292074, "lng": -100.746578
},{
"label": "Cuadrilla de Cacalote (La Cuadrilla)", "lat": 20.331647, "lng": -100.801761
},{
"label": "Tarimoro", "lat": 20.288541, "lng": -100.755942
},{
"label": "Guadalupe", "lat": 20.400038, "lng": -100.709492
},{
"label": "La Cuesta", "lat": 20.323939, "lng": -100.72789
},{
"label": "El Arenal", "lat": 20.285741, "lng": -100.82638
},{
"label": "Jaime Ortega", "lat": 20.306521, "lng": -100.753926
},{
"label": "Los Huesos", "lat": 20.382222, "lng": -100.733056
},{
"label": "Las Palmas", "lat": 20.331307, "lng": -100.711393
},{
"label": "El Azul", "lat": 20.361114, "lng": -100.710173
},{
"label": "El Retiro", "lat": 20.318971, "lng": -100.785709
},{
"label": "Ramiro Morales", "lat": 20.274512, "lng": -100.742351
},{
"label": "La Huerta de Gallegos", "lat": 20.287224, "lng": -100.742594
},{
"label": "El Rojo", "lat": 20.285441, "lng": -100.793616
},{
"label": "El Ranchito", "lat": 20.288641, "lng": -100.738801
},{
"label": "El Romerillo", "lat": 20.218917, "lng": -100.761728
},{
"label": "Tío Ligio", "lat": 20.287241, "lng": -100.768875
},{
"label": "Parque Hermanos Mendoza", "lat": 20.248858, "lng": -100.739669
},{
"label": "El Acebuche [Avícola]", "lat": 20.257394, "lng": -100.755702
},{
"label": "Ashram 20 (Gran Fraternidad)", "lat": 20.295294, "lng": -100.74268
},{
"label": "Cañada de Tirados de Arriba", "lat": 20.298946, "lng": -100.68762
},{
"label": "Potrero del Gallo", "lat": 20.273628, "lng": -100.821135
},{
"label": "La Bóveda", "lat": 20.320258, "lng": -100.753876
},{
"label": "Los Hernández (La Huerta)", "lat": 20.270202, "lng": -100.756776
},{
"label": "Lourdes Paredes", "lat": 20.279718, "lng": -100.780181
},{
"label": "Las Piedras", "lat": 20.363338, "lng": -100.666488
},{
"label": "Minillas", "lat": 20.33698, "lng": -100.684351
},{
"label": "Charco Largo", "lat": 20.27253, "lng": -100.812567
},{
"label": "El Rojo (El Colorado)", "lat": 20.232967, "lng": -100.746447
},{
"label": "La Piedra", "lat": 20.251015, "lng": -100.797408
},{
"label": "El Acebuche", "lat": 20.222905, "lng": -100.743539
},{
"label": "La Moncada", "lat": 20.283233, "lng": -100.805499
},{
"label": "La Nopalera", "lat": 20.376652, "lng": -100.659359
},{
"label": "El Diamante (Miguel Uribe Álvarez)", "lat": 20.263502, "lng": -100.808352
},{
"label": "La Noria de Gallegos", "lat": 20.338813, "lng": -100.783159
},{
"label": "El Saucillo (Juan Gregorio)", "lat": 20.260556, "lng": -100.763611
},{
"label": "Cerro Prieto", "lat": 20.373324, "lng": -100.773609
},{
"label": "Aurelio Jiménez", "lat": 20.274998, "lng": -100.783696
},{
"label": "Las Fuentes (Los Ticos)", "lat": 20.233584, "lng": -100.742178
},{
"label": "Los Fierros", "lat": 20.193348, "lng": -100.761457
},{
"label": "El Toro", "lat": 20.35822, "lng": -100.672677
},{
"label": "La Huerta", "lat": 20.277639, "lng": -100.762384
},{
"label": "Cañada de Tirados de Abajo", "lat": 20.295535, "lng": -100.696904
},{
"label": "Huapango", "lat": 20.365316, "lng": -100.683394
},{
"label": "Granja María del Carmen", "lat": 20.288752, "lng": -100.769249
},{
"label": "Ninguno [Avícola]", "lat": 20.254698, "lng": -100.751874
},{
"label": "Número 17 [Granja Avícola]", "lat": 20.259541, "lng": -100.760916
},{
"label": "La Presa del Cubo", "lat": 20.294883, "lng": -100.738199
},{
"label": "El Gallo", "lat": 20.283895, "lng": -100.820307
},{
"label": "Las Jaras", "lat": 20.276389, "lng": -100.836111
},{
"label": "El Chorreadero (El Francés)", "lat": 20.27652, "lng": -100.794062
},{
"label": "La Chabelita (Bonanza) [Granja]", "lat": 20.297626, "lng": -100.715079
},{
"label": "Casa de Oración, Silencio y Paz", "lat": 20.303916, "lng": -100.815267
},{
"label": "Providencia de Guadalupe (El Terreno)", "lat": 20.236769, "lng": -100.751389
},{
"label": "Ex-Hacienda los Remedios", "lat": 20.263637, "lng": -100.784753
},{
"label": "Corral de Animales", "lat": 20.229554, "lng": -100.743494
},{
"label": "Loma Bonita (El Cerrito)", "lat": 20.298654, "lng": -100.746414
},{
"label": "Los Pinos", "lat": 20.291699, "lng": -100.782016
},{
"label": "Capilla la Cruz del Padre", "lat": 20.34561, "lng": -100.806576
},{
"label": "Cándido González Rodríguez", "lat": 20.347105, "lng": -100.775254
},{
"label": "Los Martínez", "lat": 20.350956, "lng": -100.777358
},{
"label": "Ojo de Agua de Nieto", "lat": 20.317641, "lng": -100.703718
},{
"label": "Tlalixcoya", "lat": 20.397299, "lng": -100.675757
},{
"label": "Guadalupe (Francisco Rosillo)", "lat": 20.183683, "lng": -100.749458
},{
"label": "Rafael Robles Ramos", "lat": 20.355938, "lng": -100.797061
},{
"label": "De Lara", "lat": 20.308341, "lng": -100.771709
},{
"label": "Villa Elvira", "lat": 20.253259, "lng": -100.788777
},{
"label": "Galera de Panales", "lat": 20.296141, "lng": -100.813408
},{
"label": "Las Carmelitas", "lat": 20.294029, "lng": -100.747131
},{
"label": "Hacienda Vieja", "lat": 20.241942, "lng": -100.738558
},{
"label": "El Durazno", "lat": 20.296775, "lng": -100.721064
},{
"label": "El Reparo", "lat": 20.34365, "lng": -100.70167
},{
"label": "El Molino", "lat": 20.291169, "lng": -100.745275
},{
"label": "Centro Linda Vista", "lat": 20.306551, "lng": -100.751886
},{
"label": "San Nicolás de la Condesa", "lat": 20.233639, "lng": -100.781775
},{
"label": "Moisés Martínez", "lat": 20.265831, "lng": -100.760604
},{
"label": "El Terrero", "lat": 20.354745, "lng": -100.705083
},{
"label": "La Esperanza", "lat": 20.215309, "lng": -100.735133
},{
"label": "Providencia de la Esperanza", "lat": 20.214814, "lng": -100.741397
},{
"label": "Rancho 18 de Marzo", "lat": 20.352533, "lng": -100.802094
},{
"label": "San Juan Bautista Cacalote", "lat": 20.346735, "lng": -100.789363
},{
"label": "Los Órganos", "lat": 20.279519, "lng": -100.831896
},{
"label": "Llano Grande", "lat": 20.370886, "lng": -100.736301
},{
"label": "Santa Rosa de Lima", "lat": 20.388769, "lng": -100.724244
},{
"label": "San Nicolás de los Vegas (San Nicolasillo)", "lat": 20.254404, "lng": -100.779828
},{
"label": "La Salud", "lat": 20.312976, "lng": -100.814263
},{
"label": "El Fénix", "lat": 20.179391, "lng": -100.739763
},{
"label": "La Tiendita", "lat": 20.260351, "lng": -100.831878
},{
"label": "Panales Jamaica (Cañones)", "lat": 20.295541, "lng": -100.821548
},{
"label": "El Venado", "lat": 20.321594, "lng": -100.738306
},{
"label": "El Beato", "lat": 20.391551, "lng": -100.721929
}]