[{
"label": "Colonia San Antonio", "lat": 20.1232, "lng": -101.348594
},{
"label": "La Tinaja del Coyote", "lat": 20.116093, "lng": -101.040261
},{
"label": "Las Garzas", "lat": 20.216667, "lng": -101.070941
},{
"label": "Tejocote de Pastores", "lat": 20.115624, "lng": -101.062524
},{
"label": "Aragón", "lat": 20.106783, "lng": -101.35202
},{
"label": "Santa Mónica Ozumbilla", "lat": 20.145263, "lng": -101.280243
},{
"label": "Ocurio", "lat": 20.213202, "lng": -101.309341
},{
"label": "El Sauz", "lat": 20.1235, "lng": -101.38871
},{
"label": "Moisés Alcántar", "lat": 20.212778, "lng": -101.150278
},{
"label": "Cerano (San Juan Cerano)", "lat": 20.107941, "lng": -101.386752
},{
"label": "Puesto de Agua Fría (La Mojina)", "lat": 20.152909, "lng": -101.073187
},{
"label": "Los Alcántar", "lat": 20.136316, "lng": -101.386099
},{
"label": "Tierra Blanca", "lat": 20.216602, "lng": -101.225335
},{
"label": "Cerécuaro", "lat": 20.051822, "lng": -101.3436
},{
"label": "Potrero Grande de Parangarico", "lat": 20.217276, "lng": -101.162415
},{
"label": "Rancho Viejo de Pastores", "lat": 20.163038, "lng": -101.034966
},{
"label": "Las Mesas", "lat": 20.068206, "lng": -101.363808
},{
"label": "Santa Lucía", "lat": 20.15, "lng": -101.078889
},{
"label": "Cuerunero", "lat": 20.251027, "lng": -101.248474
},{
"label": "San José Otonguitiro", "lat": 20.09751, "lng": -101.402194
},{
"label": "Rancho de Geras", "lat": 20.210169, "lng": -101.067599
},{
"label": "Ejido de Parangarico (La Y Griega)", "lat": 20.198465, "lng": -101.151159
},{
"label": "Colonia México", "lat": 20.207182, "lng": -101.15525
},{
"label": "Las Rosas", "lat": 20.152288, "lng": -101.083088
},{
"label": "San Pablo Casacuarán", "lat": 20.198347, "lng": -101.042379
},{
"label": "El Timbinal", "lat": 20.093423, "lng": -101.048568
},{
"label": "La Hacienda de la Flor", "lat": 20.226111, "lng": -101.099722
},{
"label": "Buenavista de la Libertad", "lat": 20.284516, "lng": -101.301744
},{
"label": "Monte de los Juárez", "lat": 20.182927, "lng": -101.250267
},{
"label": "El Moralito", "lat": 20.132259, "lng": -101.296392
},{
"label": "La Cruz del Niño", "lat": 20.03337, "lng": -101.348616
},{
"label": "José Páez Quijano (La Casa Grande)", "lat": 20.221502, "lng": -101.100556
},{
"label": "La Cumbita (Hermanos Alcántar)", "lat": 20.214649, "lng": -101.154699
},{
"label": "Joaquín Ramírez", "lat": 20.208056, "lng": -101.147222
},{
"label": "La Pila", "lat": 20.123218, "lng": -101.012244
},{
"label": "Cerrito de Irapio", "lat": 20.203369, "lng": -101.150411
},{
"label": "Martín Chaca (La Joya)", "lat": 20.199608, "lng": -101.133031
},{
"label": "Ninguno", "lat": 20.224485, "lng": -101.112021
},{
"label": "Primero de Abril (La Venta)", "lat": 20.199881, "lng": -101.177127
},{
"label": "Puerto del Águila", "lat": 20.265334, "lng": -101.329136
},{
"label": "Tinaja de Pastores", "lat": 20.195906, "lng": -101.061693
},{
"label": "Los Ócalos", "lat": 20.222117, "lng": -101.122164
},{
"label": "Ochomitas", "lat": 20.224437, "lng": -101.205844
},{
"label": "Tercera Fracción de los Morales", "lat": 20.129943, "lng": -101.384146
},{
"label": "La Faja", "lat": 20.187736, "lng": -101.247738
},{
"label": "Santa Rosa", "lat": 20.217408, "lng": -101.178636
},{
"label": "El Llano de Parangarico", "lat": 20.206139, "lng": -101.164694
},{
"label": "Providencia de Calera", "lat": 20.184584, "lng": -101.39024
},{
"label": "San Isidro Calera", "lat": 20.144526, "lng": -101.338038
},{
"label": "El Pastor", "lat": 20.237599, "lng": -101.276984
},{
"label": "El Velador", "lat": 20.206189, "lng": -101.254468
},{
"label": "Tierra Amarilla", "lat": 20.17704, "lng": -101.148641
},{
"label": "Ninguno [La Bodega]", "lat": 20.119982, "lng": -101.367174
},{
"label": "El Cimental (Hacienda del Cimental)", "lat": 20.257927, "lng": -101.311227
},{
"label": "San Vicente Sabino Dos", "lat": 20.260774, "lng": -101.219626
},{
"label": "El Pochote", "lat": 20.219868, "lng": -101.155138
},{
"label": "San Francisco de la Cruz", "lat": 20.213751, "lng": -101.201123
},{
"label": "Corrales", "lat": 20.034307, "lng": -101.333728
},{
"label": "San Carlos", "lat": 20.204177, "lng": -101.07688
},{
"label": "El Moral", "lat": 20.127198, "lng": -101.289064
},{
"label": "Puerto de Porullo", "lat": 20.187858, "lng": -101.114262
},{
"label": "La Mojonera", "lat": 20.222825, "lng": -101.101704
},{
"label": "Cañada de Pastores", "lat": 20.127446, "lng": -101.094365
},{
"label": "La Punta (Montecillo y Punta)", "lat": 20.197509, "lng": -101.263588
},{
"label": "San Vicente Sabino", "lat": 20.248211, "lng": -101.222053
},{
"label": "Las Crucitas", "lat": 20.135796, "lng": -101.090418
},{
"label": "Santiaguillo", "lat": 20.218593, "lng": -101.089511
},{
"label": "Ojos de Agua de Córdoba", "lat": 20.274258, "lng": -101.263324
},{
"label": "Palo Alto", "lat": 20.248192, "lng": -101.300921
},{
"label": "La Cabaña de los Tepamez", "lat": 20.173989, "lng": -101.156096
},{
"label": "El Moro", "lat": 20.200145, "lng": -101.30934
},{
"label": "Loma de Zempoala", "lat": 20.291046, "lng": -101.080863
},{
"label": "El Salteador", "lat": 20.138719, "lng": -101.077882
},{
"label": "La Finca", "lat": 20.214668, "lng": -101.05474
},{
"label": "Juan Lucas", "lat": 20.181999, "lng": -101.307073
},{
"label": "La Angostura", "lat": 20.277989, "lng": -101.110848
},{
"label": "San Felipe", "lat": 20.049966, "lng": -101.321264
},{
"label": "Agua Fría", "lat": 20.156642, "lng": -101.067213
},{
"label": "Laguna Prieta", "lat": 20.21824, "lng": -101.346559
},{
"label": "San Andrés Calera", "lat": 20.158589, "lng": -101.385044
},{
"label": "Puquichapio", "lat": 20.237279, "lng": -101.207357
},{
"label": "Cahuilote", "lat": 20.2075, "lng": -101.260556
},{
"label": "Ampliación Parangarico", "lat": 20.209789, "lng": -101.161478
},{
"label": "Potrero Nuevo", "lat": 20.209608, "lng": -101.241059
},{
"label": "La Calera", "lat": 20.156172, "lng": -101.339486
},{
"label": "San Gregorio", "lat": 20.211735, "lng": -101.08042
},{
"label": "Gabriel Calderón Aguilera", "lat": 20.220828, "lng": -101.096939
},{
"label": "La Purísima", "lat": 20.20565, "lng": -101.232706
},{
"label": "Yuriria", "lat": 20.212743, "lng": -101.130933
},{
"label": "5 de Mayo", "lat": 20.205368, "lng": -101.147889
},{
"label": "San Cayetano", "lat": 20.182776, "lng": -101.150479
},{
"label": "San Aparicio", "lat": 20.136433, "lng": -101.075343
},{
"label": "Buenavista (Buena Vista de Cerano)", "lat": 20.070806, "lng": -101.367276
},{
"label": "Las Rosas (La Mina)", "lat": 20.151461, "lng": -101.092862
},{
"label": "El Palo Dusal", "lat": 20.203259, "lng": -101.238671
},{
"label": "Zepeda", "lat": 20.125347, "lng": -101.064637
},{
"label": "Puerta de Cerano", "lat": 20.133933, "lng": -101.304883
},{
"label": "El Granjenal", "lat": 20.230125, "lng": -101.160298
},{
"label": "Los Mora", "lat": 20.218922, "lng": -101.122754
},{
"label": "San Andrés Enguaro", "lat": 20.195359, "lng": -101.236502
},{
"label": "Jacales", "lat": 20.118997, "lng": -101.372322
},{
"label": "El Tigre", "lat": 20.234538, "lng": -101.269186
},{
"label": "La Soledad de Cuerunero", "lat": 20.247724, "lng": -101.253599
},{
"label": "San Vicente Joyuela", "lat": 20.244511, "lng": -101.222821
},{
"label": "Antonio González Torres (La Granja)", "lat": 20.230073, "lng": -101.196258
},{
"label": "El Canario", "lat": 20.155066, "lng": -101.336741
},{
"label": "Granja de García", "lat": 20.244682, "lng": -101.232457
},{
"label": "Ojos de Agua de Cerano", "lat": 20.107856, "lng": -101.365144
},{
"label": "Ninguno [Carretera Salvatierra-Yuriria Kilómetro 19.8]", "lat": 20.217383, "lng": -101.0638
},{
"label": "Providencia de Cuerunero", "lat": 20.251628, "lng": -101.2446
},{
"label": "Españita", "lat": 20.101793, "lng": -101.019776
},{
"label": "Cerrito de Gómez", "lat": 20.247468, "lng": -101.276015
},{
"label": "El Puertecito de Tránsito", "lat": 20.089722, "lng": -101.035556
},{
"label": "San Vicente Zapote", "lat": 20.246724, "lng": -101.223346
},{
"label": "Porullo", "lat": 20.167954, "lng": -101.096827
},{
"label": "El Molino", "lat": 20.203326, "lng": -101.114955
},{
"label": "Los Tepetates", "lat": 20.28288, "lng": -101.095402
},{
"label": "Merino", "lat": 20.159888, "lng": -101.367873
},{
"label": "San Nicolás Cuerunero", "lat": 20.248854, "lng": -101.251692
},{
"label": "El Zorrillo", "lat": 20.120278, "lng": -101.373889
},{
"label": "Malpaís", "lat": 20.168469, "lng": -101.072653
},{
"label": "San Gabriel", "lat": 20.243561, "lng": -101.254328
},{
"label": "Zapotitos", "lat": 20.171309, "lng": -101.08248
},{
"label": "Xoconoxtle", "lat": 20.240494, "lng": -101.290052
},{
"label": "Tejocote de Calera", "lat": 20.180358, "lng": -101.396132
},{
"label": "El Cano (La Carretera Vieja)", "lat": 20.200164, "lng": -101.242578
},{
"label": "El Potrero Grande (El Confite)", "lat": 20.218847, "lng": -101.171964
},{
"label": "El Colloncle", "lat": 20.220556, "lng": -101.116944
},{
"label": "San Vicente Ciénega", "lat": 20.207736, "lng": -101.238247
},{
"label": "Rodríguez [Taller Mecánico]", "lat": 20.15933, "lng": -101.321892
},{
"label": "La Virgen", "lat": 20.205691, "lng": -101.190722
},{
"label": "Los Cerna (La Yácata)", "lat": 20.166944, "lng": -101.294722
},{
"label": "San José de Gracia", "lat": 20.191947, "lng": -101.2485
},{
"label": "San Miguel el Alto (San Miguelito)", "lat": 20.209025, "lng": -101.178734
},{
"label": "Orúcuaro", "lat": 20.19108, "lng": -101.181563
},{
"label": "La Aldea", "lat": 20.196131, "lng": -101.141297
},{
"label": "El Bosque", "lat": 20.275569, "lng": -101.259414
},{
"label": "Colonia del Armadillo", "lat": 20.253443, "lng": -101.237779
},{
"label": "Parangarico", "lat": 20.190723, "lng": -101.167283
}]