[{
"label": "Polka (Estación Polka)", "lat": 27.039828, "lng": -101.721422
},{
"label": "La Herradura (Alejandro Menchaca de la O.)", "lat": 27.055944, "lng": -101.819298
},{
"label": "Los Nogales", "lat": 27.067221, "lng": -101.803268
},{
"label": "La Casa de la Pila", "lat": 27.091581, "lng": -101.979346
},{
"label": "El Molino Viejo (Enrique Miller)", "lat": 27.076175, "lng": -101.811317
},{
"label": "La Piedra (Romeo Menchaca Flores)", "lat": 27.059159, "lng": -101.813248
},{
"label": "El Marqués de Aguayo (Los Ojos de Adriana)", "lat": 27.232954, "lng": -101.861685
},{
"label": "Lamadrid", "lat": 27.048494, "lng": -101.793599
},{
"label": "Efraín Sosa", "lat": 27.062292, "lng": -101.800467
},{
"label": "José Armendáriz Esquivel", "lat": 27.13578, "lng": -101.908931
},{
"label": "El Cariño de la Montaña", "lat": 27.0353, "lng": -101.723142
},{
"label": "Amadeo Moya Vázquez", "lat": 27.041286, "lng": -101.795456
},{
"label": "Los Álamos", "lat": 27.147896, "lng": -101.880764
},{
"label": "Ricardo Octavio Múzquiz (El Marqués de A.)", "lat": 27.217042, "lng": -101.851392
},{
"label": "Doctor Martínez", "lat": 27.0254, "lng": -101.817746
},{
"label": "José Luis Linaje", "lat": 27.033196, "lng": -101.815926
},{
"label": "Los Compadres (Luis Cantú)", "lat": 27.046786, "lng": -101.728333
},{
"label": "Fito Guajardo", "lat": 27.146009, "lng": -101.879198
},{
"label": "Potrero de Menchaca (Jaime García Sánchez)", "lat": 27.168164, "lng": -101.914991
},{
"label": "El Apache", "lat": 27.055333, "lng": -101.75014
},{
"label": "San Marcos", "lat": 27.047316, "lng": -101.733399
},{
"label": "El Hake (Eduardo Harb Karam)", "lat": 27.072775, "lng": -101.807089
},{
"label": "Los Barrios", "lat": 27.073366, "lng": -101.793046
},{
"label": "El Camarón", "lat": 27.060392, "lng": -101.779436
},{
"label": "Lomas del Aire (Luis Enrique Miller)", "lat": 27.047008, "lng": -101.730869
},{
"label": "Potrero de Menchaca (Manuel Zertuche)", "lat": 27.17265, "lng": -101.921556
},{
"label": "Carranza (Américo Carranza Romo)", "lat": 27.030104, "lng": -101.814289
},{
"label": "Pedro Antonio Flores M.", "lat": 27.043369, "lng": -101.798219
},{
"label": "Refugio Garibay", "lat": 27.030499, "lng": -101.816442
},{
"label": "El Rincón (Potrero de Menchaca)", "lat": 27.194303, "lng": -101.968063
},{
"label": "Los Pinos", "lat": 27.080627, "lng": -101.813069
},{
"label": "Alejandro Menchaca", "lat": 27.163258, "lng": -101.909412
},{
"label": "Enrique Neaves Muñoz", "lat": 27.069916, "lng": -101.805683
},{
"label": "El Marqués de A. (Santa Elena del Marqués)", "lat": 27.156915, "lng": -101.817003
},{
"label": "Potrero de Menchaca (Rosemberg Menchaca)", "lat": 27.162349, "lng": -101.926658
},{
"label": "San Gerardo", "lat": 27.04469, "lng": -101.755718
},{
"label": "Gilberto Zaragoza Rivera Flores", "lat": 27.059078, "lng": -101.810788
}]