[{
"label": "Morelos (González Herrera)", "lat": 25.500303, "lng": -103.121219
},{
"label": "Pozo Dos Mil Veinticinco Solís", "lat": 25.636721, "lng": -103.246618
},{
"label": "Rancho de Afuera", "lat": 25.626097, "lng": -103.360116
},{
"label": "Quintas Isabeles", "lat": 25.51353, "lng": -103.183249
},{
"label": "Solima Número Uno", "lat": 25.63892, "lng": -103.280979
},{
"label": "San Julián", "lat": 25.441931, "lng": -103.302763
},{
"label": "Nuevo México", "lat": 25.433203, "lng": -103.11605
},{
"label": "Noria de Compuertas (El Ranchito)", "lat": 25.722978, "lng": -103.312625
},{
"label": "Arnulfo Cuetero", "lat": 25.426333, "lng": -103.213986
},{
"label": "El Pacífico", "lat": 25.470799, "lng": -103.328159
},{
"label": "Nuevo Mieleras (La Tres)", "lat": 25.440941, "lng": -103.33333
},{
"label": "Noria Sector Cinco Solima", "lat": 25.651358, "lng": -103.286892
},{
"label": "Sector Tres el Consuelo", "lat": 25.573767, "lng": -103.262148
},{
"label": "Quintas Hacienda", "lat": 25.515014, "lng": -103.181486
},{
"label": "El Tejabán", "lat": 25.762421, "lng": -103.228058
},{
"label": "Tierra Blanca", "lat": 25.419161, "lng": -103.311644
},{
"label": "Noacan (No que No)", "lat": 25.389701, "lng": -103.312507
},{
"label": "Los Ángeles", "lat": 25.69674, "lng": -103.257264
},{
"label": "Villamar (Simón Bolívar)", "lat": 25.549122, "lng": -103.243669
},{
"label": "San Martín de la Cabaña", "lat": 25.37922, "lng": -103.335831
},{
"label": "San Antonio Nadadores", "lat": 25.417364, "lng": -103.179772
},{
"label": "Noria el Alto Santo Tomás", "lat": 25.543828, "lng": -103.255883
},{
"label": "La Sociedad (La Local)", "lat": 25.458701, "lng": -103.148524
},{
"label": "Morelos Once (El Edén)", "lat": 25.514505, "lng": -103.189496
},{
"label": "El Faro", "lat": 25.386856, "lng": -103.322831
},{
"label": "Petronilas", "lat": 25.452995, "lng": -103.10797
},{
"label": "La Báscula [Agroindustrializados]", "lat": 25.509078, "lng": -103.221693
},{
"label": "José Juan Solís Velázquez", "lat": 25.637403, "lng": -103.340714
},{
"label": "La Fortuna", "lat": 25.491303, "lng": -103.158606
},{
"label": "Noria Cuatro Purísima", "lat": 25.680827, "lng": -103.313243
},{
"label": "Veredas de San Miguel", "lat": 25.517769, "lng": -103.311225
},{
"label": "Morelos Siete", "lat": 25.551902, "lng": -103.194455
},{
"label": "El Veinte de Octubre", "lat": 25.534968, "lng": -103.166027
},{
"label": "Solima Número Dos (El Relámpago)", "lat": 25.625838, "lng": -103.287129
},{
"label": "Los Quince", "lat": 25.445887, "lng": -103.200189
},{
"label": "La Libertad", "lat": 25.733272, "lng": -103.249136
},{
"label": "La Palma", "lat": 25.474408, "lng": -103.236981
},{
"label": "Guadalupe", "lat": 25.473127, "lng": -103.181615
},{
"label": "Breka (Sector Cuatro Andalucía)", "lat": 25.568068, "lng": -103.232777
},{
"label": "La Noria de San Isidro", "lat": 25.42585, "lng": -103.180953
},{
"label": "Filipinas (Lampacitos)", "lat": 25.466364, "lng": -103.239314
},{
"label": "Pénjamo", "lat": 25.442158, "lng": -103.163011
},{
"label": "Entrada al Cuije", "lat": 25.703282, "lng": -103.329074
},{
"label": "Las Dos Marías", "lat": 25.539187, "lng": -103.213246
},{
"label": "Noria Número Tres Ejido San Miguel", "lat": 25.561411, "lng": -103.300996
},{
"label": "El Pilar", "lat": 25.717584, "lng": -103.349986
},{
"label": "La Gavia", "lat": 25.63763, "lng": -103.338326
},{
"label": "Ignacio Zaragoza (La Crisis)", "lat": 25.560101, "lng": -103.194191
},{
"label": "Santa Clara", "lat": 25.469869, "lng": -103.216992
},{
"label": "Noacan", "lat": 25.399678, "lng": -103.310791
},{
"label": "Solís", "lat": 25.627151, "lng": -103.224065
},{
"label": "Maravillas [Establo]", "lat": 25.651269, "lng": -103.330118
},{
"label": "Congregación Sacrificio (El Dólar)", "lat": 25.425052, "lng": -103.220848
},{
"label": "Perales", "lat": 25.518677, "lng": -103.302487
},{
"label": "El Pilar (Vigo)", "lat": 25.720774, "lng": -103.322465
},{
"label": "Solima Número Dos (Las Moras)", "lat": 25.631529, "lng": -103.279657
},{
"label": "Benavides (Morelos Uno)", "lat": 25.507331, "lng": -103.16981
},{
"label": "Los Postes Cuates", "lat": 25.706983, "lng": -103.279139
},{
"label": "Noria de Irlanda (Diecinueve Diez)", "lat": 25.42925, "lng": -103.252086
},{
"label": "Irlanda", "lat": 25.447364, "lng": -103.245056
},{
"label": "San Pablo Guelatao", "lat": 25.447464, "lng": -103.241814
},{
"label": "Santa Brígida", "lat": 25.475917, "lng": -103.145386
},{
"label": "La Piedad", "lat": 25.515392, "lng": -103.162869
},{
"label": "El Cambio", "lat": 25.642004, "lng": -103.326754
},{
"label": "Sector Cuatro Santa Ana del Pilar", "lat": 25.728658, "lng": -103.321247
},{
"label": "La Finca de Lorena", "lat": 25.680989, "lng": -103.335908
},{
"label": "Noria Sector Dos la Luz", "lat": 25.715303, "lng": -103.225591
},{
"label": "Noria Elena", "lat": 25.471694, "lng": -103.226786
},{
"label": "Las Lauras", "lat": 25.736163, "lng": -103.313706
},{
"label": "Santo Niño Aguanaval", "lat": 25.431884, "lng": -103.279169
},{
"label": "Rancho Negro", "lat": 25.444687, "lng": -103.176437
},{
"label": "Sector Dos Andalucía", "lat": 25.565199, "lng": -103.225515
},{
"label": "Fraccionamiento Residencial 21", "lat": 25.636834, "lng": -103.345668
},{
"label": "Vicente Guerrero", "lat": 25.611243, "lng": -103.213771
},{
"label": "Noria de Tilde", "lat": 25.625472, "lng": -103.304184
},{
"label": "Guadalupe [Establo]", "lat": 25.750805, "lng": -103.226964
},{
"label": "Sector Seis Purísima", "lat": 25.650494, "lng": -103.293692
},{
"label": "Nogales de la Laguna", "lat": 25.695979, "lng": -103.279175
},{
"label": "El Parreño", "lat": 25.525487, "lng": -103.177779
},{
"label": "Sector Dos Purísima", "lat": 25.670353, "lng": -103.319479
},{
"label": "Santa Cecilia", "lat": 25.43883, "lng": -103.308474
},{
"label": "El Rincón", "lat": 25.415467, "lng": -103.155525
},{
"label": "San Francisco Aguanaval", "lat": 25.421031, "lng": -103.104932
},{
"label": "Matamoros", "lat": 25.528136, "lng": -103.230384
},{
"label": "El Fénix [Establo]", "lat": 25.692992, "lng": -103.292744
},{
"label": "El Fuerte", "lat": 25.705031, "lng": -103.298954
},{
"label": "La Isla de la Fantasía", "lat": 25.701494, "lng": -103.324803
},{
"label": "Potrero", "lat": 25.540162, "lng": -103.198154
},{
"label": "Sector Seis", "lat": 25.458771, "lng": -103.153651
},{
"label": "San Gerardo [Granja]", "lat": 25.677931, "lng": -103.348573
},{
"label": "La Noria Tres", "lat": 25.694035, "lng": -103.303418
},{
"label": "Cadereyta (Tres Hermanos)", "lat": 25.487105, "lng": -103.164409
},{
"label": "Jarinche", "lat": 25.500317, "lng": -103.109367
},{
"label": "La Huerfanita", "lat": 25.407872, "lng": -103.279561
},{
"label": "Veinte de Noviembre", "lat": 25.711981, "lng": -103.330342
},{
"label": "Gracielas A", "lat": 25.650478, "lng": -103.344475
},{
"label": "Aldali (La Aurora)", "lat": 25.668425, "lng": -103.345565
},{
"label": "Siti Logistics [Transportes]", "lat": 25.464884, "lng": -103.329775
},{
"label": "Morelos", "lat": 25.535902, "lng": -103.217692
},{
"label": "Cerralvo", "lat": 25.486311, "lng": -103.198883
},{
"label": "Parcelas de Hormiguero (Los Chiveros)", "lat": 25.674675, "lng": -103.338615
},{
"label": "San Julián (El Tejabán)", "lat": 25.44819, "lng": -103.301053
},{
"label": "Zaragoza", "lat": 25.48341, "lng": -103.188272
},{
"label": "La Pola", "lat": 25.417038, "lng": -103.323128
},{
"label": "El Cariño Veinte", "lat": 25.540851, "lng": -103.194933
},{
"label": "Jilimones", "lat": 25.66622, "lng": -103.26079
},{
"label": "Hormiguero", "lat": 25.682844, "lng": -103.342701
},{
"label": "Santa Ana del Pilar", "lat": 25.708741, "lng": -103.308479
},{
"label": "Noria de la Quemada (Noria de la Blanca)", "lat": 25.413729, "lng": -103.192588
},{
"label": "Quinta el Rosario", "lat": 25.522653, "lng": -103.287181
},{
"label": "La Arracada", "lat": 25.613259, "lng": -103.244703
},{
"label": "El Bastan", "lat": 25.463764, "lng": -103.107003
},{
"label": "El Campanario", "lat": 25.497702, "lng": -103.152151
},{
"label": "Los Alfredos Dos", "lat": 25.525091, "lng": -103.205552
},{
"label": "Quintas Rafaela", "lat": 25.517473, "lng": -103.182969
},{
"label": "La Casa Amarilla", "lat": 25.649935, "lng": -103.271259
},{
"label": "Granada", "lat": 25.641151, "lng": -103.267584
},{
"label": "José María Morelos (La Reforma)", "lat": 25.499124, "lng": -103.171607
},{
"label": "Las Bombas", "lat": 25.491853, "lng": -103.324441
},{
"label": "Las Palomas", "lat": 25.372864, "lng": -103.335528
},{
"label": "La Azufrera", "lat": 25.54858, "lng": -103.150853
},{
"label": "El Olivo", "lat": 25.522407, "lng": -103.290966
},{
"label": "Antonio Martínez", "lat": 25.542545, "lng": -103.199077
},{
"label": "Valverde", "lat": 25.428898, "lng": -103.149517
},{
"label": "Noria Número Dos del Ejido Buen Abrigo (La Selva)", "lat": 25.667383, "lng": -103.266024
},{
"label": "Noria Número Cinco Ejido San Miguel", "lat": 25.567616, "lng": -103.297474
},{
"label": "El Güero", "lat": 25.521648, "lng": -103.194942
},{
"label": "El Sacrificio", "lat": 25.429093, "lng": -103.208827
},{
"label": "Noria Sector Tres Veinte de Noviembre", "lat": 25.719629, "lng": -103.331378
},{
"label": "Nidia Edith", "lat": 25.641436, "lng": -103.345832
},{
"label": "La Flor Vieja (Los Meave)", "lat": 25.446936, "lng": -103.196576
},{
"label": "Noria Sector Catorce Veinte de Noviembre", "lat": 25.711087, "lng": -103.335082
},{
"label": "El Coyote", "lat": 25.651674, "lng": -103.254365
},{
"label": "El Dólar", "lat": 25.417346, "lng": -103.310122
},{
"label": "Texcoco", "lat": 25.482314, "lng": -103.281847
},{
"label": "Tito Quintanal Morales", "lat": 25.541717, "lng": -103.209726
},{
"label": "Noria el Estanque", "lat": 25.650587, "lng": -103.273446
},{
"label": "Noria Ocho Ejido San Miguel", "lat": 25.563673, "lng": -103.306024
},{
"label": "La Parada de Santa Ana del Pilar", "lat": 25.706403, "lng": -103.328575
},{
"label": "Sacrificio Sector 3", "lat": 25.423917, "lng": -103.200425
},{
"label": "Andalucía", "lat": 25.568959, "lng": -103.241381
},{
"label": "Girasoles [Cerrada]", "lat": 25.549353, "lng": -103.308439
},{
"label": "El Carmen", "lat": 25.460779, "lng": -103.319676
},{
"label": "La Enramada", "lat": 25.718567, "lng": -103.320764
},{
"label": "Morelos Ocho", "lat": 25.519195, "lng": -103.177763
},{
"label": "Granada Noria Setecientos Sesenta y Siete", "lat": 25.621117, "lng": -103.275333
},{
"label": "Fresno del Sur (El Fresno)", "lat": 25.416955, "lng": -103.231044
},{
"label": "Vizcaya", "lat": 25.579359, "lng": -103.213587
},{
"label": "El Alto de la Niña", "lat": 25.551499, "lng": -103.16089
},{
"label": "Raúl Salazar Castañón", "lat": 25.738994, "lng": -103.30345
},{
"label": "Monterrey", "lat": 25.413807, "lng": -103.174512
},{
"label": "El Rosario", "lat": 25.69371, "lng": -103.246
},{
"label": "Colonia Montolleras", "lat": 25.627928, "lng": -103.364107
},{
"label": "San José de los Emilianos", "lat": 25.473272, "lng": -103.189061
},{
"label": "Mi Sueño", "lat": 25.719166, "lng": -103.254889
},{
"label": "Noria de Caterpillar", "lat": 25.646268, "lng": -103.321517
},{
"label": "El Milagro de Fresneo", "lat": 25.626207, "lng": -103.270827
},{
"label": "Morelos Trece", "lat": 25.521751, "lng": -103.188482
},{
"label": "San Isidro", "lat": 25.421093, "lng": -103.182295
},{
"label": "Santa Lucía", "lat": 25.50102, "lng": -103.182235
},{
"label": "Noria Agua Caliente", "lat": 25.517528, "lng": -103.217369
},{
"label": "Morelos Ciento Noventa", "lat": 25.552576, "lng": -103.212932
},{
"label": "Las Enramadas", "lat": 25.477675, "lng": -103.154996
},{
"label": "El Sol [Parque Industrial]", "lat": 25.470533, "lng": -103.317769
},{
"label": "Jesús Gallegos Galván", "lat": 25.554603, "lng": -103.208556
},{
"label": "El Consuelo", "lat": 25.570987, "lng": -103.275375
},{
"label": "Noria Santa Ana del Pilar Sector Dos", "lat": 25.707192, "lng": -103.328717
},{
"label": "El Cinco (Mariano Matamoros)", "lat": 25.491661, "lng": -103.180532
},{
"label": "El Cinco", "lat": 25.719352, "lng": -103.243851
},{
"label": "Escuadrón Doscientos Uno", "lat": 25.674607, "lng": -103.349336
},{
"label": "La Garcita", "lat": 25.526008, "lng": -103.270358
},{
"label": "La Escondida", "lat": 25.513587, "lng": -103.155118
},{
"label": "El Refugio (Agua Chula)", "lat": 25.439744, "lng": -103.177082
},{
"label": "Los Jacales", "lat": 25.683593, "lng": -103.258069
},{
"label": "Caseta Número Veinticuatro más 700", "lat": 25.706465, "lng": -103.337696
},{
"label": "El Loco", "lat": 25.550931, "lng": -103.286539
},{
"label": "Hacienda los Olivos", "lat": 25.52138, "lng": -103.273543
},{
"label": "Santa Lourdes", "lat": 25.726101, "lng": -103.313718
},{
"label": "Asturias", "lat": 25.456626, "lng": -103.190983
},{
"label": "Del Fierro", "lat": 25.491442, "lng": -103.111653
},{
"label": "Las Palmas", "lat": 25.491664, "lng": -103.153393
},{
"label": "Guadalupe Victoria", "lat": 25.750762, "lng": -103.224988
},{
"label": "Noria Elías", "lat": 25.666146, "lng": -103.338291
},{
"label": "Maravillas", "lat": 25.658464, "lng": -103.340476
},{
"label": "Morelos Tres", "lat": 25.523708, "lng": -103.148089
},{
"label": "Manantial", "lat": 25.409315, "lng": -103.305281
},{
"label": "Atalaya", "lat": 25.654131, "lng": -103.260605
},{
"label": "Mapulas", "lat": 25.455559, "lng": -103.23
},{
"label": "Bozanes", "lat": 25.478605, "lng": -103.135208
},{
"label": "Báscula la Sandillita", "lat": 25.516858, "lng": -103.175999
},{
"label": "San Antonio", "lat": 25.413566, "lng": -103.185418
},{
"label": "Corea", "lat": 25.414935, "lng": -103.20335
},{
"label": "Morelos Dos (Bilbao)", "lat": 25.516061, "lng": -103.168042
},{
"label": "Baracaldo", "lat": 25.485153, "lng": -103.226344
},{
"label": "Las Carolinas", "lat": 25.524923, "lng": -103.209512
},{
"label": "La Esmeralda", "lat": 25.465255, "lng": -103.294478
},{
"label": "Purísima", "lat": 25.678726, "lng": -103.320176
},{
"label": "Jesús Mota Valenzuela", "lat": 25.711844, "lng": -103.315412
},{
"label": "Frontera", "lat": 25.464076, "lng": -103.178725
},{
"label": "El Refugio", "lat": 25.432343, "lng": -103.172336
},{
"label": "La Noria del 2", "lat": 25.630772, "lng": -103.322103
},{
"label": "Sector Cinco Buen Abrigo", "lat": 25.667393, "lng": -103.250247
},{
"label": "Benito Juárez", "lat": 25.586866, "lng": -103.231908
},{
"label": "La Flor de Mayo y la Barca", "lat": 25.455856, "lng": -103.202645
},{
"label": "San Antonio del Alto", "lat": 25.429158, "lng": -103.131729
},{
"label": "Rancho Nuevo", "lat": 25.484236, "lng": -103.181404
},{
"label": "La Noria los Colorados (Noria de los Ángeles)", "lat": 25.708313, "lng": -103.262506
},{
"label": "Noria Albia", "lat": 25.679968, "lng": -103.34784
},{
"label": "San José", "lat": 25.434286, "lng": -103.222012
},{
"label": "La Garcita [Granja]", "lat": 25.516895, "lng": -103.272068
},{
"label": "Congregación (El Huarache)", "lat": 25.505352, "lng": -103.130374
},{
"label": "San Andrés", "lat": 25.640707, "lng": -103.346628
},{
"label": "San Antonio del Coyote", "lat": 25.696997, "lng": -103.28533
},{
"label": "San Patricio", "lat": 25.503055, "lng": -103.140403
},{
"label": "Mexicana [Escobera]", "lat": 25.503644, "lng": -103.129558
},{
"label": "Monte Alegre", "lat": 25.619156, "lng": -103.307111
},{
"label": "El Cuatro", "lat": 25.5394, "lng": -103.174716
},{
"label": "La Niña", "lat": 25.542569, "lng": -103.164907
},{
"label": "Las Margaritas", "lat": 25.524417, "lng": -103.134698
},{
"label": "Grupo Montejano", "lat": 25.676614, "lng": -103.332018
},{
"label": "Redención Agraria", "lat": 25.467624, "lng": -103.146851
},{
"label": "La Batalla", "lat": 25.399287, "lng": -103.315482
},{
"label": "Compuertas", "lat": 25.746409, "lng": -103.302889
},{
"label": "Corona", "lat": 25.584182, "lng": -103.2608
},{
"label": "Redención Agraria (Prospero Treviño)", "lat": 25.466525, "lng": -103.152878
},{
"label": "La Herradura", "lat": 25.517792, "lng": -103.133423
},{
"label": "La Paloma", "lat": 25.717531, "lng": -103.303467
},{
"label": "El Seis de Mayo", "lat": 25.474223, "lng": -103.104615
},{
"label": "Campo Espiguero del Cuate", "lat": 25.504833, "lng": -103.220052
},{
"label": "Rancho Grande", "lat": 25.529975, "lng": -103.286653
},{
"label": "Hidalgo", "lat": 25.489409, "lng": -103.140668
},{
"label": "Potrero del Llano", "lat": 25.561669, "lng": -103.29136
},{
"label": "Los Sotos", "lat": 25.728405, "lng": -103.314797
},{
"label": "El Cuije", "lat": 25.695766, "lng": -103.342656
},{
"label": "Nueva Soledad", "lat": 25.509378, "lng": -103.127987
},{
"label": "El Establito", "lat": 25.729729, "lng": -103.222197
},{
"label": "El Pérsico", "lat": 25.556198, "lng": -103.131348
},{
"label": "Albia [Granja]", "lat": 25.677141, "lng": -103.359528
},{
"label": "Solima", "lat": 25.662794, "lng": -103.275621
},{
"label": "Hacienda San Miguel", "lat": 25.520089, "lng": -103.311703
},{
"label": "El Cairo", "lat": 25.466675, "lng": -103.252556
},{
"label": "San Felipe Aguanaval", "lat": 25.452692, "lng": -103.251424
},{
"label": "Veintiuno de Marzo (La Reforma)", "lat": 25.533549, "lng": -103.103199
},{
"label": "El Consuelo [Establo]", "lat": 25.575472, "lng": -103.291957
},{
"label": "Unión del Barreal", "lat": 25.426623, "lng": -103.159982
},{
"label": "La Grulla", "lat": 25.471297, "lng": -103.126277
},{
"label": "Lázaro Cárdenas (Benito Juárez Seis)", "lat": 25.525858, "lng": -103.103708
},{
"label": "Raymundo Rendón", "lat": 25.399964, "lng": -103.138061
},{
"label": "Las Cruces (El Uno)", "lat": 25.461368, "lng": -103.117828
},{
"label": "Quintas Herraduras", "lat": 25.511466, "lng": -103.184057
},{
"label": "Monte Carlo", "lat": 25.457751, "lng": -103.30275
},{
"label": "Noria Sector Tres el Pilar", "lat": 25.721527, "lng": -103.338998
},{
"label": "La Palapa", "lat": 25.741005, "lng": -103.215756
},{
"label": "Santa Isabel (Coleadero los Dos Amigos)", "lat": 25.462895, "lng": -103.199853
},{
"label": "José Antonio Tricio Haro", "lat": 25.624403, "lng": -103.223354
},{
"label": "El Chorrito", "lat": 25.386682, "lng": -103.336685
},{
"label": "Las Carpas", "lat": 25.537465, "lng": -103.127282
},{
"label": "Vicente Guerrero [Establo]", "lat": 25.493617, "lng": -103.296783
},{
"label": "Oviedo (La Grulla)", "lat": 25.464413, "lng": -103.132688
},{
"label": "Doña Margarita (Monclova) [Establo]", "lat": 25.477114, "lng": -103.312174
},{
"label": "Noria Siete Ejido San Miguel", "lat": 25.570447, "lng": -103.303763
},{
"label": "Los Estrada", "lat": 25.510792, "lng": -103.214983
},{
"label": "Lázaro Cárdenas (Benito Juárez Ochenta)", "lat": 25.532203, "lng": -103.09475
},{
"label": "Rosalinda", "lat": 25.517084, "lng": -103.11824
},{
"label": "La Esperanza", "lat": 25.566624, "lng": -103.280952
},{
"label": "Santa Anita [Granja]", "lat": 25.708676, "lng": -103.318906
},{
"label": "La Luz", "lat": 25.725728, "lng": -103.244867
},{
"label": "Eduardo J. Romero Espinosa (El Pozo)", "lat": 25.650651, "lng": -103.346871
},{
"label": "Morelos Sociedad (Noria Once)", "lat": 25.561464, "lng": -103.213198
},{
"label": "Don Arturo", "lat": 25.539446, "lng": -103.20782
},{
"label": "Santa Gema (Piedritas)", "lat": 25.551252, "lng": -103.254175
},{
"label": "Enrique Segovia Cisneros", "lat": 25.541325, "lng": -103.198331
},{
"label": "Noria de Corona", "lat": 25.605304, "lng": -103.25678
},{
"label": "Pedro Castillo López", "lat": 25.542902, "lng": -103.206254
},{
"label": "La Grulla (Lorenzo García)", "lat": 25.466053, "lng": -103.127225
},{
"label": "Noria la Otto", "lat": 25.636232, "lng": -103.340159
},{
"label": "Otto el Cambio", "lat": 25.634106, "lng": -103.33429
},{
"label": "El Dorado (Arturo Martínez Silva)", "lat": 25.537886, "lng": -103.19529
},{
"label": "Entronque Congregación Hidalgo", "lat": 25.50797, "lng": -103.13961
},{
"label": "Torreón (Los Alcohólicos)", "lat": 25.484955, "lng": -103.184272
},{
"label": "San Miguel (María Guadalupe Adame Morales)", "lat": 25.528489, "lng": -103.315078
}]