[{
"label": "Santo Cristo (La Viuda)", "lat": 28.769901, "lng": -100.552093
},{
"label": "Modesto Garza", "lat": 28.665097, "lng": -100.5921
},{
"label": "Garambullo (Gustavo Carranza)", "lat": 28.736097, "lng": -100.545294
},{
"label": "El Picadero", "lat": 28.649781, "lng": -100.505264
},{
"label": "El Colibrí", "lat": 28.902058, "lng": -100.634088
},{
"label": "Jacke", "lat": 28.6681, "lng": -100.517915
},{
"label": "Emilio Vázquez", "lat": 28.757928, "lng": -100.614782
},{
"label": "Rancho Aba", "lat": 28.655872, "lng": -100.575153
},{
"label": "El Quijote", "lat": 28.620831, "lng": -100.475596
},{
"label": "Miguel Campos", "lat": 28.711477, "lng": -100.604664
},{
"label": "Enrique Hernández", "lat": 28.744076, "lng": -100.601294
},{
"label": "El Paraíso", "lat": 28.710426, "lng": -100.602996
},{
"label": "Molino San Rodrigo", "lat": 28.874986, "lng": -100.683754
},{
"label": "Villa Manantial", "lat": 28.743258, "lng": -100.584692
},{
"label": "El Pavo Nuevo", "lat": 28.882969, "lng": -100.652183
},{
"label": "San Cipriano", "lat": 28.655349, "lng": -100.497053
},{
"label": "Las Tres Erres", "lat": 28.87028, "lng": -100.662906
},{
"label": "Chapultepec de Abajo", "lat": 28.662103, "lng": -100.505604
},{
"label": "La Retama (Rafael Reyna)", "lat": 28.732184, "lng": -100.545746
},{
"label": "Río Grande Serbas", "lat": 28.721297, "lng": -100.546676
},{
"label": "La Navaja (La Loma)", "lat": 28.822394, "lng": -100.618631
},{
"label": "San Isidro", "lat": 28.866426, "lng": -100.622278
},{
"label": "Quinta Sica", "lat": 28.652089, "lng": -100.577864
},{
"label": "Las Potrancas", "lat": 28.645089, "lng": -100.507114
},{
"label": "Pablo de Luna", "lat": 28.813814, "lng": -100.579344
},{
"label": "Las Playas", "lat": 28.87318, "lng": -100.659352
},{
"label": "Francisco Campuzano", "lat": 28.812903, "lng": -100.626046
},{
"label": "Las Tres Glorias", "lat": 28.759872, "lng": -100.607808
},{
"label": "El Indio", "lat": 28.73763, "lng": -100.573
},{
"label": "Lorenzo Castilleja", "lat": 28.761539, "lng": -100.570346
},{
"label": "Margarita Montoya", "lat": 28.840542, "lng": -100.611275
},{
"label": "Octaviano", "lat": 28.736125, "lng": -100.579593
},{
"label": "Jaime Martínez (Las Vegas del Centinela)", "lat": 28.813952, "lng": -100.547818
},{
"label": "Salvador Chavarría", "lat": 28.63792, "lng": -100.480334
},{
"label": "Francisco Juaristi Septién", "lat": 28.666011, "lng": -100.573792
},{
"label": "Mario Favela", "lat": 28.750078, "lng": -100.542616
},{
"label": "Valle Verde", "lat": 28.777097, "lng": -100.537908
},{
"label": "San Ramón", "lat": 28.638697, "lng": -100.511039
},{
"label": "Emilio Fuentes", "lat": 28.724145, "lng": -100.586155
},{
"label": "Rancho los Pavos Reales", "lat": 28.842986, "lng": -100.598896
},{
"label": "Máximo Ramírez", "lat": 28.723798, "lng": -100.609809
},{
"label": "Alfredo Bass (Zambrano)", "lat": 28.858686, "lng": -100.60511
},{
"label": "Juan Santos Castorena", "lat": 28.842841, "lng": -100.617128
},{
"label": "Piedras Negras", "lat": 28.708093, "lng": -100.528441
},{
"label": "Los Temporales (Oscar Pope)", "lat": 28.743331, "lng": -100.553576
},{
"label": "Casa Blanca", "lat": 28.648797, "lng": -100.567022
},{
"label": "Gonzalo Gómez", "lat": 28.820563, "lng": -100.554117
},{
"label": "El Centinela (La Loma)", "lat": 28.787108, "lng": -100.597117
},{
"label": "El Centinela", "lat": 28.790916, "lng": -100.56419
},{
"label": "La Pitaya", "lat": 28.745434, "lng": -100.544992
},{
"label": "El Nogal", "lat": 28.859906, "lng": -100.71476
},{
"label": "La Fiera (José Hernández)", "lat": 28.751003, "lng": -100.548996
},{
"label": "Ninguno [Clínica de Tratamiento de Adicciones]", "lat": 28.757071, "lng": -100.593171
},{
"label": "Manuel Villanueva", "lat": 28.753818, "lng": -100.544709
},{
"label": "El Ranchito", "lat": 28.733392, "lng": -100.614942
},{
"label": "Abraham Ramírez (La Lobera)", "lat": 28.633529, "lng": -100.483677
},{
"label": "San Carlos", "lat": 28.744767, "lng": -100.589164
},{
"label": "El Moral", "lat": 28.890961, "lng": -100.628
},{
"label": "Miguel Saucedo", "lat": 28.753223, "lng": -100.546108
},{
"label": "Elías David García (Halcón)", "lat": 28.661828, "lng": -100.579683
},{
"label": "Ricardo González (La Lobera)", "lat": 28.649072, "lng": -100.487456
},{
"label": "Las Vegas del Moral", "lat": 28.883114, "lng": -100.599724
},{
"label": "El Refugio", "lat": 28.860089, "lng": -100.727115
},{
"label": "El Guajolote", "lat": 28.721553, "lng": -100.599639
},{
"label": "El Aguililla (Seferino Bravo)", "lat": 28.751297, "lng": -100.587931
},{
"label": "La Navaja", "lat": 28.827936, "lng": -100.590806
},{
"label": "Haciendita", "lat": 28.731636, "lng": -100.607645
},{
"label": "Felipe Garza", "lat": 28.6598, "lng": -100.597258
},{
"label": "Mercedes Moreno", "lat": 28.822569, "lng": -100.574197
},{
"label": "Rodolfo Terán Quintero", "lat": 28.878092, "lng": -100.6558
},{
"label": "El Umbral (Fructuoso García)", "lat": 28.859379, "lng": -100.589182
},{
"label": "Leonel Sánchez", "lat": 28.823231, "lng": -100.576772
},{
"label": "Guillermo Salinas (Rancho R.M.)", "lat": 28.659242, "lng": -100.590239
},{
"label": "Centro de Readaptación Social Piedras Negras", "lat": 28.772794, "lng": -100.603275
},{
"label": "Juan González (La Lobera)", "lat": 28.639018, "lng": -100.484386
},{
"label": "Dos Ojitos (Jesús Hurtado Cantú)", "lat": 28.667899, "lng": -100.51716
},{
"label": "Fortunato de Hoyos", "lat": 28.769708, "lng": -100.552625
},{
"label": "Los Ojitos", "lat": 28.653466, "lng": -100.495583
},{
"label": "Elías Patiño", "lat": 28.669281, "lng": -100.529433
},{
"label": "Darío Rodríguez", "lat": 28.756014, "lng": -100.57493
},{
"label": "Pablo Soto (La Casita)", "lat": 28.711352, "lng": -100.605668
},{
"label": "Graciano Ledezma Álvarez", "lat": 28.72649, "lng": -100.592316
},{
"label": "Rancho MF", "lat": 28.657856, "lng": -100.567392
},{
"label": "Paloblancal (Jesús Manuel Galindo)", "lat": 28.887614, "lng": -100.693706
},{
"label": "Vicente Fuentes", "lat": 28.822132, "lng": -100.556976
},{
"label": "José Luis Ávalos Ramírez", "lat": 28.740247, "lng": -100.600986
},{
"label": "Los Amores", "lat": 28.738678, "lng": -100.604308
},{
"label": "San Andrés", "lat": 28.925453, "lng": -100.652348
},{
"label": "La Presa", "lat": 28.654192, "lng": -100.597906
},{
"label": "Alberto Sandoval (Rancho Nuevo)", "lat": 28.755379, "lng": -100.544324
},{
"label": "Zacarías Castro", "lat": 28.899384, "lng": -100.650928
},{
"label": "Murillos Ranch", "lat": 28.667517, "lng": -100.515425
},{
"label": "Las Margaritas", "lat": 28.868286, "lng": -100.604386
},{
"label": "El Seis", "lat": 28.841124, "lng": -100.67125
},{
"label": "Obdulio Garza", "lat": 28.747211, "lng": -100.610836
},{
"label": "Salinas", "lat": 28.819492, "lng": -100.553142
},{
"label": "Juan Fuentes", "lat": 28.8235, "lng": -100.563195
},{
"label": "Eusebio Fuentes", "lat": 28.822696, "lng": -100.563756
},{
"label": "Abelino Fuentes", "lat": 28.823259, "lng": -100.559627
},{
"label": "El Pony", "lat": 28.872553, "lng": -100.66788
},{
"label": "Don Pillon", "lat": 28.659893, "lng": -100.513974
},{
"label": "Mario Gómez", "lat": 28.795486, "lng": -100.615247
},{
"label": "Rubén Espinoza", "lat": 28.696845, "lng": -100.580094
},{
"label": "Rancho de Lara", "lat": 28.856281, "lng": -100.583698
},{
"label": "Ramiro Herrera", "lat": 28.839383, "lng": -100.578933
},{
"label": "La Herradura", "lat": 28.873098, "lng": -100.657387
},{
"label": "La Providencia (Vicente Alamillo)", "lat": 28.643559, "lng": -100.485735
},{
"label": "Los Bravo", "lat": 28.827004, "lng": -100.580358
},{
"label": "Rancho de las 2 Cruces (Mario Martínez de la Cruz)", "lat": 28.643906, "lng": -100.487588
},{
"label": "Javier Ortiz", "lat": 28.662797, "lng": -100.574111
},{
"label": "El Melado", "lat": 28.849972, "lng": -100.728375
},{
"label": "Homero Niño (Delagualegre)", "lat": 28.657756, "lng": -100.591503
},{
"label": "Rincón de San Nicolás", "lat": 28.627335, "lng": -100.471195
},{
"label": "Santa María", "lat": 28.702271, "lng": -100.605251
},{
"label": "Modesto Garza Soto (El More)", "lat": 28.685994, "lng": -100.615675
},{
"label": "Demetrio Rodríguez", "lat": 28.737492, "lng": -100.608274
},{
"label": "Casa Roja", "lat": 28.75975, "lng": -100.663561
},{
"label": "La Esperanza (Federico Maldonado)", "lat": 28.661433, "lng": -100.586786
},{
"label": "Rodolfo Martínez (El Melado)", "lat": 28.769583, "lng": -100.600464
},{
"label": "La Muralla", "lat": 28.880449, "lng": -100.684591
},{
"label": "Héctor Galindo", "lat": 28.913025, "lng": -100.650883
},{
"label": "Jesús Fuentes Baltazar", "lat": 28.71443, "lng": -100.589836
},{
"label": "Josefinas (Rodolfo Cruz)", "lat": 28.662873, "lng": -100.526668
},{
"label": "Eliud Cárdenas", "lat": 28.850886, "lng": -100.57992
},{
"label": "Alberto Esquivel", "lat": 28.741126, "lng": -100.609826
},{
"label": "La Conquista", "lat": 28.817836, "lng": -100.580358
},{
"label": "Juan Montes García", "lat": 28.721968, "lng": -100.598924
},{
"label": "Los Fernández", "lat": 28.658717, "lng": -100.569514
},{
"label": "Rogelio de León", "lat": 28.817043, "lng": -100.624751
},{
"label": "Andrés Villarreal", "lat": 28.896006, "lng": -100.611103
},{
"label": "Antonio Rentería Ramírez", "lat": 28.719642, "lng": -100.606039
},{
"label": "Labasa", "lat": 28.753603, "lng": -100.559564
},{
"label": "Santa Elisa", "lat": 28.641108, "lng": -100.494173
},{
"label": "El Pavo (Macario Terán Chávez)", "lat": 28.875884, "lng": -100.65986
},{
"label": "Fidel Contreras", "lat": 28.751144, "lng": -100.543779
},{
"label": "Las Tinajas", "lat": 28.743512, "lng": -100.62588
},{
"label": "María Fernanda (Arturo Bres)", "lat": 28.713354, "lng": -100.604936
},{
"label": "Amador Chacón", "lat": 28.887054, "lng": -100.594919
},{
"label": "El Oasis", "lat": 28.727899, "lng": -100.58564
},{
"label": "Eulalio Bravo", "lat": 28.815844, "lng": -100.621275
},{
"label": "Los González", "lat": 28.714659, "lng": -100.579259
},{
"label": "Chapultepec", "lat": 28.655399, "lng": -100.508217
},{
"label": "Guadalupe Baltazar", "lat": 28.752109, "lng": -100.57689
},{
"label": "Arroyo Blanco", "lat": 28.894546, "lng": -100.636583
},{
"label": "San Francisco", "lat": 28.630378, "lng": -100.471507
},{
"label": "Rodrigo Fuentes", "lat": 28.89695, "lng": -100.613554
},{
"label": "El Consuelo (Lybson)", "lat": 28.658486, "lng": -100.576633
},{
"label": "Raúl Martínez", "lat": 28.654297, "lng": -100.575508
},{
"label": "Antonio Castillo", "lat": 28.765996, "lng": -100.576155
},{
"label": "Los Dávila", "lat": 28.748018, "lng": -100.536543
},{
"label": "Adolfo Moreno", "lat": 28.823335, "lng": -100.579642
},{
"label": "Mini Rancho", "lat": 28.697978, "lng": -100.580089
}]