[{
"label": "Ricardo Flores Magón", "lat": 25.623577, "lng": -103.354192
},{
"label": "Albia", "lat": 25.666278, "lng": -103.362286
},{
"label": "La Presa de la Flor", "lat": 25.068559, "lng": -103.284495
},{
"label": "La Cúpula", "lat": 25.654934, "lng": -103.378421
},{
"label": "Nuevo Mieleras (La Tres)", "lat": 25.440359, "lng": -103.337858
},{
"label": "El Pacífico", "lat": 25.586586, "lng": -103.268576
},{
"label": "La Fe", "lat": 25.480519, "lng": -103.361694
},{
"label": "El Perú", "lat": 25.60279, "lng": -103.343269
},{
"label": "Montolleras", "lat": 25.62585, "lng": -103.366763
},{
"label": "Santa Gema", "lat": 25.437406, "lng": -103.364418
},{
"label": "Las Moras", "lat": 25.609802, "lng": -103.423224
},{
"label": "Noria de la Sociedad", "lat": 25.200139, "lng": -103.431556
},{
"label": "El Cariño (Patricio González Olguín)", "lat": 25.578061, "lng": -103.311076
},{
"label": "Nueva la Paz", "lat": 25.600092, "lng": -103.352919
},{
"label": "Noria de la Trinidad", "lat": 25.113139, "lng": -103.343223
},{
"label": "San Luis", "lat": 25.460844, "lng": -103.342306
},{
"label": "Mieleras [Aeropuerto]", "lat": 25.46881, "lng": -103.341959
},{
"label": "La Sagra", "lat": 25.483389, "lng": -103.327675
},{
"label": "La Fortuna", "lat": 25.453019, "lng": -103.359192
},{
"label": "Santa Fe", "lat": 25.567057, "lng": -103.331974
},{
"label": "Elgera", "lat": 25.482228, "lng": -103.348397
},{
"label": "Antonio Noriega", "lat": 25.63921, "lng": -103.401704
},{
"label": "El Águila", "lat": 25.523678, "lng": -103.331587
},{
"label": "El Doce", "lat": 25.581407, "lng": -103.267188
},{
"label": "Braulio Fernández Aguirre (Providencia)", "lat": 25.599831, "lng": -103.358513
},{
"label": "Campo Sagrado (Los Álvarez) [Establo]", "lat": 25.471658, "lng": -103.330253
},{
"label": "La Libertad", "lat": 25.576244, "lng": -103.371653
},{
"label": "La Palma", "lat": 25.608299, "lng": -103.321581
},{
"label": "Santa Fe [Granja Porcina]", "lat": 25.579396, "lng": -103.311504
},{
"label": "Mayran", "lat": 25.613478, "lng": -103.394567
},{
"label": "Noria Cuatro (La Joya)", "lat": 25.560053, "lng": -103.338628
},{
"label": "Los Azulejos [Campestre]", "lat": 25.639902, "lng": -103.358895
},{
"label": "La Barranca", "lat": 25.594659, "lng": -103.374577
},{
"label": "El Encino", "lat": 25.490123, "lng": -103.343103
},{
"label": "Noria la Cinco la Paz", "lat": 25.594491, "lng": -103.361553
},{
"label": "San Antonio", "lat": 25.036797, "lng": -103.157764
},{
"label": "Villas del Renacimiento", "lat": 25.657688, "lng": -103.368133
},{
"label": "La Paz", "lat": 25.594561, "lng": -103.356792
},{
"label": "La Polka (Albia Sector Tres)", "lat": 25.66498, "lng": -103.354021
},{
"label": "Amapolas Uno", "lat": 25.577411, "lng": -103.321956
},{
"label": "La Familia", "lat": 25.489249, "lng": -103.34461
},{
"label": "La Noria (La Rosita)", "lat": 25.518086, "lng": -103.342804
},{
"label": "La Trinidad", "lat": 25.141504, "lng": -103.372749
},{
"label": "Juan Eugenio Número Dos", "lat": 25.264882, "lng": -103.491256
},{
"label": "Torreón", "lat": 25.541753, "lng": -103.453061
},{
"label": "El Mostrenco (Euskal)", "lat": 25.459933, "lng": -103.343643
},{
"label": "La Joyita (Recreativo la Hacienda)", "lat": 25.562978, "lng": -103.346826
},{
"label": "Torreón [Club de Caza y Tiro]", "lat": 25.42309, "lng": -103.344453
},{
"label": "Barreal de Guadalupe", "lat": 24.999725, "lng": -103.246467
},{
"label": "Taller los Azulejos", "lat": 25.645742, "lng": -103.374103
},{
"label": "Juan Eugenio Cinco (Cuba)", "lat": 25.248485, "lng": -103.468109
},{
"label": "La Conchita Roja", "lat": 25.641265, "lng": -103.405398
},{
"label": "Juan Eugenio", "lat": 25.28947, "lng": -103.500252
},{
"label": "El Cuatro", "lat": 25.608286, "lng": -103.284466
},{
"label": "La Nueva Colonia (Peralta)", "lat": 25.066564, "lng": -103.226706
},{
"label": "Monte Alegre", "lat": 25.616739, "lng": -103.301338
},{
"label": "Juan Eugenio Cinco (Noria Nueva York)", "lat": 25.241163, "lng": -103.464806
},{
"label": "Kilómetro Doce (Sector Uno)", "lat": 25.584991, "lng": -103.291267
},{
"label": "Fraccionamiento Residencial Rancho Alegre", "lat": 25.502669, "lng": -103.323153
},{
"label": "Paso del Águila", "lat": 25.623082, "lng": -103.371715
},{
"label": "Ávila Camacho (El Coronel)", "lat": 25.162517, "lng": -103.393728
},{
"label": "Cruz Colunga", "lat": 25.592705, "lng": -103.361556
},{
"label": "Quince de Mayo (Las Magdalenas)", "lat": 25.423434, "lng": -103.342267
},{
"label": "La Perla", "lat": 25.496781, "lng": -103.352062
},{
"label": "Rancho Alegre", "lat": 25.502669, "lng": -103.32815
},{
"label": "Quinta San Nicolás [Club Hípico]", "lat": 25.645576, "lng": -103.371872
},{
"label": "Los Álvarez (San Esteban)", "lat": 25.475656, "lng": -103.344537
},{
"label": "Braña [Granja]", "lat": 25.598099, "lng": -103.366401
},{
"label": "Santa María", "lat": 25.268257, "lng": -103.498283
},{
"label": "La Cuchilla", "lat": 25.599001, "lng": -103.36017
},{
"label": "Noria Sector Seis a la Concha", "lat": 25.6425, "lng": -103.39617
},{
"label": "La Noria Once", "lat": 25.575758, "lng": -103.346842
},{
"label": "El Cercado (El Perico)", "lat": 25.603414, "lng": -103.385093
},{
"label": "Nueva Unión (San Alberto)", "lat": 25.437508, "lng": -103.350807
},{
"label": "Jalisco", "lat": 25.216977, "lng": -103.441093
},{
"label": "La Colonia", "lat": 25.079428, "lng": -103.103201
},{
"label": "Jimulco", "lat": 25.120409, "lng": -103.353958
},{
"label": "El Pozo de Calvo", "lat": 25.076539, "lng": -103.101286
},{
"label": "Juan Eugenio Número Uno", "lat": 25.260551, "lng": -103.482726
},{
"label": "El Rosario (El Clavel)", "lat": 25.579129, "lng": -103.317756
},{
"label": "Carroceras", "lat": 25.450129, "lng": -103.34129
},{
"label": "El Estanque", "lat": 25.607944, "lng": -103.297292
},{
"label": "Amapolas", "lat": 25.582319, "lng": -103.321842
},{
"label": "Marsella", "lat": 25.607466, "lng": -103.415383
},{
"label": "Sin Cabeza", "lat": 25.511764, "lng": -103.322001
},{
"label": "Ciudad de los Niños", "lat": 25.595636, "lng": -103.32217
},{
"label": "Enrique Murey García", "lat": 25.481526, "lng": -103.344732
},{
"label": "Antonio Guerrero", "lat": 25.503597, "lng": -103.344055
},{
"label": "San Gerardo (Cardenchal)", "lat": 25.619232, "lng": -103.423084
},{
"label": "La Rosa", "lat": 25.56662, "lng": -103.352487
},{
"label": "La Magaña", "lat": 25.48725, "lng": -103.341956
},{
"label": "Noria Sector Dieciocho la Concha (Noria Uno)", "lat": 25.638511, "lng": -103.390578
},{
"label": "Diana", "lat": 25.624059, "lng": -103.359324
},{
"label": "El Duraznito (El Ranchito)", "lat": 25.658898, "lng": -103.348536
},{
"label": "Ampuero (La Arenosa)", "lat": 25.461124, "lng": -103.373933
},{
"label": "El Chaparral", "lat": 25.630595, "lng": -103.39389
},{
"label": "Sector Doce A Santa Fe", "lat": 25.573464, "lng": -103.309169
},{
"label": "La Concha", "lat": 25.634382, "lng": -103.381249
},{
"label": "Noria del Uno", "lat": 25.254528, "lng": -103.490081
},{
"label": "Doce de Diciembre", "lat": 25.042686, "lng": -103.172267
},{
"label": "Jesús María Echavarría [Recreativo]", "lat": 25.63932, "lng": -103.350269
},{
"label": "San Esteban", "lat": 25.490427, "lng": -103.341252
},{
"label": "Providencia", "lat": 25.600411, "lng": -103.359584
},{
"label": "La Noria del Perú", "lat": 25.595934, "lng": -103.318393
},{
"label": "Mariano Pineda Rodríguez", "lat": 25.588, "lng": -103.361378
},{
"label": "Colonia Diez de Abril (El Queso)", "lat": 25.599692, "lng": -103.328494
},{
"label": "La Flor de Jimulco", "lat": 25.103446, "lng": -103.331513
},{
"label": "La Partida", "lat": 25.591247, "lng": -103.299738
}]