[{
"label": "Ejido Tepexpan (San Luis Grande)", "lat": 19.627616, "lng": -98.936512
},{
"label": "San José", "lat": 19.659538, "lng": -98.909873
},{
"label": "Rancho Nextlalpan", "lat": 19.648108, "lng": -98.873558
},{
"label": "Ejidos de Cuanalán", "lat": 19.627569, "lng": -98.918261
},{
"label": "Nueva Colonia el Calvario", "lat": 19.661415, "lng": -98.927564
},{
"label": "Pozo San Isidro (Besana Tlahuilco)", "lat": 19.641676, "lng": -98.937457
},{
"label": "Ejido de San Marcos Nepantla", "lat": 19.6775, "lng": -98.932778
},{
"label": "San Miguel Xometla", "lat": 19.643288, "lng": -98.882663
},{
"label": "La Concepción (Xometla)", "lat": 19.639179, "lng": -98.879871
},{
"label": "Acolman de Nezahualcóyotl", "lat": 19.635509, "lng": -98.911906
},{
"label": "Ejido Totolzingo", "lat": 19.626216, "lng": -98.957424
},{
"label": "Pirules", "lat": 19.629205, "lng": -98.97502
},{
"label": "Santa Catarina Acolman", "lat": 19.629461, "lng": -98.924167
},{
"label": "San Pedro Tepetitlán", "lat": 19.629841, "lng": -98.890621
},{
"label": "Santa Catarina", "lat": 19.634798, "lng": -98.923867
},{
"label": "Prados de San Juan", "lat": 19.639586, "lng": -98.97601
},{
"label": "Quinta las Flores", "lat": 19.652576, "lng": -98.879708
},{
"label": "Guerrero", "lat": 19.62612, "lng": -98.977678
},{
"label": "Misión San Agustín [Conjunto Urbano]", "lat": 19.632985, "lng": -98.941342
},{
"label": "Pozo San Luis (Ejido Santa Catarina y Tenango)", "lat": 19.63443, "lng": -98.937576
},{
"label": "Ahuaxtla", "lat": 19.617385, "lng": -98.892147
},{
"label": "Besana de Santa Catarina y Tepango", "lat": 19.645891, "lng": -98.923915
},{
"label": "Ejido la Cazuela Tepexpan (Santa María Magdalena)", "lat": 19.622413, "lng": -98.942279
},{
"label": "San Bartolo", "lat": 19.655317, "lng": -98.900838
},{
"label": "San Lucas Tepango", "lat": 19.646199, "lng": -98.861846
},{
"label": "Tepexpan", "lat": 19.61259, "lng": -98.937316
},{
"label": "Ejido San Mateo (Pasando la Vía)", "lat": 19.615773, "lng": -98.887748
},{
"label": "San Marcos Nepantla", "lat": 19.669576, "lng": -98.932785
},{
"label": "Ejido de Santa María y Potreritos (La Represa)", "lat": 19.653815, "lng": -98.913969
},{
"label": "Ampliación Santa Catarina", "lat": 19.635571, "lng": -98.934685
},{
"label": "Pozo de San Pedro (Besana del Molino)", "lat": 19.648806, "lng": -98.927175
},{
"label": "Ejido el Calvario Acolman", "lat": 19.635858, "lng": -98.902732
},{
"label": "El Pastal (San Damián)", "lat": 19.656071, "lng": -98.936294
},{
"label": "Ejido San Marcos", "lat": 19.604741, "lng": -98.891722
}]