[{
"label": "Escuela Vieja", "lat": 18.670863, "lng": -100.266869
},{
"label": "Los Timbres", "lat": 18.677914, "lng": -100.213219
},{
"label": "El Güicume", "lat": 18.620249, "lng": -100.434766
},{
"label": "Los Colorines", "lat": 18.674608, "lng": -100.185398
},{
"label": "Puente Viejo", "lat": 18.790074, "lng": -100.173531
},{
"label": "El Mango Piedras Anchas", "lat": 18.726626, "lng": -100.219099
},{
"label": "Corral de Piedra", "lat": 18.777903, "lng": -100.20116
},{
"label": "Barranca del Coyol", "lat": 18.751268, "lng": -100.36551
},{
"label": "El Arrayán", "lat": 18.647572, "lng": -100.418014
},{
"label": "Palmar Chico", "lat": 18.696534, "lng": -100.369477
},{
"label": "El Aguacate Ayuquila (El Aguacate)", "lat": 18.718058, "lng": -100.317009
},{
"label": "Barranca de Esmeraldas (La Güila)", "lat": 18.671776, "lng": -100.342927
},{
"label": "El Monteal (Barranca Papaloapan)", "lat": 18.76646, "lng": -100.148361
},{
"label": "El Aguacatito (Cuadrilla de Jaimes)", "lat": 18.649213, "lng": -100.352889
},{
"label": "El Pino", "lat": 18.677249, "lng": -100.187156
},{
"label": "Coahuilotes Matuz", "lat": 18.634481, "lng": -100.475424
},{
"label": "El Jején", "lat": 18.791696, "lng": -100.297698
},{
"label": "Rincón de la Cofradía", "lat": 18.740463, "lng": -100.265994
},{
"label": "Buenavista", "lat": 18.717162, "lng": -100.41429
},{
"label": "Tepehuajes Uno (Tepehuajes de Arriba)", "lat": 18.742793, "lng": -100.162259
},{
"label": "Tepehuajes (Tepehuajes de Abajo)", "lat": 18.733835, "lng": -100.154474
},{
"label": "Las Mesas", "lat": 18.752573, "lng": -100.334605
},{
"label": "El Camalote", "lat": 18.634551, "lng": -100.348131
},{
"label": "Aviación (Campo de Aviación)", "lat": 18.681501, "lng": -100.366317
},{
"label": "Meyuca", "lat": 18.735236, "lng": -100.4039
},{
"label": "El Coyol", "lat": 18.640706, "lng": -100.395662
},{
"label": "El Convento", "lat": 18.682787, "lng": -100.357207
},{
"label": "Los Pocitos", "lat": 18.679957, "lng": -100.170473
},{
"label": "Chapuluapan", "lat": 18.759669, "lng": -100.224686
},{
"label": "Salitre de López", "lat": 18.780453, "lng": -100.241581
},{
"label": "La Cueva", "lat": 18.675191, "lng": -100.124311
},{
"label": "Bosque Grande", "lat": 18.718305, "lng": -100.128366
},{
"label": "El Sesteo", "lat": 18.641353, "lng": -100.446546
},{
"label": "El Consuelo", "lat": 18.691133, "lng": -100.150135
},{
"label": "Cerro del Coyol", "lat": 18.748924, "lng": -100.381967
},{
"label": "Santiago", "lat": 18.685484, "lng": -100.244591
},{
"label": "El Panteón de San Felipe de Jesús", "lat": 18.782372, "lng": -100.160213
},{
"label": "Las Joyas", "lat": 18.763027, "lng": -100.148391
},{
"label": "Cerro de Tlacotepec (Tlacotepec)", "lat": 18.766407, "lng": -100.226544
},{
"label": "Dolores (Hacienda Dolores)", "lat": 18.718128, "lng": -100.257953
},{
"label": "Cuadrilla Nueva (La Presa)", "lat": 18.643455, "lng": -100.28412
},{
"label": "Puerto del Pollo", "lat": 18.739494, "lng": -100.315135
},{
"label": "Rincón de Esmeraldas", "lat": 18.666827, "lng": -100.334216
},{
"label": "Cerro Verde", "lat": 18.656579, "lng": -100.290458
},{
"label": "Barranca de Gallegos", "lat": 18.656164, "lng": -100.344323
},{
"label": "Recobeco", "lat": 18.736113, "lng": -100.344806
},{
"label": "La Palma", "lat": 18.631036, "lng": -100.437054
},{
"label": "El Veladero", "lat": 18.723008, "lng": -100.175481
},{
"label": "Cerro del Campo", "lat": 18.661757, "lng": -100.264044
},{
"label": "Acatempan", "lat": 18.674756, "lng": -100.252621
},{
"label": "Rancho Viejo (Cirián Manzo)", "lat": 18.713023, "lng": -100.3799
},{
"label": "Huixtitla", "lat": 18.63091, "lng": -100.358697
},{
"label": "El Ancón", "lat": 18.77817, "lng": -100.2352
},{
"label": "Puente del Rodeo", "lat": 18.640093, "lng": -100.278208
},{
"label": "El Malpaso", "lat": 18.698948, "lng": -100.218195
},{
"label": "Cuadrilla de los Morales", "lat": 18.708468, "lng": -100.249486
},{
"label": "Cerro del Bonete (La Parota)", "lat": 18.732944, "lng": -100.383412
},{
"label": "Tierra Colorada", "lat": 18.701192, "lng": -100.326709
},{
"label": "Barranca del Mamey", "lat": 18.656801, "lng": -100.241901
},{
"label": "El Puerto", "lat": 18.696588, "lng": -100.182218
},{
"label": "Cuadrilla del Naranjo (Rincón del Naranjo)", "lat": 18.66773, "lng": -100.25187
},{
"label": "Los Ajoques", "lat": 18.764504, "lng": -100.358741
},{
"label": "Plan de los Guajes", "lat": 18.733583, "lng": -100.4151
},{
"label": "La Ceiba Tirada", "lat": 18.754143, "lng": -100.423008
},{
"label": "Las Mesitas Matuz", "lat": 18.690346, "lng": -100.46211
},{
"label": "Pinzanes Matuz", "lat": 18.662973, "lng": -100.417484
},{
"label": "Las Paredes", "lat": 18.768076, "lng": -100.403293
},{
"label": "Peña Blanca", "lat": 18.747827, "lng": -100.279824
},{
"label": "El Llano", "lat": 18.731358, "lng": -100.128177
},{
"label": "Los Ciruelos (Rancho los Ciruelos)", "lat": 18.667037, "lng": -100.429941
},{
"label": "Los Jazmines", "lat": 18.687264, "lng": -100.32233
},{
"label": "El Guayabo", "lat": 18.737389, "lng": -100.306496
},{
"label": "San Simón (San Simón Zozocoltepec)", "lat": 18.746016, "lng": -100.173869
},{
"label": "Mesa del Mango", "lat": 18.731352, "lng": -100.187417
},{
"label": "La Cofradía", "lat": 18.659281, "lng": -100.233136
},{
"label": "Cerro de las Ánimas-El Manguito", "lat": 18.754141, "lng": -100.267278
},{
"label": "Barranca de los Blancos (Barranca del Cirián)", "lat": 18.641998, "lng": -100.437954
},{
"label": "Platanal", "lat": 18.671088, "lng": -100.179763
},{
"label": "Potrerillos (Potrerillos Matuz)", "lat": 18.658001, "lng": -100.436429
},{
"label": "El Rancho", "lat": 18.679245, "lng": -100.280384
},{
"label": "El Fresno", "lat": 18.67574, "lng": -100.300041
},{
"label": "Paso de la Parota", "lat": 18.768085, "lng": -100.390191
},{
"label": "Coahuilotes (Los Coahuilotes)", "lat": 18.713809, "lng": -100.218698
},{
"label": "Las Cañitas", "lat": 18.643808, "lng": -100.364074
},{
"label": "Barranca del Veladero", "lat": 18.724431, "lng": -100.186166
},{
"label": "La Goleta", "lat": 18.679463, "lng": -100.099858
},{
"label": "Los Espinos", "lat": 18.682134, "lng": -100.162079
},{
"label": "Ligas", "lat": 18.696113, "lng": -100.158718
},{
"label": "Pueblo Nuevo (San Lucas Pueblo Nuevo)", "lat": 18.756684, "lng": -100.303747
},{
"label": "Santa Bárbara", "lat": 18.690691, "lng": -100.415272
},{
"label": "La Rayuela", "lat": 18.662398, "lng": -100.313924
},{
"label": "Sumpancle", "lat": 18.679363, "lng": -100.092234
},{
"label": "Salitre Palmarillos", "lat": 18.722191, "lng": -100.288181
},{
"label": "San Juan Tizapán (La Haciendita)", "lat": 18.760081, "lng": -100.344706
},{
"label": "El Aguacate (El Aguacate San Martín)", "lat": 18.733175, "lng": -100.24761
},{
"label": "La Parota (La Parota Tepehuajes)", "lat": 18.745923, "lng": -100.152299
},{
"label": "El Manguito", "lat": 18.645297, "lng": -100.414423
},{
"label": "San Francisco de los Pinzanes", "lat": 18.679125, "lng": -100.334762
},{
"label": "Guayabillos", "lat": 18.726132, "lng": -100.338527
},{
"label": "Güijas Blancas", "lat": 18.735313, "lng": -100.216481
},{
"label": "Cuadrilla Vieja", "lat": 18.72087, "lng": -100.346114
},{
"label": "Crucero Cerro del Campo", "lat": 18.662166, "lng": -100.272461
},{
"label": "Joya de la Venta", "lat": 18.727314, "lng": -100.176245
},{
"label": "Bosque Redondo", "lat": 18.704343, "lng": -100.176919
},{
"label": "Barranca de los Sauz (Convento de Abajo)", "lat": 18.684988, "lng": -100.358766
},{
"label": "El Ortigo", "lat": 18.672297, "lng": -100.273299
},{
"label": "El Pantalón", "lat": 18.684541, "lng": -100.375162
},{
"label": "Los Encinos", "lat": 18.76655, "lng": -100.167055
},{
"label": "Cerro los Casahuates", "lat": 18.731999, "lng": -100.358054
},{
"label": "Corral Viejo", "lat": 18.706016, "lng": -100.429331
},{
"label": "Coyol de San Simón", "lat": 18.740506, "lng": -100.193981
},{
"label": "Mango Matuz", "lat": 18.687378, "lng": -100.435043
},{
"label": "El Jucual", "lat": 18.703503, "lng": -100.405218
},{
"label": "Quimichatenco (Barranca de Quimichatenco)", "lat": 18.623667, "lng": -100.416505
},{
"label": "Cerro de Santiago", "lat": 18.695451, "lng": -100.230785
},{
"label": "El Zapote", "lat": 18.68315, "lng": -100.255213
},{
"label": "Las Tijeras", "lat": 18.688616, "lng": -100.252724
},{
"label": "Tepehuastitlán", "lat": 18.782449, "lng": -100.260855
},{
"label": "El Cirián", "lat": 18.647789, "lng": -100.444143
},{
"label": "El Zapote (El Zapote López)", "lat": 18.646416, "lng": -100.410102
},{
"label": "Los Planes", "lat": 18.797306, "lng": -100.201791
},{
"label": "La Chaqueta", "lat": 18.67645, "lng": -100.375478
},{
"label": "Peña Agujerada", "lat": 18.713991, "lng": -100.216106
},{
"label": "La Malagueña", "lat": 18.672729, "lng": -100.354899
},{
"label": "Salitre Santa Bárbara (Santa Bárbara)", "lat": 18.721192, "lng": -100.386122
},{
"label": "Rincón de San Simón", "lat": 18.760185, "lng": -100.182216
},{
"label": "El Coyol (Coyol de Coahuilotes)", "lat": 18.713595, "lng": -100.208827
},{
"label": "Cincuenta Arrobas", "lat": 18.654943, "lng": -100.380702
},{
"label": "Peña del Cuervo", "lat": 18.648574, "lng": -100.268819
},{
"label": "Las Trojas", "lat": 18.698139, "lng": -100.291312
},{
"label": "Piñuelas", "lat": 18.743736, "lng": -100.316144
},{
"label": "Los Guajes", "lat": 18.722981, "lng": -100.225243
},{
"label": "San Miguel (San Miguel Zinacausto)", "lat": 18.713995, "lng": -100.241842
},{
"label": "Las Pailas", "lat": 18.669316, "lng": -100.320324
},{
"label": "San Felipe de Jesús", "lat": 18.79669, "lng": -100.163225
},{
"label": "Amatepec", "lat": 18.683491, "lng": -100.186048
},{
"label": "El Mamey", "lat": 18.644319, "lng": -100.405194
},{
"label": "Escuela Vieja (El Cuitaz)", "lat": 18.663653, "lng": -100.449342
},{
"label": "El Matadero", "lat": 18.692396, "lng": -100.11286
},{
"label": "El Sobaco", "lat": 18.74376, "lng": -100.343496
},{
"label": "Amadores (Los Amador)", "lat": 18.666577, "lng": -100.353724
},{
"label": "Cortijo", "lat": 18.672004, "lng": -100.151855
},{
"label": "San Martín", "lat": 18.752114, "lng": -100.241799
},{
"label": "Hacienda Vieja", "lat": 18.792445, "lng": -100.221835
},{
"label": "Las Juntas", "lat": 18.735652, "lng": -100.412096
},{
"label": "Las Ceibas", "lat": 18.729897, "lng": -100.166329
},{
"label": "San Juan (Paso de San Juan)", "lat": 18.769486, "lng": -100.341139
},{
"label": "Aguacatitlán (La Carreta)", "lat": 18.708444, "lng": -100.286557
},{
"label": "Tlalchichilpan", "lat": 18.688279, "lng": -100.139594
},{
"label": "El Tlapanco", "lat": 18.758916, "lng": -100.395067
},{
"label": "Cuadrilla de Mondragones", "lat": 18.72574, "lng": -100.194633
},{
"label": "Puerto de la Uva", "lat": 18.677046, "lng": -100.180845
},{
"label": "Las Latas (Ayuquila)", "lat": 18.696161, "lng": -100.31352
},{
"label": "La Mora", "lat": 18.698818, "lng": -100.196403
},{
"label": "Cuadrilla Nueva", "lat": 18.648139, "lng": -100.245593
},{
"label": "El Rodeo", "lat": 18.696345, "lng": -100.130436
},{
"label": "La Mina", "lat": 18.753462, "lng": -100.293389
},{
"label": "San Marcos", "lat": 18.734202, "lng": -100.297951
},{
"label": "El Tamarindo", "lat": 18.720649, "lng": -100.33912
},{
"label": "Tierra Azul", "lat": 18.678998, "lng": -100.178802
},{
"label": "Las Tinajas", "lat": 18.800736, "lng": -100.289029
},{
"label": "Barrio de la Uva", "lat": 18.653029, "lng": -100.226786
},{
"label": "Palmarillos", "lat": 18.729476, "lng": -100.274048
},{
"label": "Ayuquila", "lat": 18.710964, "lng": -100.332432
},{
"label": "Tezululoma (Teshululoma)", "lat": 18.785556, "lng": -100.185549
},{
"label": "Tamarindo Matuz", "lat": 18.679397, "lng": -100.447106
},{
"label": "Cuadrilla de López", "lat": 18.705369, "lng": -100.347751
},{
"label": "Cerro de las Ánimas (El Cerro de las Ánimas)", "lat": 18.76998, "lng": -100.274838
},{
"label": "Los Órganos", "lat": 18.688068, "lng": -100.314511
},{
"label": "Ex-Hacienda Rodeo Matuz (El Rodeo)", "lat": 18.659208, "lng": -100.473409
},{
"label": "La Carrera", "lat": 18.771472, "lng": -100.165238
},{
"label": "Charco Hondo (El Tlacuache)", "lat": 18.697427, "lng": -100.278607
},{
"label": "Los Sabinos", "lat": 18.687612, "lng": -100.300029
},{
"label": "La Chupa Rosa", "lat": 18.716923, "lng": -100.332436
},{
"label": "San Francisco", "lat": 18.674683, "lng": -100.43878
},{
"label": "Puerto de la Mojonera", "lat": 18.698991, "lng": -100.121731
},{
"label": "El Aguacate", "lat": 18.629266, "lng": -100.393248
},{
"label": "Matuz Puerto del Rodeo", "lat": 18.666124, "lng": -100.469077
},{
"label": "Paso del Sitio", "lat": 18.770719, "lng": -100.318774
},{
"label": "Palos Altos", "lat": 18.730551, "lng": -100.374761
},{
"label": "Cristo Rey (Guacamayas)", "lat": 18.734989, "lng": -100.330743
},{
"label": "El Zapote Cincuenta Arrobas (El Zapote)", "lat": 18.639228, "lng": -100.408179
},{
"label": "El Conejo (Conejo Viejo)", "lat": 18.705633, "lng": -100.367458
},{
"label": "San Antonio Matuz", "lat": 18.667069, "lng": -100.402818
},{
"label": "Encinal Verde", "lat": 18.75967, "lng": -100.198212
},{
"label": "El Arrayán (El Arrayán Cincuenta Arrobas)", "lat": 18.653031, "lng": -100.406427
},{
"label": "San José (San José del Palmar)", "lat": 18.663281, "lng": -100.370456
},{
"label": "Zacatones", "lat": 18.653668, "lng": -100.100122
},{
"label": "El Sitio", "lat": 18.786481, "lng": -100.306758
},{
"label": "El Paraje", "lat": 18.667251, "lng": -100.194817
}]