[{
"label": "Apaxco de Ocampo", "lat": 19.975325, "lng": -99.174163
},{
"label": "Pérez de Galeana", "lat": 19.980421, "lng": -99.140479
},{
"label": "Santa Cecilia", "lat": 19.97715, "lng": -99.149719
},{
"label": "Los Arbolitos", "lat": 19.945756, "lng": -99.149545
},{
"label": "La Tarjea", "lat": 19.949186, "lng": -99.167828
},{
"label": "Coyotillos", "lat": 20.001098, "lng": -99.157271
},{
"label": "3 de Mayo", "lat": 19.980148, "lng": -99.162688
},{
"label": "Tablón Chico (Tabloncito)", "lat": 19.948576, "lng": -99.160582
},{
"label": "El Mirador", "lat": 19.98533, "lng": -99.193346
},{
"label": "Colonia Juárez", "lat": 19.995571, "lng": -99.148913
},{
"label": "CECAF", "lat": 19.98434, "lng": -99.181751
},{
"label": "Tablón Grande", "lat": 19.932538, "lng": -99.156856
},{
"label": "Ejidos de Santa María", "lat": 19.950289, "lng": -99.197571
},{
"label": "Colonia Ermita", "lat": 19.943546, "lng": -99.196029
},{
"label": "Kilómetro 29", "lat": 19.939336, "lng": -99.143922
},{
"label": "Santa María Apaxco", "lat": 19.949855, "lng": -99.192239
},{
"label": "El Pixquay", "lat": 19.963979, "lng": -99.189101
},{
"label": "San José Teña", "lat": 20.002284, "lng": -99.138832
}]