[{
"label": "Ejido la Magdalena Panoaya", "lat": 19.529816, "lng": -98.915304
},{
"label": "La Pastoría", "lat": 19.541165, "lng": -98.907689
},{
"label": "Hacienda la Grande Fracción Uno", "lat": 19.575534, "lng": -98.913923
},{
"label": "San Cristóbal Nexquipayac", "lat": 19.581587, "lng": -98.930256
},{
"label": "Ejido de Nexquipayac", "lat": 19.578424, "lng": -98.921118
},{
"label": "Ejido San Salvador Acuexcomac (Ejido la Purísima)", "lat": 19.561566, "lng": -98.926961
},{
"label": "San Salvador Atenco", "lat": 19.559339, "lng": -98.913348
},{
"label": "El Amanal", "lat": 19.54343, "lng": -98.926272
},{
"label": "Granjas Ampliación Santa Rosa", "lat": 19.590205, "lng": -98.965889
},{
"label": "Francisco I. Madero", "lat": 19.530415, "lng": -98.934364
},{
"label": "Nueva Santa Rosa", "lat": 19.590369, "lng": -98.959399
},{
"label": "Santa Isabel Ixtapan", "lat": 19.586442, "lng": -98.946062
},{
"label": "Zapotlán", "lat": 19.547268, "lng": -98.902873
},{
"label": "Colonia el Salado", "lat": 19.584023, "lng": -98.991531
},{
"label": "Los Hornos (El Presidio)", "lat": 19.586066, "lng": -98.934643
}]