[{
"label": "Rancho San Francisquito", "lat": 19.774664, "lng": -99.857929
},{
"label": "San Martín de los Manantiales", "lat": 19.85467, "lng": -99.874106
},{
"label": "Quinto Cuartel de San Pedro del Rosal", "lat": 19.786242, "lng": -99.812104
},{
"label": "Bombatevi Ejido (Ejido Santa Cruz Bombatevi)", "lat": 19.825651, "lng": -99.888383
},{
"label": "San José del Tunal", "lat": 19.789066, "lng": -99.838026
},{
"label": "El Rincón de la Candelaria", "lat": 19.789826, "lng": -99.843533
},{
"label": "Rancho Tic Ti", "lat": 19.802933, "lng": -99.902093
},{
"label": "Rancho la Querencia (Rancho el Porvenir)", "lat": 19.791904, "lng": -99.898578
},{
"label": "El Salto", "lat": 19.816727, "lng": -99.800621
},{
"label": "Tecoac (Santa María Nativitas)", "lat": 19.790358, "lng": -99.851891
},{
"label": "San Bartolo el Arenal", "lat": 19.846723, "lng": -99.864864
},{
"label": "San Pedro del Rosal", "lat": 19.779489, "lng": -99.812446
},{
"label": "Rancho Guadalupe (Rancho Blanco)", "lat": 19.780114, "lng": -99.862983
},{
"label": "Manto del Río", "lat": 19.840516, "lng": -99.928424
},{
"label": "Diximoxi", "lat": 19.853035, "lng": -99.835888
},{
"label": "Loma de Chivatí", "lat": 19.799461, "lng": -99.764342
},{
"label": "Monte María (El Nogal)", "lat": 19.799715, "lng": -99.789654
},{
"label": "San Juan de los Jarros", "lat": 19.862694, "lng": -99.914438
},{
"label": "Santo Domingo Shomejé", "lat": 19.845744, "lng": -99.90458
},{
"label": "San Antonio Enchisi", "lat": 19.754881, "lng": -99.820709
},{
"label": "Tierras Blancas", "lat": 19.868683, "lng": -99.862463
},{
"label": "Lagunita Cantashí", "lat": 19.879701, "lng": -99.891372
},{
"label": "Las Tarrias", "lat": 19.817235, "lng": -99.864412
},{
"label": "Rancho San Martín", "lat": 19.785041, "lng": -99.874951
},{
"label": "Zona Industrial", "lat": 19.784713, "lng": -99.897729
},{
"label": "Ejido el Calvario Santiago Acutzilapan", "lat": 19.793511, "lng": -99.753023
},{
"label": "El Magueyal", "lat": 19.827719, "lng": -99.826983
},{
"label": "La Isla de las Aves (La Presa)", "lat": 19.83167, "lng": -99.788257
},{
"label": "Ejido de San José del Tunal", "lat": 19.778567, "lng": -99.863812
},{
"label": "San Bartolo Lanzados", "lat": 19.8668, "lng": -99.893835
},{
"label": "Atlacomulco de Fabela", "lat": 19.800029, "lng": -99.874254
},{
"label": "La Palma", "lat": 19.815999, "lng": -99.872661
},{
"label": "Ejido del Rincón de la Candelaria", "lat": 19.768194, "lng": -99.867846
},{
"label": "San Jerónimo de los Jarros", "lat": 19.878581, "lng": -99.923084
},{
"label": "Rancho San Isidro", "lat": 19.789107, "lng": -99.785276
},{
"label": "Las Manzanas (La Joya)", "lat": 19.834611, "lng": -99.915197
},{
"label": "Dolores la Joya", "lat": 19.812621, "lng": -99.831816
},{
"label": "Bobashí de Guadalupe", "lat": 19.875616, "lng": -99.911848
},{
"label": "Santa Bárbara [Parque Industrial]", "lat": 19.781564, "lng": -99.875553
},{
"label": "San Pablo Atotonilco", "lat": 19.794466, "lng": -99.819194
},{
"label": "Mayé el Fresno", "lat": 19.851173, "lng": -99.854371
},{
"label": "Cuartel Quinta Sección el Puente", "lat": 19.819263, "lng": -99.925714
},{
"label": "San Francisco Chalchihuapan", "lat": 19.770565, "lng": -99.8198
},{
"label": "Chosto de los Jarros", "lat": 19.862466, "lng": -99.902844
},{
"label": "Santa Cruz Bombatevi", "lat": 19.804972, "lng": -99.886645
},{
"label": "El Jacal", "lat": 19.77891, "lng": -99.859275
},{
"label": "Rancho Cote", "lat": 19.772591, "lng": -99.851559
},{
"label": "San Felipe Pueblo Nuevo", "lat": 19.767818, "lng": -99.758239
},{
"label": "Puenroo", "lat": 19.783173, "lng": -99.755439
},{
"label": "Cerrito Colorado", "lat": 19.886418, "lng": -99.873374
},{
"label": "Rancho las Ánimas", "lat": 19.828679, "lng": -99.845806
},{
"label": "El Espejel", "lat": 19.826386, "lng": -99.920658
},{
"label": "Valle de los Sauces [Conjunto Urbano]", "lat": 19.774543, "lng": -99.844824
},{
"label": "Colonia Río Lerma (Tic Ti)", "lat": 19.803302, "lng": -99.895964
},{
"label": "La Alcantarilla", "lat": 19.819664, "lng": -99.94321
},{
"label": "San Ignacio de Loyola", "lat": 19.81248, "lng": -99.840493
},{
"label": "San José Toxi", "lat": 19.869287, "lng": -99.930428
},{
"label": "Manto del Río Pueblo", "lat": 19.84013, "lng": -99.933049
},{
"label": "Rancho San Joaquín", "lat": 19.775426, "lng": -99.863777
},{
"label": "San Luis Boro", "lat": 19.812316, "lng": -99.854989
},{
"label": "La Mesa de Chosto", "lat": 19.854107, "lng": -99.889621
},{
"label": "La Loma Ejido Bombatevi (El Manto)", "lat": 19.839953, "lng": -99.920333
},{
"label": "Las Mercedes", "lat": 19.782125, "lng": -99.885199
},{
"label": "San Lorenzo Tlacotepec", "lat": 19.821197, "lng": -99.917513
},{
"label": "Colonia Nueva España (Ejido San Lorenzo Tlacotepec)", "lat": 19.817182, "lng": -99.898953
},{
"label": "Rancho San Vicente", "lat": 19.790094, "lng": -99.783221
},{
"label": "El Cielito", "lat": 19.841099, "lng": -99.796508
},{
"label": "Cuendó", "lat": 19.800404, "lng": -99.947896
},{
"label": "Santiago Acutzilapan", "lat": 19.792603, "lng": -99.766795
}]