[{
"label": "Guadalupana [Granja]", "lat": 19.220681, "lng": -98.916381
},{
"label": "El Telolo", "lat": 19.24031, "lng": -98.803401
},{
"label": "La Chimenea", "lat": 19.29326, "lng": -98.873423
},{
"label": "Paraje Altamirano", "lat": 19.266242, "lng": -98.866593
},{
"label": "Rancho el Corazón", "lat": 19.237709, "lng": -98.820998
},{
"label": "San Marcos Huixtoco", "lat": 19.295767, "lng": -98.864213
},{
"label": "Santa María Huexoculco", "lat": 19.255968, "lng": -98.818695
},{
"label": "Camino al Monte", "lat": 19.201263, "lng": -98.931181
},{
"label": "Rancho Maravillas", "lat": 19.268342, "lng": -98.847538
},{
"label": "La Taberna", "lat": 19.263265, "lng": -98.865543
},{
"label": "Rancho San Miguel", "lat": 19.207232, "lng": -98.941885
},{
"label": "San Mateo Huitzilzingo", "lat": 19.227429, "lng": -98.925892
},{
"label": "Santa Catarina Ayotzingo", "lat": 19.209078, "lng": -98.929801
},{
"label": "San Javier [Granja]", "lat": 19.242041, "lng": -98.878535
},{
"label": "Hacienda del Moral", "lat": 19.238671, "lng": -98.828251
},{
"label": "CENDI [Centro de Distribución Wal Mart]", "lat": 19.250133, "lng": -98.864591
},{
"label": "Pueblo Nuevo [Conjunto Urbano]", "lat": 19.273788, "lng": -98.853761
},{
"label": "Los Cedros", "lat": 19.303994, "lng": -98.768598
},{
"label": "San José [Granja]", "lat": 19.205907, "lng": -98.821283
},{
"label": "Los Hornos", "lat": 19.276015, "lng": -98.864914
},{
"label": "San Mateo Tezoquipan Miraflores", "lat": 19.223436, "lng": -98.811796
},{
"label": "Pozo el Cuartito Número Dos", "lat": 19.289484, "lng": -98.872754
},{
"label": "Huixtomatitla (Tepalcates)", "lat": 19.263677, "lng": -98.807924
},{
"label": "El Naranjo", "lat": 19.247824, "lng": -98.924028
},{
"label": "Valle Plateado [Fraccionamiento]", "lat": 19.21842, "lng": -98.787719
},{
"label": "San Gregorio Cuautzingo", "lat": 19.257091, "lng": -98.858304
},{
"label": "Los Héroes Chalco [Conjunto Urbano]", "lat": 19.260426, "lng": -98.841399
},{
"label": "Llano del Moral", "lat": 19.216493, "lng": -98.831741
},{
"label": "Kilómetro 39 Carretera México-Cuautla", "lat": 19.249111, "lng": -98.874596
},{
"label": "Chalco de Díaz Covarrubias", "lat": 19.261132, "lng": -98.895655
},{
"label": "San Pablo Atlazalpan", "lat": 19.217295, "lng": -98.909161
},{
"label": "Camino a Cruz de Cortés", "lat": 19.230629, "lng": -98.807145
},{
"label": "Granjas San Pablo", "lat": 19.234713, "lng": -98.88956
},{
"label": "San Martín Xico Nuevo", "lat": 19.235956, "lng": -98.9161
},{
"label": "El Potrero", "lat": 19.225554, "lng": -98.785099
},{
"label": "Los Almendrales", "lat": 19.230124, "lng": -98.790264
},{
"label": "Paso del Oyamel", "lat": 19.227344, "lng": -98.782756
},{
"label": "Camino al Moral", "lat": 19.227334, "lng": -98.829311
},{
"label": "Subestación de Luz Chalco", "lat": 19.242539, "lng": -98.890557
},{
"label": "Las Colonias", "lat": 19.249555, "lng": -98.911431
},{
"label": "Instituto Damián (Ex-Hacienda San Juan de Dios)", "lat": 19.237864, "lng": -98.909051
},{
"label": "Los Álamos [Conjunto Urbano]", "lat": 19.24493, "lng": -98.859082
},{
"label": "Hacienda San Juan [Conjunto Urbano]", "lat": 19.268987, "lng": -98.840317
},{
"label": "Barrio de Guadalupe", "lat": 19.230574, "lng": -98.930908
},{
"label": "La Pulida", "lat": 19.225188, "lng": -98.823874
},{
"label": "San Juan Tezompa", "lat": 19.207144, "lng": -98.960509
},{
"label": "San Lucas Amalinalco", "lat": 19.269049, "lng": -98.862999
},{
"label": "El Tlalchichil", "lat": 19.226293, "lng": -98.794524
},{
"label": "La Longaniza", "lat": 19.24867, "lng": -98.826178
},{
"label": "San José Axalco", "lat": 19.20224, "lng": -98.912793
},{
"label": "Margarita Morán", "lat": 19.238919, "lng": -98.901419
},{
"label": "Rancho Tlalpipi", "lat": 19.277489, "lng": -98.803175
},{
"label": "La Candelaria Tlapala", "lat": 19.240753, "lng": -98.847142
},{
"label": "Rancho del Ahuehuete", "lat": 19.207961, "lng": -98.950102
},{
"label": "Caserío de Cortés", "lat": 19.189697, "lng": -98.954442
},{
"label": "Santa Anita [Granja]", "lat": 19.214196, "lng": -98.923627
},{
"label": "Colonia Nueva Creación (Las Parcelas)", "lat": 19.240999, "lng": -98.816728
},{
"label": "Caja de Agua", "lat": 19.299459, "lng": -98.873335
},{
"label": "El Molinito", "lat": 19.231041, "lng": -98.821472
},{
"label": "San Martín Cuautlalpan", "lat": 19.273348, "lng": -98.833649
},{
"label": "El Coyote", "lat": 19.234561, "lng": -98.823218
},{
"label": "Colonia Guadalupe de los Tepetates", "lat": 19.264493, "lng": -98.800985
},{
"label": "Las Piedras (Paraje Jalatitlán)", "lat": 19.273776, "lng": -98.805331
},{
"label": "Villas de San Martín [Conjunto Urbano]", "lat": 19.267769, "lng": -98.836056
},{
"label": "Colonia Calle Santa Cruz Amalinalco", "lat": 19.276715, "lng": -98.880317
},{
"label": "Puente Colorado", "lat": 19.287847, "lng": -98.879466
},{
"label": "La Magueyera", "lat": 19.258129, "lng": -98.849867
},{
"label": "Barrio Tlatel", "lat": 19.24708, "lng": -98.891727
},{
"label": "El Retorno (Kilómetro 47)", "lat": 19.301879, "lng": -98.764246
},{
"label": "Los Arenales", "lat": 19.22814, "lng": -98.903153
},{
"label": "San Lorenzo Chimalpa", "lat": 19.235688, "lng": -98.919491
},{
"label": "Ex-Hacienda de Guadalupe", "lat": 19.247041, "lng": -98.844051
},{
"label": "Rancho Nuevo", "lat": 19.202674, "lng": -98.944663
},{
"label": "Rancho Nuevo San Miguel", "lat": 19.208698, "lng": -98.940271
},{
"label": "Paraje San Javier", "lat": 19.255628, "lng": -98.878293
},{
"label": "Rancho San Jorge", "lat": 19.205337, "lng": -98.949235
},{
"label": "Ejido San Marcos", "lat": 19.29183, "lng": -98.853783
}]