[{
"label": "Chiautla", "lat": 19.548652, "lng": -98.881349
},{
"label": "Atenguillo", "lat": 19.563646, "lng": -98.875869
},{
"label": "Ejido de Chiautla (Colonia Guadalupe)", "lat": 19.541471, "lng": -98.883956
},{
"label": "Tepetitl치n", "lat": 19.577843, "lng": -98.871391
},{
"label": "San Bartolo", "lat": 19.571995, "lng": -98.883472
},{
"label": "La Concepci칩n", "lat": 19.602606, "lng": -98.90002
},{
"label": "Ocopulco", "lat": 19.589121, "lng": -98.897599
},{
"label": "Tlaltecahuac치n", "lat": 19.578947, "lng": -98.881484
},{
"label": "San Lucas Huitzilhuac치n", "lat": 19.587146, "lng": -98.883238
},{
"label": "Santiago Chimalpa (Chimalpa)", "lat": 19.569083, "lng": -98.892742
}]