[{
"label": "Barrio la Cuesta", "lat": 19.494892, "lng": -99.336392
},{
"label": "Barrio de Endonica", "lat": 19.492558, "lng": -99.35499
},{
"label": "Barrio de Ensido", "lat": 19.495558, "lng": -99.374895
},{
"label": "Barrio de Dospi", "lat": 19.545505, "lng": -99.392424
},{
"label": "Espíritu Santo", "lat": 19.530196, "lng": -99.390798
},{
"label": "Dangú", "lat": 19.517272, "lng": -99.400216
},{
"label": "Barrio las Manzanitas", "lat": 19.542873, "lng": -99.396494
},{
"label": "Santa Ana Jilotzingo", "lat": 19.538918, "lng": -99.397135
},{
"label": "San José de las Manzanas", "lat": 19.495167, "lng": -99.381773
},{
"label": "San Luis Ayucan", "lat": 19.49596, "lng": -99.363022
},{
"label": "Santa María Mazatla", "lat": 19.515794, "lng": -99.386349
},{
"label": "Barrio Gorondoni", "lat": 19.536886, "lng": -99.402662
},{
"label": "Barrio de Monfi", "lat": 19.491358, "lng": -99.368199
},{
"label": "Ejido Santa María Mazatla", "lat": 19.525587, "lng": -99.348468
},{
"label": "San Miguel Tecpan", "lat": 19.531872, "lng": -99.398533
},{
"label": "La Cuesta de Xinte", "lat": 19.544825, "lng": -99.345002
},{
"label": "Doditay", "lat": 19.521349, "lng": -99.404006
},{
"label": "Barrio el Calvario", "lat": 19.539513, "lng": -99.40212
},{
"label": "El Tular Peña de Lobos", "lat": 19.52779, "lng": -99.426569
},{
"label": "Quishiguada", "lat": 19.531474, "lng": -99.407838
},{
"label": "La Cruz", "lat": 19.508758, "lng": -99.377263
}]