[{
"label": "San José el Llanito", "lat": 19.303268, "lng": -99.478457
},{
"label": "San Mateo Atarasquillo", "lat": 19.32252, "lng": -99.459889
},{
"label": "Santa Cruz Tultepec", "lat": 19.226423, "lng": -99.471693
},{
"label": "Llano Capacho", "lat": 19.318856, "lng": -99.393201
},{
"label": "Fraccionamiento y Club de Golf los Encinos", "lat": 19.289217, "lng": -99.48002
},{
"label": "Cristo Rey", "lat": 19.302429, "lng": -99.455581
},{
"label": "La Jardona", "lat": 19.391907, "lng": -99.536351
},{
"label": "Llano de los Negros", "lat": 19.374888, "lng": -99.406105
},{
"label": "La Manga (La Laguna)", "lat": 19.336607, "lng": -99.483435
},{
"label": "Colonia Reforma Tlalmimilolpan", "lat": 19.387323, "lng": -99.489521
},{
"label": "Colonia Celso Vicencio", "lat": 19.394888, "lng": -99.535305
},{
"label": "Colonia Isidro Fabela", "lat": 19.301626, "lng": -99.523459
},{
"label": "Dolores (Ranchería Dolores)", "lat": 19.405841, "lng": -99.491417
},{
"label": "Colonia Álvaro Obregón", "lat": 19.380107, "lng": -99.492997
},{
"label": "Zacamulpa Huitzizilapan (San Isidro)", "lat": 19.391991, "lng": -99.452685
},{
"label": "Colonia Emiliano Zapata", "lat": 19.391248, "lng": -99.525119
},{
"label": "La Joya", "lat": 19.374925, "lng": -99.43879
},{
"label": "Las Mesas Huitzizilapan", "lat": 19.424258, "lng": -99.448481
},{
"label": "San Miguel Ameyalco", "lat": 19.306414, "lng": -99.4581
},{
"label": "Salazar", "lat": 19.308064, "lng": -99.387516
},{
"label": "Santiago Analco", "lat": 19.330694, "lng": -99.452078
},{
"label": "Colonia Adolfo López Mateos", "lat": 19.400688, "lng": -99.459563
},{
"label": "Santa Catarina", "lat": 19.398519, "lng": -99.493961
},{
"label": "Santa Cruz Huitzizilapan", "lat": 19.396109, "lng": -99.450437
},{
"label": "La Concepción Xochicuautla", "lat": 19.380998, "lng": -99.442513
},{
"label": "Colonia Guadalupe Victoria (La Capilla)", "lat": 19.402193, "lng": -99.454222
},{
"label": "Nueva Ameyalco", "lat": 19.300472, "lng": -99.506704
},{
"label": "El Tiradero", "lat": 19.310812, "lng": -99.467147
},{
"label": "San Pedro Huitzizilapan", "lat": 19.402533, "lng": -99.474701
},{
"label": "Colonia 5 de Mayo", "lat": 19.399186, "lng": -99.507012
},{
"label": "Ejido de San Mateo Atarasquillo", "lat": 19.320559, "lng": -99.476589
},{
"label": "El Espino", "lat": 19.381301, "lng": -99.543771
},{
"label": "San Agustín Huitzizilapan", "lat": 19.419472, "lng": -99.46245
},{
"label": "Rancho Viejo", "lat": 19.379878, "lng": -99.414088
},{
"label": "San Pablo", "lat": 19.377413, "lng": -99.488985
},{
"label": "Flor de Gallo Huitzizilapan", "lat": 19.407073, "lng": -99.458048
},{
"label": "Santa María Atarasquillo", "lat": 19.327101, "lng": -99.460176
},{
"label": "Amomolulco", "lat": 19.285833, "lng": -99.488889
},{
"label": "La Ladera", "lat": 19.318422, "lng": -99.454853
},{
"label": "El Caracol", "lat": 19.267051, "lng": -99.496396
},{
"label": "Colonia Francisco I. Madero", "lat": 19.38399, "lng": -99.525121
},{
"label": "San Francisco Xochicuautla", "lat": 19.373046, "lng": -99.445416
},{
"label": "Las Rajas Huitzizilapan (San Martín)", "lat": 19.419371, "lng": -99.408873
},{
"label": "El Manzano", "lat": 19.401872, "lng": -99.404585
},{
"label": "Endexhe", "lat": 19.407836, "lng": -99.464502
},{
"label": "La Lupita (Casas Viejas)", "lat": 19.422214, "lng": -99.422428
},{
"label": "San Lorenzo Huitzizilapan", "lat": 19.396288, "lng": -99.465816
},{
"label": "Barranca Grande", "lat": 19.385194, "lng": -99.476079
},{
"label": "Metate Viejo Tlalmimilolpan", "lat": 19.393632, "lng": -99.481008
},{
"label": "Colonia Agrícola Analco", "lat": 19.34974, "lng": -99.475094
},{
"label": "San Nicolás Peralta", "lat": 19.359091, "lng": -99.483329
},{
"label": "Santa María Tlalmimilolpan", "lat": 19.392506, "lng": -99.470784
},{
"label": "La Loma", "lat": 19.365874, "lng": -99.483817
},{
"label": "La Pedrera", "lat": 19.318009, "lng": -99.401076
},{
"label": "Cañada de Alferes", "lat": 19.322813, "lng": -99.412316
},{
"label": "San Pedro Tultepec", "lat": 19.26649, "lng": -99.513139
},{
"label": "Casa Blanca (Tierras Nuevas)", "lat": 19.363095, "lng": -99.512448
},{
"label": "La Montoya", "lat": 19.306221, "lng": -99.464554
},{
"label": "Lerma de Villada", "lat": 19.285373, "lng": -99.511817
},{
"label": "Mogini", "lat": 19.39404, "lng": -99.4281
},{
"label": "Zacamulpa Tlalmimilolpan", "lat": 19.387573, "lng": -99.44677
},{
"label": "Colonia Cucuhapan", "lat": 19.343074, "lng": -99.468293
},{
"label": "Colonia Ojo de Agua", "lat": 19.311789, "lng": -99.456672
},{
"label": "Pueblo Nuevo Tlalmimilolpan", "lat": 19.39224, "lng": -99.501888
},{
"label": "Colonia Buenavista", "lat": 19.357682, "lng": -99.451644
},{
"label": "Ejido de San Lorenzo Huitzizilapan", "lat": 19.342242, "lng": -99.504451
},{
"label": "Colonia los Cedros", "lat": 19.313401, "lng": -99.527754
},{
"label": "El Árbol", "lat": 19.374119, "lng": -99.502839
},{
"label": "Santa Cruz Chignahuapan", "lat": 19.31285, "lng": -99.47579
},{
"label": "Santiago el Viejo", "lat": 19.339308, "lng": -99.431029
},{
"label": "Colonia las Águilas", "lat": 19.322603, "lng": -99.453803
},{
"label": "El Espino Peralta", "lat": 19.376619, "lng": -99.536401
}]