[{
"label": "Club de Golf Malinalco", "lat": 18.988696, "lng": -99.476173
},{
"label": "Palmar de Guadalupe", "lat": 18.903993, "lng": -99.534899
},{
"label": "Malinalco", "lat": 18.952342, "lng": -99.497565
},{
"label": "El Obrador", "lat": 18.938589, "lng": -99.48783
},{
"label": "La Angostura", "lat": 18.790583, "lng": -99.461826
},{
"label": "Jesús María", "lat": 18.969666, "lng": -99.495643
},{
"label": "La Ladrillera", "lat": 18.927492, "lng": -99.482817
},{
"label": "Puente Caporal (La Guancha)", "lat": 18.903413, "lng": -99.454454
},{
"label": "Pachuquilla", "lat": 18.89764, "lng": -99.545684
},{
"label": "Colapa", "lat": 18.913597, "lng": -99.50812
},{
"label": "San Andrés Nicolás Bravo", "lat": 18.767953, "lng": -99.463357
},{
"label": "Colonia Hidalgo", "lat": 18.794863, "lng": -99.467736
},{
"label": "San Nicolás", "lat": 18.971913, "lng": -99.495688
},{
"label": "Loma del Cóporo", "lat": 18.918709, "lng": -99.499172
},{
"label": "El Cerro Pelón (Paraje Chastzingo)", "lat": 18.916798, "lng": -99.505195
},{
"label": "Colonia Emiliano Zapata", "lat": 18.782002, "lng": -99.475438
},{
"label": "San Sebastián", "lat": 18.981101, "lng": -99.482147
},{
"label": "Noxtepec de Zaragoza (El Aguacate)", "lat": 18.81249, "lng": -99.478431
},{
"label": "El Puentecito", "lat": 18.917055, "lng": -99.47916
},{
"label": "Colonia Casa Blanca", "lat": 18.867772, "lng": -99.431507
},{
"label": "La Loma", "lat": 18.923653, "lng": -99.482619
},{
"label": "El Platanar", "lat": 18.830153, "lng": -99.457339
},{
"label": "San Simón el Alto", "lat": 18.995571, "lng": -99.503973
},{
"label": "Las Paredes", "lat": 18.949582, "lng": -99.483623
},{
"label": "El Zapote", "lat": 18.889904, "lng": -99.533411
},{
"label": "Tepopula", "lat": 18.913038, "lng": -99.450576
},{
"label": "Colonia la Huerta", "lat": 18.908019, "lng": -99.48835
},{
"label": "La Joya Redonda", "lat": 18.90209, "lng": -99.52072
},{
"label": "Planta Alameda", "lat": 18.849992, "lng": -99.460554
},{
"label": "San Pedro Chichicasco (San Pedro)", "lat": 18.847295, "lng": -99.466589
},{
"label": "Campos de San Martín", "lat": 18.93147, "lng": -99.503883
},{
"label": "Ejido de Chalmita", "lat": 18.922354, "lng": -99.443429
},{
"label": "Colonia Juárez", "lat": 18.800211, "lng": -99.457366
},{
"label": "Palo Dulce", "lat": 18.851023, "lng": -99.456918
},{
"label": "Chichicasco el Viejo", "lat": 18.858034, "lng": -99.476249
},{
"label": "Jalmolonga (La Hacienda)", "lat": 18.917267, "lng": -99.494225
},{
"label": "Los Tepehuajes (Los Tepeguajes)", "lat": 18.862144, "lng": -99.447122
},{
"label": "Colonia Aldama", "lat": 18.80349, "lng": -99.464394
},{
"label": "Santa María Xoquiac", "lat": 18.810364, "lng": -99.495858
},{
"label": "Amate Amarillo", "lat": 18.897576, "lng": -99.482978
},{
"label": "Chalma", "lat": 18.931324, "lng": -99.434704
},{
"label": "Monte Grande", "lat": 18.876441, "lng": -99.514576
}]