[{
"label": "Jardines del Ojo de Agua", "lat": 19.480999, "lng": -99.299674
},{
"label": "Las Granjas", "lat": 19.458069, "lng": -99.315991
},{
"label": "Córdoba", "lat": 19.486667, "lng": -99.323452
},{
"label": "La Alameda [Criadero de Trucha]", "lat": 19.516444, "lng": -99.314271
},{
"label": "La Palma (Pie de la Palma)", "lat": 19.443256, "lng": -99.299472
},{
"label": "Barrio de Rancho Viejo", "lat": 19.487624, "lng": -99.340779
},{
"label": "Las Mesas", "lat": 19.457608, "lng": -99.341034
},{
"label": "Puente de Piedra", "lat": 19.495745, "lng": -99.305394
},{
"label": "La Hiedra", "lat": 19.481437, "lng": -99.332199
},{
"label": "Barrio las Peñitas", "lat": 19.492989, "lng": -99.347314
},{
"label": "El Chabacano", "lat": 19.499105, "lng": -99.312351
},{
"label": "El Cobradero", "lat": 19.462825, "lng": -99.302661
},{
"label": "Barrio de Batha", "lat": 19.448283, "lng": -99.352527
},{
"label": "Las Arenillas", "lat": 19.491806, "lng": -99.324032
},{
"label": "Tres Piedras (La Loma)", "lat": 19.450648, "lng": -99.346762
},{
"label": "Barrio la Viga (Cerro Loco)", "lat": 19.425228, "lng": -99.369311
},{
"label": "Las Torres", "lat": 19.442684, "lng": -99.312816
},{
"label": "Ejido el Cristo", "lat": 19.511358, "lng": -99.281189
},{
"label": "Barrio la Magnolia", "lat": 19.441209, "lng": -99.322837
},{
"label": "Barrio Yongua", "lat": 19.436126, "lng": -99.348924
},{
"label": "Naucalpan de Juárez", "lat": 19.478803, "lng": -99.233218
},{
"label": "Colonia Luis Donaldo Colosio (Piedra de Alesna)", "lat": 19.431053, "lng": -99.364706
},{
"label": "Ampliación el Tejocote", "lat": 19.484905, "lng": -99.28959
},{
"label": "Barrio San Miguel Dorami", "lat": 19.446269, "lng": -99.34291
},{
"label": "Barrio Arenillas (La Capilla)", "lat": 19.441461, "lng": -99.328386
},{
"label": "Barrio las Cruces", "lat": 19.435727, "lng": -99.34427
},{
"label": "La Cuesta", "lat": 19.492608, "lng": -99.337036
},{
"label": "Paraje las Rosas", "lat": 19.455259, "lng": -99.310918
},{
"label": "San José Poza Honda", "lat": 19.451079, "lng": -99.287567
},{
"label": "Ejido San Mateo Nopala (Bellavista)", "lat": 19.509564, "lng": -99.28644
},{
"label": "Valle Tranquilo", "lat": 19.434206, "lng": -99.39578
},{
"label": "La Cebada (Barrio la Cebada)", "lat": 19.437175, "lng": -99.332859
},{
"label": "Barrio de Juan Gómez", "lat": 19.48133, "lng": -99.345336
},{
"label": "Llano de las Flores (Barrio del Hueso)", "lat": 19.435479, "lng": -99.32401
},{
"label": "Ejido del Tejocote", "lat": 19.48469, "lng": -99.278316
},{
"label": "San José Tejamanil", "lat": 19.43224, "lng": -99.359212
},{
"label": "Campamento Bautista Bethel", "lat": 19.445188, "lng": -99.366561
},{
"label": "Ejido el Castillo", "lat": 19.435854, "lng": -99.305651
},{
"label": "Barrio las Salinas", "lat": 19.438176, "lng": -99.343691
},{
"label": "El Puerto", "lat": 19.487117, "lng": -99.312222
},{
"label": "Barrio de San Miguel Dextha", "lat": 19.447796, "lng": -99.344623
},{
"label": "Minas del Tecolote", "lat": 19.451293, "lng": -99.305925
},{
"label": "Barrio Agua Buena", "lat": 19.492994, "lng": -99.343969
},{
"label": "La Rosa", "lat": 19.486066, "lng": -99.32698
},{
"label": "Barrio de Tito", "lat": 19.489338, "lng": -99.347082
},{
"label": "Rincón Verde", "lat": 19.497595, "lng": -99.290597
},{
"label": "Chimalpa Viejo", "lat": 19.449455, "lng": -99.344288
},{
"label": "La Unidad Huitzizilapan", "lat": 19.424974, "lng": -99.395399
},{
"label": "Ejido de Chiluca (Pueblo de Chiluca)", "lat": 19.535304, "lng": -99.289687
},{
"label": "Santiago Tepatlaxco", "lat": 19.475562, "lng": -99.344398
},{
"label": "Cipreses (Las Julianas)", "lat": 19.468198, "lng": -99.300913
},{
"label": "Villa Alpina", "lat": 19.439205, "lng": -99.377278
},{
"label": "Ejido de San Francisco Chimalpa", "lat": 19.450012, "lng": -99.29028
},{
"label": "San Francisco Chimalpa", "lat": 19.441335, "lng": -99.339321
},{
"label": "Colonia Pinos II", "lat": 19.488406, "lng": -99.29193
},{
"label": "Las Ánimas (Ex-Hacienda las Ánimas)", "lat": 19.465754, "lng": -99.318666
},{
"label": "El Guardita", "lat": 19.434372, "lng": -99.392158
},{
"label": "Barrio Chivato", "lat": 19.438591, "lng": -99.337825
}]