[{
"label": "El Zarco (Las Truchas)", "lat": 19.295029, "lng": -99.354164
},{
"label": "Río Hondito", "lat": 19.290427, "lng": -99.437213
},{
"label": "San Isidro Tehualtepec", "lat": 19.22069, "lng": -99.397814
},{
"label": "Colonia el Pirame", "lat": 19.240755, "lng": -99.472215
},{
"label": "Ejido San Miguel Ameyalco", "lat": 19.290163, "lng": -99.449381
},{
"label": "Colonia la Joya", "lat": 19.296275, "lng": -99.460866
},{
"label": "El Llano del Compromiso", "lat": 19.254839, "lng": -99.479344
},{
"label": "El Potrero", "lat": 19.243711, "lng": -99.377092
},{
"label": "La Marquesa", "lat": 19.298396, "lng": -99.369349
},{
"label": "San Antonio el Llanito", "lat": 19.276629, "lng": -99.496164
},{
"label": "Loma de los Esquiveles", "lat": 19.26571, "lng": -99.453587
},{
"label": "Guadalupe Victoria", "lat": 19.259499, "lng": -99.479279
},{
"label": "Estación Maclovio Herrera", "lat": 19.276487, "lng": -99.480878
},{
"label": "Jajalpa (Fraccionamiento Ex-Hacienda de Jajalpa)", "lat": 19.281088, "lng": -99.450668
},{
"label": "Bosque de los Encinos [Fraccionamiento]", "lat": 19.288665, "lng": -99.472066
},{
"label": "Ocoyoacac", "lat": 19.269281, "lng": -99.455695
},{
"label": "Ejido la Campana", "lat": 19.277505, "lng": -99.462889
},{
"label": "Texcalpa (Ex-Hacienda Texcalpa)", "lat": 19.261262, "lng": -99.456527
},{
"label": "Cañada Honda", "lat": 19.29847, "lng": -99.413926
},{
"label": "Valle del Conejo", "lat": 19.271078, "lng": -99.379093
},{
"label": "Colonia Ejidal Emiliano Zapata", "lat": 19.30079, "lng": -99.457851
},{
"label": "Valle del Silencio", "lat": 19.281204, "lng": -99.38088
},{
"label": "Joquicingo", "lat": 19.266343, "lng": -99.401718
},{
"label": "Cruz de la Misión", "lat": 19.257124, "lng": -99.383353
},{
"label": "Colonia Flores del Rincón", "lat": 19.276647, "lng": -99.475314
},{
"label": "Paraje las Tuzas", "lat": 19.262633, "lng": -99.420546
},{
"label": "San Pedro", "lat": 19.23819, "lng": -99.389712
},{
"label": "Colonia Juárez (Los Chirinos)", "lat": 19.285615, "lng": -99.465871
},{
"label": "Benevento [Fraccionamiento]", "lat": 19.27, "lng": -99.476667
},{
"label": "Colonia el Bellotal", "lat": 19.281428, "lng": -99.469404
},{
"label": "Colonia Ortiz Rubio (Jajalpa)", "lat": 19.287751, "lng": -99.450429
},{
"label": "San Pedro Cholula", "lat": 19.264951, "lng": -99.486703
},{
"label": "San Jerónimo Acazulco", "lat": 19.26512, "lng": -99.415132
},{
"label": "El Pedregal de Guadalupe Hidalgo", "lat": 19.254338, "lng": -99.472478
},{
"label": "San Pedro Atlapulco", "lat": 19.242697, "lng": -99.393209
},{
"label": "Loma Bonita", "lat": 19.263536, "lng": -99.447252
},{
"label": "El Peñón", "lat": 19.297541, "lng": -99.416461
},{
"label": "La Conchita", "lat": 19.295152, "lng": -99.421461
},{
"label": "El Portezuelo", "lat": 19.300183, "lng": -99.402054
},{
"label": "La Lomita", "lat": 19.267956, "lng": -99.414653
},{
"label": "Barrio de San Miguel (Posito del Olvido)", "lat": 19.276554, "lng": -99.446756
}]