[{
"label": "Huejote (Rancho Huejote)", "lat": 18.96695, "lng": -98.830233
},{
"label": "Ozumba de Alzate", "lat": 19.039177, "lng": -98.795389
},{
"label": "San José Tlacotitlán", "lat": 18.984028, "lng": -98.809748
},{
"label": "San Lorenzo Tlaltecoyan (Tlaltecoyac)", "lat": 18.966492, "lng": -98.819951
},{
"label": "Rancho Nuevo Atempa", "lat": 19.053367, "lng": -98.820511
},{
"label": "Ex-Hacienda Actopan", "lat": 19.041081, "lng": -98.81389
},{
"label": "El Espinal", "lat": 18.963859, "lng": -98.836636
},{
"label": "San Mateo Tecalco", "lat": 19.054436, "lng": -98.795043
},{
"label": "Santiago Mamalhuazuca", "lat": 18.995616, "lng": -98.796414
},{
"label": "Barrio Actopan", "lat": 19.040702, "lng": -98.807582
},{
"label": "San José (Rancho San José Tlacotitlán)", "lat": 18.989385, "lng": -98.817539
},{
"label": "San Mateo Cuatepulco (Zona Cuatepulco)", "lat": 19.013097, "lng": -98.79987
},{
"label": "Loma Bonita", "lat": 19.015537, "lng": -98.802832
},{
"label": "Colonia Guadalupe Hidalgo", "lat": 18.968591, "lng": -98.815252
},{
"label": "San Vicente Chimalhuacán", "lat": 19.025073, "lng": -98.801759
},{
"label": "Quinta Santa Cecilia", "lat": 19.009494, "lng": -98.799883
},{
"label": "La Cantarilla", "lat": 19.015024, "lng": -98.794931
},{
"label": "San Sebastián", "lat": 18.973329, "lng": -98.832461
},{
"label": "La Joya", "lat": 19.005208, "lng": -98.803089
}]