[{
"label": "Barrio el Quelite Pueblo Nuevo", "lat": 19.5212, "lng": -100.100536
},{
"label": "Barrio Loma Bonita Guarda la Lagunita", "lat": 19.708708, "lng": -100.15674
},{
"label": "San José del Rincón Ejido", "lat": 19.664803, "lng": -100.151469
},{
"label": "Barrio Chivatí la Mesa", "lat": 19.576125, "lng": -100.17257
},{
"label": "Barrio la Palma el Depósito", "lat": 19.540739, "lng": -100.129288
},{
"label": "Barrio el Llano Grande Jaltepec", "lat": 19.583871, "lng": -100.112984
},{
"label": "Barrio el Ocho el Pintal", "lat": 19.531422, "lng": -100.100778
},{
"label": "Barrio el Lindero Pueblo Nuevo", "lat": 19.551321, "lng": -100.038422
},{
"label": "Buenavista Casablanca Ejido", "lat": 19.617734, "lng": -100.15045
},{
"label": "La Trampa Chica", "lat": 19.574055, "lng": -100.158525
},{
"label": "Barrio las Rosas San Miguel del Centro", "lat": 19.71356, "lng": -100.111985
},{
"label": "Agua Zarca Pueblo Nuevo", "lat": 19.56428, "lng": -100.017889
},{
"label": "Colonia Benito Juárez Santa Cruz del Tejocote", "lat": 19.673152, "lng": -100.172181
},{
"label": "Barrio el Llano San Juan Palo Seco", "lat": 19.539797, "lng": -100.116821
},{
"label": "Buenavista Casa Blanca", "lat": 19.649207, "lng": -100.135399
},{
"label": "Ranchería los Pintados (El Pintado)", "lat": 19.573288, "lng": -100.029819
},{
"label": "San Onofre Ejido", "lat": 19.687696, "lng": -100.10333
},{
"label": "Guadalupe del Pedregal la Palma", "lat": 19.675192, "lng": -100.112709
},{
"label": "La Trinidad Concepción", "lat": 19.62214, "lng": -100.140824
},{
"label": "La Chispa", "lat": 19.557733, "lng": -100.142836
},{
"label": "Las Rosas", "lat": 19.546589, "lng": -100.156374
},{
"label": "Guadalupe del Pedregal el Calvario", "lat": 19.688367, "lng": -100.099489
},{
"label": "Guarda de Guadalupe", "lat": 19.741566, "lng": -100.075401
},{
"label": "Barrio las Escobas del Agua San Jerónimo Dolores", "lat": 19.652366, "lng": -100.064159
},{
"label": "El Cable Ejido el Depósito", "lat": 19.51393, "lng": -100.155886
},{
"label": "Yondece el Grande", "lat": 19.589697, "lng": -100.159784
},{
"label": "Barrio Loma Grande San Antonio Pueblo Nuevo", "lat": 19.51648, "lng": -100.069132
},{
"label": "La Curva el Depósito", "lat": 19.530264, "lng": -100.125035
},{
"label": "El Cerrito Pueblo Nuevo", "lat": 19.559463, "lng": -100.056998
},{
"label": "Sanacoche Centro", "lat": 19.677776, "lng": -100.191836
},{
"label": "Rosa de Palo Amarillo", "lat": 19.652547, "lng": -100.217428
},{
"label": "Barrio Santa Ana Pueblo Nuevo", "lat": 19.545817, "lng": -100.052455
},{
"label": "El Huizache", "lat": 19.594693, "lng": -100.166041
},{
"label": "Guarda la Lagunita el Potrero", "lat": 19.710713, "lng": -100.148164
},{
"label": "Barrio el Lijadero la Mesa", "lat": 19.584124, "lng": -100.184683
},{
"label": "Concepción la Venta", "lat": 19.69049, "lng": -100.150991
},{
"label": "Guarda San Antonio Plaza de Gallos", "lat": 19.707433, "lng": -100.160835
},{
"label": "El Capulín San Miguel del Centro", "lat": 19.711945, "lng": -100.118917
},{
"label": "Guarda de San Antonio Buenavista", "lat": 19.702439, "lng": -100.151361
},{
"label": "San Francisco de la Loma Segunda Sección", "lat": 19.698316, "lng": -100.087954
},{
"label": "Guarda la Lagunita el Pueblito", "lat": 19.705546, "lng": -100.125587
},{
"label": "Rameje el Depósito Ejido", "lat": 19.517058, "lng": -100.143664
},{
"label": "Pancho Maya", "lat": 19.684675, "lng": -100.235568
},{
"label": "Sanacoche Ejido", "lat": 19.674266, "lng": -100.188562
},{
"label": "Ranchería las Rosas", "lat": 19.663046, "lng": -100.178952
},{
"label": "Guadalupe las Cabras", "lat": 19.649614, "lng": -100.192077
},{
"label": "Santiago Gigante Jaltepec", "lat": 19.584055, "lng": -100.101272
},{
"label": "Sabaneta Quintana", "lat": 19.657051, "lng": -100.195478
},{
"label": "Barrio el Llano de las Rosas", "lat": 19.556633, "lng": -100.107831
},{
"label": "San Francisco de la Loma", "lat": 19.688546, "lng": -100.086169
},{
"label": "San Miguel Agua Bendita", "lat": 19.625989, "lng": -100.083587
},{
"label": "Los Lobos Centro", "lat": 19.560245, "lng": -100.162297
},{
"label": "Barrio el Pintal el Depósito", "lat": 19.530894, "lng": -100.113516
},{
"label": "Guadalupe Chico", "lat": 19.599148, "lng": -100.133009
},{
"label": "El Puente Barrio de las Rosas", "lat": 19.550715, "lng": -100.129024
},{
"label": "San Joaquín del Monte", "lat": 19.63877, "lng": -100.157002
},{
"label": "Barrio la Mesa la Lagunita", "lat": 19.71864, "lng": -100.144775
},{
"label": "San Miguel Agua Bendita Uno", "lat": 19.635567, "lng": -100.081924
},{
"label": "Barrio el Tepetate Guarda de San Antonio Buenavista", "lat": 19.701015, "lng": -100.172358
},{
"label": "San Juan Evangelista Fracción Diez (San Juan)", "lat": 19.70814, "lng": -100.094581
},{
"label": "Cedro de la Manzana", "lat": 19.696923, "lng": -100.114991
},{
"label": "Concepción del Monte", "lat": 19.650546, "lng": -100.159445
},{
"label": "Barrio Santa Juanita el Depósito", "lat": 19.544777, "lng": -100.125214
},{
"label": "El Valerio", "lat": 19.651773, "lng": -100.099338
},{
"label": "Fundereje Barrio el Remblazo", "lat": 19.499288, "lng": -100.184531
},{
"label": "Minita del Cedro Uno", "lat": 19.579139, "lng": -100.144033
},{
"label": "Cieneguillas (Casa Blanca)", "lat": 19.665301, "lng": -100.195356
},{
"label": "Jaltepec Centro", "lat": 19.603777, "lng": -100.09286
},{
"label": "La Mesa", "lat": 19.589005, "lng": -100.176493
},{
"label": "San Juan Palo Seco Centro", "lat": 19.527781, "lng": -100.16689
},{
"label": "Falda Loma", "lat": 19.635196, "lng": -100.213798
},{
"label": "Yondece del Cedro", "lat": 19.599049, "lng": -100.142354
},{
"label": "El Porvenir", "lat": 19.717093, "lng": -100.085294
},{
"label": "Palo Amarillo", "lat": 19.660747, "lng": -100.225031
},{
"label": "Cevatí", "lat": 19.700435, "lng": -100.220797
},{
"label": "Barrio Fundereje el Depósito", "lat": 19.488957, "lng": -100.153654
},{
"label": "San Jerónimo Pilitas", "lat": 19.699308, "lng": -100.252557
},{
"label": "Barrio el Fresno el Depósito", "lat": 19.526934, "lng": -100.133213
},{
"label": "Barrio Canoas Guarda la Lagunita", "lat": 19.719678, "lng": -100.133736
},{
"label": "Colonia las Tinajas", "lat": 19.666794, "lng": -100.142707
},{
"label": "Barrio el Calvario Concepción la Venta", "lat": 19.694025, "lng": -100.162458
},{
"label": "Barrio la Magdalena San Juan Palo Seco", "lat": 19.527534, "lng": -100.149751
},{
"label": "Santa Cruz del Tejocote", "lat": 19.680293, "lng": -100.168644
},{
"label": "Barrio los Cedros San Juan Palo Seco", "lat": 19.537779, "lng": -100.149504
},{
"label": "El Cuarenta y Cuatro Pueblo Nuevo", "lat": 19.553778, "lng": -100.047623
},{
"label": "Ejido los Pintados", "lat": 19.588535, "lng": -100.05166
},{
"label": "Ejido la Soledad", "lat": 19.64502, "lng": -100.106707
},{
"label": "Santa Cruz del Rincón", "lat": 19.667553, "lng": -100.113516
},{
"label": "Pathe Mula de los Cedros", "lat": 19.73602, "lng": -100.105647
},{
"label": "Fábrica Pueblo Nuevo", "lat": 19.679409, "lng": -100.149342
},{
"label": "Ranchería de los Dolores", "lat": 19.580866, "lng": -100.020959
},{
"label": "Fábrica Pueblo Nuevo Monte Alto", "lat": 19.692321, "lng": -100.167593
},{
"label": "La Cuadrilla San Miguel del Centro", "lat": 19.702073, "lng": -100.116574
},{
"label": "San José del Rincón Centro", "lat": 19.661043, "lng": -100.151945
},{
"label": "Loma del Rancho", "lat": 19.59926, "lng": -100.076703
},{
"label": "Barrio Rosa San Antonio Concepción del Monte", "lat": 19.642743, "lng": -100.186326
},{
"label": "Guadalupe del Pedregal", "lat": 19.684829, "lng": -100.121556
},{
"label": "Minita del Cedro Dos", "lat": 19.585953, "lng": -100.123533
},{
"label": "Estación la Trinidad", "lat": 19.657859, "lng": -100.121865
},{
"label": "San Francisco Solo", "lat": 19.724279, "lng": -100.087568
},{
"label": "San Joaquín Lamillas Centro", "lat": 19.571934, "lng": -100.150002
},{
"label": "Las Canoas San Felipe de Jesús", "lat": 19.616157, "lng": -100.200241
},{
"label": "Providencia Ejido el Depósito", "lat": 19.550501, "lng": -100.117413
},{
"label": "Colonia Emiliano Zapata Ampliación la Mesa", "lat": 19.749326, "lng": -100.100733
},{
"label": "Barrio San Joaquín Lamillas (San José Lamillas)", "lat": 19.560439, "lng": -100.147303
},{
"label": "Barrio el Rancho Jaltepec", "lat": 19.609803, "lng": -100.093008
},{
"label": "Loma del Cedro Segunda Sección", "lat": 19.50385, "lng": -100.141361
},{
"label": "San Isidro la Trinidad", "lat": 19.630659, "lng": -100.121176
},{
"label": "San Miguel del Centro", "lat": 19.720636, "lng": -100.109894
},{
"label": "Guadalupe Buenavista", "lat": 19.610616, "lng": -100.128167
},{
"label": "San Felipe de Jesús", "lat": 19.627058, "lng": -100.199472
},{
"label": "Barrio San Antonio el Depósito", "lat": 19.534717, "lng": -100.124843
},{
"label": "Cañada del Sauco", "lat": 19.571798, "lng": -100.169585
},{
"label": "Los Lobos Segunda Sección", "lat": 19.558289, "lng": -100.119206
},{
"label": "Barrio San Bartolo Guarda la Lagunita", "lat": 19.694956, "lng": -100.190022
},{
"label": "San Miguel Chisda", "lat": 19.625921, "lng": -100.07475
},{
"label": "Jesús Carranza", "lat": 19.705383, "lng": -100.099322
},{
"label": "San Jerónimo de los Dolores", "lat": 19.656649, "lng": -100.073386
},{
"label": "San Antonio Palo Seco Barrio la Mesa", "lat": 19.589339, "lng": -100.193395
},{
"label": "Rosa de la Palma", "lat": 19.744208, "lng": -100.093821
},{
"label": "Garatachea", "lat": 19.667365, "lng": -100.260416
},{
"label": "Las Palomas", "lat": 19.689824, "lng": -100.221591
},{
"label": "Barrio el Toril Ejido la Soledad", "lat": 19.623242, "lng": -100.11092
},{
"label": "La Soledad el Guarda", "lat": 19.750209, "lng": -100.077836
},{
"label": "El Llano San Miguel del Centro", "lat": 19.663172, "lng": -100.099063
},{
"label": "Barrio San Diego Pueblo Nuevo", "lat": 19.497995, "lng": -100.080281
},{
"label": "Barrio Santa Rita Pueblo Nuevo", "lat": 19.557702, "lng": -100.045505
},{
"label": "La Puerta San Miguel del Centro", "lat": 19.724051, "lng": -100.096944
},{
"label": "San Onofre Centro (Carmona)", "lat": 19.691778, "lng": -100.097073
},{
"label": "El Salto la Venta (Barrio el Salto)", "lat": 19.700891, "lng": -100.139236
},{
"label": "Purungueo", "lat": 19.639106, "lng": -100.206231
},{
"label": "Rancho el Guarda Ejido", "lat": 19.750258, "lng": -100.095901
},{
"label": "La Esperanza", "lat": 19.615914, "lng": -100.159448
},{
"label": "Barrio el Pintado Pueblo Nuevo", "lat": 19.565831, "lng": -100.033775
},{
"label": "Barrio de Santa Cruz Pueblo Nuevo", "lat": 19.566548, "lng": -100.043952
},{
"label": "La Trampa (La Trampa Grande)", "lat": 19.56874, "lng": -100.170633
},{
"label": "Ejido el Consuelo", "lat": 19.744025, "lng": -100.102079
},{
"label": "Fábrica Concepción", "lat": 19.631042, "lng": -100.146626
},{
"label": "Loma del Cedro el Depósito", "lat": 19.508293, "lng": -100.154221
},{
"label": "Barrio Puentecillas el Depósito", "lat": 19.514424, "lng": -100.164261
},{
"label": "Barrio San Ramón las Rosas", "lat": 19.552046, "lng": -100.142885
},{
"label": "San Antonio Pueblo Nuevo", "lat": 19.567182, "lng": -100.047613
}]