[{
"label": "Fraccionamiento Campestre Rancho Viejo", "lat": 19.099925, "lng": -99.915003
},{
"label": "Los Timbres", "lat": 19.038239, "lng": -100.079699
},{
"label": "La Finca", "lat": 19.021468, "lng": -100.209662
},{
"label": "San José", "lat": 19.040725, "lng": -100.029401
},{
"label": "La Laguna", "lat": 19.079044, "lng": -99.910135
},{
"label": "Sabanillas", "lat": 19.041596, "lng": -99.875675
},{
"label": "Barrio de Cantarranas", "lat": 19.041462, "lng": -100.044927
},{
"label": "La Loba", "lat": 19.107769, "lng": -99.852809
},{
"label": "El Varal", "lat": 19.067077, "lng": -99.854642
},{
"label": "Pedregales de Tequesquipan", "lat": 19.070381, "lng": -99.955263
},{
"label": "San Sebastián Carboneras (Carboneras)", "lat": 19.054337, "lng": -100.011668
},{
"label": "Cieneguillas de Labra", "lat": 18.999076, "lng": -99.918568
},{
"label": "San Miguel Oxtotilpan", "lat": 19.149223, "lng": -99.885487
},{
"label": "Rincón de Tequesquipan", "lat": 19.061488, "lng": -99.928778
},{
"label": "Pueblo Nuevo", "lat": 19.067492, "lng": -99.970411
},{
"label": "El Cerro Pelón", "lat": 19.02496, "lng": -100.137924
},{
"label": "San Antonio Albarranes", "lat": 19.118046, "lng": -99.936529
},{
"label": "El Salitre", "lat": 19.013153, "lng": -100.190347
},{
"label": "San Pedro Tenayac", "lat": 19.046662, "lng": -100.17732
},{
"label": "Manzana del Jabalí", "lat": 19.010936, "lng": -99.917773
},{
"label": "Mina del Rincón", "lat": 19.030323, "lng": -99.984726
},{
"label": "Cajones", "lat": 19.054104, "lng": -99.877731
},{
"label": "La Orejeta", "lat": 19.076292, "lng": -99.886234
},{
"label": "El Capulín", "lat": 19.076688, "lng": -99.846939
},{
"label": "Potrero de Tenayac", "lat": 19.042636, "lng": -100.211375
},{
"label": "Manzana de Tequesquipan (Las Manzanas)", "lat": 19.032346, "lng": -99.921297
},{
"label": "San Mateo Almomoloa", "lat": 19.147404, "lng": -99.926018
},{
"label": "Hoyos de Vázquez", "lat": 19.11597, "lng": -99.882524
},{
"label": "La Guacamaya", "lat": 19.036322, "lng": -99.903802
},{
"label": "Milpas Viejas", "lat": 19.028065, "lng": -99.935163
},{
"label": "Las Trancas", "lat": 19.067993, "lng": -100.163598
},{
"label": "Temascaltepec de González", "lat": 19.043075, "lng": -100.041359
},{
"label": "Barrio la Cascada (Barrio del Varal)", "lat": 19.048096, "lng": -100.040629
},{
"label": "Jesús del Monte", "lat": 19.118134, "lng": -99.987262
},{
"label": "El Peñón", "lat": 19.048785, "lng": -100.112381
},{
"label": "Lampazos", "lat": 19.060753, "lng": -100.227866
},{
"label": "Rincón de Atarasquillo", "lat": 19.064338, "lng": -99.906009
},{
"label": "Cieneguillas de González (Cieneguillas)", "lat": 19.095591, "lng": -99.956159
},{
"label": "Plan de Vigas", "lat": 19.020896, "lng": -99.899701
},{
"label": "San Martín Tequesquipan (Tequesquipan)", "lat": 19.058038, "lng": -99.945897
},{
"label": "Potrero de San José (La Rinconada)", "lat": 19.137325, "lng": -99.957149
},{
"label": "San Lucas del Pulque", "lat": 19.102753, "lng": -100.029238
},{
"label": "Santanas", "lat": 19.121557, "lng": -99.948121
},{
"label": "Real de Arriba", "lat": 19.040159, "lng": -100.004518
},{
"label": "Granjas de Cieneguillas", "lat": 19.098808, "lng": -99.957387
},{
"label": "La Albarrada (San Francisco la Albarrada)", "lat": 19.067931, "lng": -100.075406
},{
"label": "El Tule", "lat": 19.026455, "lng": -100.085888
},{
"label": "Mesón Viejo", "lat": 19.168436, "lng": -99.880259
},{
"label": "Las Mesas de Real de Arriba", "lat": 19.057641, "lng": -99.98934
},{
"label": "Labor las Cabras", "lat": 19.007255, "lng": -99.875938
},{
"label": "La Comunidad", "lat": 19.128366, "lng": -99.933086
},{
"label": "San Juan", "lat": 19.040678, "lng": -99.940212
},{
"label": "Fraccionamiento Fiesta de los Bosques de Tepehuite", "lat": 19.109772, "lng": -99.954903
},{
"label": "La Cumbre", "lat": 19.009558, "lng": -99.942336
},{
"label": "Ejido Real de Arriba", "lat": 19.043419, "lng": -99.982633
},{
"label": "Telpintla", "lat": 19.063462, "lng": -100.04746
},{
"label": "Los Ocotes", "lat": 19.082103, "lng": -99.930615
},{
"label": "Barrio la Magdalena (La Magdalena)", "lat": 19.039244, "lng": -100.036094
},{
"label": "Rincón de San Andrés", "lat": 19.032126, "lng": -99.963493
},{
"label": "San Francisco Oxtotilpan", "lat": 19.168405, "lng": -99.901758
},{
"label": "Salitre Viejo", "lat": 19.001362, "lng": -100.177417
},{
"label": "La Estancia de Tequesquipan", "lat": 19.091926, "lng": -99.932854
},{
"label": "Carnicería", "lat": 19.038659, "lng": -100.022279
},{
"label": "San Andrés de los Gama", "lat": 19.036991, "lng": -99.973591
},{
"label": "El Chilar del Ejido de las Trancas", "lat": 19.057762, "lng": -100.168339
}]