[{
"label": "San Antonio del Puente", "lat": 19.418821, "lng": -99.617963
},{
"label": "La Magdalena Tenexpan 4ta. Sección", "lat": 19.450579, "lng": -99.595186
},{
"label": "San Pedro Arriba 3ra. Sección", "lat": 19.501105, "lng": -99.557233
},{
"label": "Ejido de Taborda", "lat": 19.451613, "lng": -99.701784
},{
"label": "San Pedro Arriba 4ta. Sección (Cinco Reales)", "lat": 19.48636, "lng": -99.569829
},{
"label": "Tlaltenango Arriba", "lat": 19.471936, "lng": -99.596133
},{
"label": "San Lorenzo Oyamel", "lat": 19.430284, "lng": -99.575366
},{
"label": "Jiquipilco el Viejo", "lat": 19.516596, "lng": -99.572156
},{
"label": "San José Comalco", "lat": 19.468394, "lng": -99.62343
},{
"label": "Ejido de Allende", "lat": 19.475563, "lng": -99.71427
},{
"label": "Tierra Blanca", "lat": 19.507291, "lng": -99.584559
},{
"label": "Loma de Progreso", "lat": 19.426759, "lng": -99.626074
},{
"label": "San Mateo Alcalá", "lat": 19.461649, "lng": -99.641777
},{
"label": "San Pedro Abajo 2da. Sección (Loma Larga)", "lat": 19.484285, "lng": -99.584798
},{
"label": "Tlaltenanguito", "lat": 19.499369, "lng": -99.582668
},{
"label": "Calle Real", "lat": 19.490518, "lng": -99.609058
},{
"label": "San Pedro Abajo", "lat": 19.484988, "lng": -99.580921
},{
"label": "Colonia Emiliano Zapata (Ejido Santiago Temoaya)", "lat": 19.452694, "lng": -99.62343
},{
"label": "Zanja Vieja", "lat": 19.494622, "lng": -99.580664
},{
"label": "Colonia Adolfo López Mateos", "lat": 19.519509, "lng": -99.56241
},{
"label": "La Magdalena Tenexpan 3ra. Sección", "lat": 19.452243, "lng": -99.59069
},{
"label": "Rancho Maruca del Río", "lat": 19.493567, "lng": -99.706505
},{
"label": "Enthavi 3ra. Sección Ojo de Agua", "lat": 19.504139, "lng": -99.567674
},{
"label": "Silverio Galicia García", "lat": 19.448233, "lng": -99.622051
},{
"label": "La Magdalena Tenexpan", "lat": 19.462997, "lng": -99.58848
},{
"label": "Rancho Cordero", "lat": 19.466155, "lng": -99.604587
},{
"label": "Molino Abajo", "lat": 19.449429, "lng": -99.601308
},{
"label": "San Pedro Arriba 5ta. Sección (San Lorencito)", "lat": 19.482949, "lng": -99.559679
},{
"label": "San José las Lomas", "lat": 19.483337, "lng": -99.679099
},{
"label": "Ranchería las Lomas", "lat": 19.497282, "lng": -99.690204
},{
"label": "San Pedro Abajo 1ra. Sección (Loma del Caracol)", "lat": 19.475026, "lng": -99.580235
},{
"label": "Vista Hermosa", "lat": 19.517965, "lng": -99.598525
},{
"label": "Ejido de Dolores", "lat": 19.431053, "lng": -99.612909
},{
"label": "Ranchería de Trojes (San Antonio del Puente)", "lat": 19.423202, "lng": -99.604359
},{
"label": "Barrio de Laurel 1ra. Sección", "lat": 19.494489, "lng": -99.56478
},{
"label": "San Pedro Arriba 2da. Sección", "lat": 19.491951, "lng": -99.559613
},{
"label": "San Diego Alcalá", "lat": 19.463278, "lng": -99.611356
},{
"label": "Colonia Centro Ceremonial Otomí", "lat": 19.522216, "lng": -99.537896
},{
"label": "Puente Roto", "lat": 19.49739, "lng": -99.55304
},{
"label": "San Pedro Arriba 6ta. Sección", "lat": 19.513051, "lng": -99.544025
},{
"label": "Solalpan 2da. Sección", "lat": 19.500043, "lng": -99.568392
},{
"label": "Temoaya", "lat": 19.470014, "lng": -99.594906
},{
"label": "Colonia Morelos", "lat": 19.435829, "lng": -99.615004
},{
"label": "San José Buenavista el Grande", "lat": 19.412043, "lng": -99.578994
},{
"label": "Tlaltenango Abajo", "lat": 19.475405, "lng": -99.588626
},{
"label": "San Pedro Arriba", "lat": 19.484334, "lng": -99.564289
},{
"label": "Llano de la Y", "lat": 19.402639, "lng": -99.615963
},{
"label": "Hacienda las Trojes", "lat": 19.416124, "lng": -99.608885
},{
"label": "San Lucas", "lat": 19.475702, "lng": -99.659441
},{
"label": "Ejido de Mimbres", "lat": 19.428008, "lng": -99.59045
},{
"label": "Enthavi", "lat": 19.504958, "lng": -99.573147
},{
"label": "Loma Alta", "lat": 19.481412, "lng": -99.603292
},{
"label": "Barrio de Laurel 2da. Sección", "lat": 19.490672, "lng": -99.567315
},{
"label": "Ejido Bordo del Capulín", "lat": 19.438442, "lng": -99.576248
},{
"label": "San Pedro Arriba 1ra. Sección", "lat": 19.481351, "lng": -99.563227
},{
"label": "Cerrito del Panal", "lat": 19.501109, "lng": -99.611202
},{
"label": "Loma de San Nicolás", "lat": 19.440621, "lng": -99.605489
},{
"label": "Campamento Kilómetro 48", "lat": 19.458193, "lng": -99.572349
},{
"label": "Solalpan 1ra. Sección", "lat": 19.492758, "lng": -99.574537
},{
"label": "Luis Donaldo Colosio Murrieta", "lat": 19.50085, "lng": -99.579621
},{
"label": "Pothé", "lat": 19.474146, "lng": -99.602895
},{
"label": "Fraccionamiento Rinconada del Valle", "lat": 19.407859, "lng": -99.576599
},{
"label": "La Cañada", "lat": 19.485721, "lng": -99.598263
},{
"label": "San José Pathé", "lat": 19.435576, "lng": -99.635204
}]