[{
"label": "Rancho Aculco", "lat": 19.180064, "lng": -98.873768
},{
"label": "La Casa del Puente", "lat": 19.163128, "lng": -98.852981
},{
"label": "Rancho el Paredón", "lat": 19.164874, "lng": -98.851856
},{
"label": "Santiago Tepopula", "lat": 19.142743, "lng": -98.856158
},{
"label": "Finca Mary Carmen", "lat": 19.182501, "lng": -98.870875
},{
"label": "Rancho Aculco (El Paraíso)", "lat": 19.177423, "lng": -98.870939
},{
"label": "Las Monjas", "lat": 19.170908, "lng": -98.847935
},{
"label": "Rutilo Herrera", "lat": 19.156423, "lng": -98.866671
},{
"label": "Chiconquiahuac", "lat": 19.168766, "lng": -98.831804
},{
"label": "Tecorral", "lat": 19.141212, "lng": -98.871349
},{
"label": "Rancho San Luis", "lat": 19.171203, "lng": -98.860843
},{
"label": "Cerro de las Campanas", "lat": 19.156519, "lng": -98.869991
},{
"label": "El Pedregal (Teotoxtipan)", "lat": 19.163114, "lng": -98.868255
},{
"label": "Tres Platos", "lat": 19.16284, "lng": -98.853831
},{
"label": "Finca de Burgos", "lat": 19.131799, "lng": -98.870825
},{
"label": "Rancho Saturnino (Tepalcapa)", "lat": 19.166796, "lng": -98.863046
},{
"label": "Rancho Armendaris", "lat": 19.168016, "lng": -98.852956
},{
"label": "Ex-Hacienda de Tequimixco", "lat": 19.132633, "lng": -98.867491
},{
"label": "Tenango del Aire", "lat": 19.157003, "lng": -98.861296
},{
"label": "San Luis Aculco", "lat": 19.168694, "lng": -98.861661
},{
"label": "Rancho San Isidro Labrador (El Piaje)", "lat": 19.172361, "lng": -98.866079
},{
"label": "Rancho Chavarría (Paraje Puerta)", "lat": 19.146455, "lng": -98.848139
},{
"label": "Tecuatitla (Colonia Nueva Tecuatitla)", "lat": 19.147798, "lng": -98.861416
},{
"label": "San Juan Coxtocan", "lat": 19.138611, "lng": -98.847222
},{
"label": "Colonia el Mirador", "lat": 19.155171, "lng": -98.851435
},{
"label": "Barrio San Miguel (Las Espinas)", "lat": 19.162743, "lng": -98.859449
},{
"label": "Tlatelpa", "lat": 19.159981, "lng": -98.865691
}]