[{
"label": "Colonia Santo Tomás", "lat": 19.775435, "lng": -99.166236
},{
"label": "El Ramal (Las Ladrilleras)", "lat": 19.76542, "lng": -99.18519
},{
"label": "San Bartolo", "lat": 19.734196, "lng": -99.161533
},{
"label": "Teoloyucan", "lat": 19.745394, "lng": -99.183032
},{
"label": "San Sebastián", "lat": 19.751495, "lng": -99.212331
},{
"label": "Santa María Caliacac", "lat": 19.789545, "lng": -99.179864
}]