[{
"label": "Alborada [Granja]", "lat": 19.00354, "lng": -98.823991
},{
"label": "Texcalama (El Montoncito Texcalama)", "lat": 18.970964, "lng": -98.854417
},{
"label": "Cuauhnextle", "lat": 18.988455, "lng": -98.854262
},{
"label": "Piñuelas (Guayabitos)", "lat": 18.982179, "lng": -98.856234
},{
"label": "Las Cruces", "lat": 18.990507, "lng": -98.830578
},{
"label": "Huachicalco", "lat": 19.040721, "lng": -98.827914
},{
"label": "Tlaximulco (Rancho de la Cruz)", "lat": 19.022363, "lng": -98.832191
},{
"label": "El Cerro", "lat": 19.025399, "lng": -98.811427
},{
"label": "Tepetlixpa", "lat": 19.029515, "lng": -98.819708
},{
"label": "San Isidro", "lat": 19.036708, "lng": -98.828486
},{
"label": "Ferrocarril el Plan", "lat": 19.037184, "lng": -98.8195
},{
"label": "Nepantla [Granja]", "lat": 19.000419, "lng": -98.841626
},{
"label": "Rancho Santa Rosa", "lat": 18.988004, "lng": -98.828024
},{
"label": "Segundo Agrupamiento de Seguridad Pública Estatal Tepetlapa", "lat": 19.013585, "lng": -98.824021
},{
"label": "Rancho Sofía", "lat": 19.003681, "lng": -98.820748
},{
"label": "Huahualapexca", "lat": 18.996532, "lng": -98.820269
},{
"label": "Alotepec", "lat": 18.957738, "lng": -98.841058
},{
"label": "Chimalaca", "lat": 19.016159, "lng": -98.816389
},{
"label": "San Esteban Cuecuecuautitla", "lat": 19.013349, "lng": -98.842546
},{
"label": "María Isabel", "lat": 19.006497, "lng": -98.819556
},{
"label": "Corregidora (Texcalera)", "lat": 19.030376, "lng": -98.826921
},{
"label": "Rancho los Limones", "lat": 19.008593, "lng": -98.824978
},{
"label": "Nepantla de Sor Juana Inés de la Cruz", "lat": 18.980054, "lng": -98.839932
},{
"label": "Santa Cruz", "lat": 19.019502, "lng": -98.825549
},{
"label": "Rancho Casa Blanca (Kilómetro 76)", "lat": 18.994695, "lng": -98.825028
}]