[{
"label": "Granjas Hogar y Petrohuertos Delegación", "lat": 19.678975, "lng": -99.335777
},{
"label": "Hacienda la Concepción (Ex-Rancho la Joya) [Fraccionamiento Habitacional]", "lat": 19.683755, "lng": -99.304969
},{
"label": "Lanzarote", "lat": 19.670611, "lng": -99.32415
},{
"label": "Ejido Santiago", "lat": 19.699747, "lng": -99.267325
},{
"label": "Peña Colorada", "lat": 19.715081, "lng": -99.313262
},{
"label": "Barranca de la Pila", "lat": 19.716882, "lng": -99.30732
},{
"label": "Santiago el Alto", "lat": 19.674421, "lng": -99.303156
},{
"label": "Axotlán II", "lat": 19.75233, "lng": -99.228331
},{
"label": "Santa Cruz del Monte", "lat": 19.768233, "lng": -99.222658
},{
"label": "Ejido de Coyotepec", "lat": 19.776473, "lng": -99.219053
},{
"label": "Tierras Blancas del Sur", "lat": 19.669853, "lng": -99.274337
},{
"label": "Colonia los Dolores (Ex-Hacienda los Dolores)", "lat": 19.730765, "lng": -99.404924
},{
"label": "La Estancia II", "lat": 19.720085, "lng": -99.29723
},{
"label": "Tepotzotlán", "lat": 19.713778, "lng": -99.223514
},{
"label": "El Tajuelo", "lat": 19.743699, "lng": -99.202204
},{
"label": "Las Cabañas", "lat": 19.711573, "lng": -99.344867
},{
"label": "San Sebastián", "lat": 19.751205, "lng": -99.216663
},{
"label": "Las Compuertas", "lat": 19.739828, "lng": -99.203745
},{
"label": "Barrio la Tecla", "lat": 19.759462, "lng": -99.228525
},{
"label": "Ex-Hacienda San José la Teja", "lat": 19.737665, "lng": -99.222414
},{
"label": "Arcos del Sitio", "lat": 19.765398, "lng": -99.344769
},{
"label": "La Pedrera", "lat": 19.734824, "lng": -99.230326
},{
"label": "La Bolsa", "lat": 19.784383, "lng": -99.227989
},{
"label": "El Puerto de los Huizaches", "lat": 19.704119, "lng": -99.321437
},{
"label": "Loma de San José y Paraje el Capiro", "lat": 19.649128, "lng": -99.318183
},{
"label": "San Mateo Xoloc", "lat": 19.703292, "lng": -99.253487
},{
"label": "Rancho el Arroyo", "lat": 19.727174, "lng": -99.215184
},{
"label": "Cañada de Cisneros", "lat": 19.696047, "lng": -99.336602
},{
"label": "La Luz", "lat": 19.700025, "lng": -99.280249
},{
"label": "El Jagüey", "lat": 19.707398, "lng": -99.309882
},{
"label": "Barrio de la Luz", "lat": 19.684538, "lng": -99.336106
},{
"label": "Segunda Sección del Barrio de Santiago", "lat": 19.774328, "lng": -99.22825
},{
"label": "Las Lechuguillas", "lat": 19.696392, "lng": -99.325326
},{
"label": "San Miguel Cañadas", "lat": 19.722345, "lng": -99.345195
},{
"label": "El Gavillero", "lat": 19.714414, "lng": -99.377854
},{
"label": "La Concepción", "lat": 19.69804, "lng": -99.299541
},{
"label": "Fraccionamiento Club Virreyes", "lat": 19.654449, "lng": -99.307322
},{
"label": "La Pedrera (La Mina)", "lat": 19.704337, "lng": -99.305469
},{
"label": "Santiago Cuautlalpan", "lat": 19.684316, "lng": -99.28567
},{
"label": "Ampliación los Potros (Tres Piedras)", "lat": 19.734204, "lng": -99.23826
},{
"label": "Colonia Guadalupe", "lat": 19.712373, "lng": -99.250782
},{
"label": "Santa Cruz", "lat": 19.693811, "lng": -99.258839
},{
"label": "Lumbrera Número Diez", "lat": 19.732531, "lng": -99.225134
},{
"label": "Ejido del Muerto", "lat": 19.741313, "lng": -99.214684
},{
"label": "Lumbrera II", "lat": 19.759364, "lng": -99.232493
}]