[{
"label": "Rancho los Gavilanes", "lat": 19.136878, "lng": -99.509068
},{
"label": "San Mateo Texcalyacac", "lat": 19.132228, "lng": -99.503069
},{
"label": "Barrio Otompa", "lat": 19.141028, "lng": -99.493831
},{
"label": "Colonia las Maravillas", "lat": 19.128355, "lng": -99.495804
},{
"label": "Barrio Mexicapan", "lat": 19.133111, "lng": -99.506331
}]