[{
"label": "El Agostadero", "lat": 18.981504, "lng": -99.933248
},{
"label": "San José", "lat": 18.952569, "lng": -99.942111
},{
"label": "Carbajal", "lat": 18.874419, "lng": -99.998254
},{
"label": "Hueyatenco", "lat": 18.887607, "lng": -99.96775
},{
"label": "Venta Morales (El Pedregal)", "lat": 18.962384, "lng": -99.926492
},{
"label": "La Angostura", "lat": 18.943623, "lng": -100.007027
},{
"label": "Texcaltitlán", "lat": 18.930389, "lng": -99.939277
},{
"label": "El Salto", "lat": 18.95265, "lng": -99.912911
},{
"label": "El Caracol", "lat": 18.892711, "lng": -99.945963
},{
"label": "San Miguel", "lat": 18.930496, "lng": -99.949869
},{
"label": "Texcapilla", "lat": 18.945448, "lng": -99.895113
},{
"label": "Acatitlán", "lat": 18.92146, "lng": -99.948685
},{
"label": "Gavia Chica (Rincón)", "lat": 18.961938, "lng": -99.961643
},{
"label": "Palmillas", "lat": 18.966637, "lng": -99.884125
},{
"label": "Chiquiuntepec (Chiquintepec)", "lat": 18.913489, "lng": -99.917469
},{
"label": "Arroyo Seco", "lat": 18.917041, "lng": -99.929381
},{
"label": "Ejido Venta Morales (La Laguna)", "lat": 18.986174, "lng": -99.89012
},{
"label": "Noxtepec", "lat": 18.878545, "lng": -100.001364
},{
"label": "El Chapaneal", "lat": 18.945424, "lng": -99.954227
},{
"label": "Las Tablas (Las Tablas San José)", "lat": 18.972276, "lng": -99.941858
},{
"label": "Las Paredes", "lat": 18.914441, "lng": -99.982425
},{
"label": "Las Lágrimas", "lat": 19.039639, "lng": -99.848489
},{
"label": "Tlacotepec", "lat": 18.965228, "lng": -99.933674
},{
"label": "Llano Grande", "lat": 18.959399, "lng": -99.899078
},{
"label": "Yuytepec", "lat": 18.914581, "lng": -99.963009
},{
"label": "Agua del Trébol", "lat": 18.925193, "lng": -99.977802
},{
"label": "San Francisco", "lat": 18.910282, "lng": -99.930234
},{
"label": "Rastrojo Largo", "lat": 18.896108, "lng": -99.954717
},{
"label": "Santa María", "lat": 18.923287, "lng": -99.93237
},{
"label": "Nueva Santa María", "lat": 18.936835, "lng": -99.907431
},{
"label": "Jesús del Monte", "lat": 18.912714, "lng": -99.946214
},{
"label": "San Agustín", "lat": 18.941067, "lng": -99.941623
},{
"label": "Palo Amarillo", "lat": 18.976719, "lng": -99.910544
},{
"label": "Ojo de Agua", "lat": 18.975054, "lng": -99.89414
},{
"label": "Los Lirios", "lat": 18.981988, "lng": -99.957721
}]