[{
"label": "Tercera Manzana de Barrio Iturbide Ixcaja", "lat": 19.863266, "lng": -99.743445
},{
"label": "Primera Manzana de Barrio Morelos", "lat": 19.877454, "lng": -99.718916
},{
"label": "San Antonio Yondejé", "lat": 19.832288, "lng": -99.743828
},{
"label": "Tercera Manzana de Zaragoza", "lat": 19.896872, "lng": -99.751249
},{
"label": "Primera Manzana de Cañada de Lobos", "lat": 19.863773, "lng": -99.699244
},{
"label": "Lomas de Emiliano Zapata (Las Lomas)", "lat": 19.924872, "lng": -99.721504
},{
"label": "Primera Manzana Barrio de Hidalgo", "lat": 19.89152, "lng": -99.728341
},{
"label": "Segunda Manzana de Barrio Iturbide", "lat": 19.873657, "lng": -99.740434
},{
"label": "Barrio Iturbide (La Campesina)", "lat": 19.900444, "lng": -99.735264
},{
"label": "Tercera Manzana del Pueblo de Rincón de Bucio", "lat": 19.893792, "lng": -99.665451
},{
"label": "Huapango", "lat": 19.976143, "lng": -99.685372
},{
"label": "Barrio de Ocampo", "lat": 19.875776, "lng": -99.752808
},{
"label": "Tercera Manzana de Barrio Morelos", "lat": 19.871043, "lng": -99.724611
},{
"label": "Quinto Barrio Santiaguito Maxda (Enzdá)", "lat": 19.830836, "lng": -99.777633
},{
"label": "El Palmito (San José el Palmito)", "lat": 19.917504, "lng": -99.681421
},{
"label": "Primera Manzana de Zaragoza", "lat": 19.88372, "lng": -99.759131
},{
"label": "Segunda Manzana de Zaragoza", "lat": 19.890639, "lng": -99.752066
},{
"label": "Primera Manzana del Pueblo de Rincón de Bucio", "lat": 19.875875, "lng": -99.689138
},{
"label": "Primera Manzana de San Nicolás (Puerto San Nicolás)", "lat": 19.896485, "lng": -99.765191
},{
"label": "Segunda Manzana de Barrio Morelos", "lat": 19.874168, "lng": -99.709599
},{
"label": "San Andrés Timilpan", "lat": 19.876169, "lng": -99.733779
},{
"label": "Segunda Manzana de Cañada de Lobos", "lat": 19.873581, "lng": -99.664469
},{
"label": "Segunda Manzana del Pueblo de Rincón de Bucio", "lat": 19.876093, "lng": -99.684847
},{
"label": "Agua Bendita", "lat": 19.859251, "lng": -99.713052
},{
"label": "Primera Manzana de Barrio Iturbide", "lat": 19.883204, "lng": -99.740549
},{
"label": "Segunda Manzana de Barrio Hidalgo", "lat": 19.867798, "lng": -99.738878
},{
"label": "Santiaguito Maxda", "lat": 19.820608, "lng": -99.763973
}]