[{
"label": "El Arenal (Familia Carbajal) [Restaurante]", "lat": 19.205594, "lng": -98.818139
},{
"label": "Rancho la Joya", "lat": 19.218926, "lng": -98.76489
},{
"label": "Cabaña la Negra", "lat": 19.176023, "lng": -98.821847
},{
"label": "Rancho Carbajal", "lat": 19.209061, "lng": -98.817598
},{
"label": "Las Margaritas", "lat": 19.202288, "lng": -98.763204
},{
"label": "El Bordo", "lat": 19.212081, "lng": -98.739951
},{
"label": "Monte Oreb (El Tenayo)", "lat": 19.185327, "lng": -98.81151
},{
"label": "El Capulín", "lat": 19.196363, "lng": -98.799928
},{
"label": "El Faro", "lat": 19.211103, "lng": -98.759759
},{
"label": "Aguilera", "lat": 19.179765, "lng": -98.791093
},{
"label": "San Antonio Tlaltecahuacán", "lat": 19.157503, "lng": -98.769063
},{
"label": "Rancho Santa Cruz", "lat": 19.205593, "lng": -98.784418
},{
"label": "El Magueyal", "lat": 19.204051, "lng": -98.817726
},{
"label": "Colonia el Magueyal Dos", "lat": 19.206597, "lng": -98.816772
},{
"label": "Santa María", "lat": 19.194699, "lng": -98.81754
},{
"label": "Rancho la Encumbre", "lat": 19.192594, "lng": -98.821853
},{
"label": "Rincón de las Montañas", "lat": 19.181574, "lng": -98.799229
},{
"label": "La Escondida", "lat": 19.186496, "lng": -98.79752
},{
"label": "Rancho Cuautenampa (La Quebradora)", "lat": 19.185924, "lng": -98.795362
},{
"label": "Tepopotal", "lat": 19.21685, "lng": -98.764376
},{
"label": "Vista Hermosa", "lat": 19.214705, "lng": -98.796378
},{
"label": "Ranchería San José Zavaleta", "lat": 19.194367, "lng": -98.768628
},{
"label": "El Trapiche (Xacalco)", "lat": 19.20478, "lng": -98.813828
},{
"label": "Rancho Lucía Bustamante", "lat": 19.180167, "lng": -98.812275
},{
"label": "Lomas del Pedregal", "lat": 19.191091, "lng": -98.805154
},{
"label": "Gavillero (Rancho el Gavillero)", "lat": 19.188004, "lng": -98.799663
},{
"label": "La Ladrillera", "lat": 19.204197, "lng": -98.758885
},{
"label": "Colonia la Esperanza", "lat": 19.214701, "lng": -98.792613
},{
"label": "El Santuario (Finca el Santuario)", "lat": 19.180862, "lng": -98.78853
},{
"label": "Rancho la Mesa", "lat": 19.179295, "lng": -98.808156
},{
"label": "El Durazno", "lat": 19.19452, "lng": -98.804069
},{
"label": "Rancho San Luis", "lat": 19.190026, "lng": -98.812284
},{
"label": "Rancho Santa Rita", "lat": 19.196128, "lng": -98.806061
},{
"label": "Rancho de la Huerta", "lat": 19.218221, "lng": -98.780767
},{
"label": "San Lorenzo Tlalmimilolpan", "lat": 19.221262, "lng": -98.804021
},{
"label": "Predios Ejidales San Juan Atzacualoya", "lat": 19.202527, "lng": -98.765702
},{
"label": "Rancho Alfa y Omega", "lat": 19.1937, "lng": -98.807459
},{
"label": "Fraccionamiento Vergel de la Sierra", "lat": 19.201299, "lng": -98.816237
},{
"label": "El Brasero", "lat": 19.163602, "lng": -98.780896
},{
"label": "Santo Tomás Atzingo", "lat": 19.171918, "lng": -98.779812
},{
"label": "El Socorro", "lat": 19.219445, "lng": -98.777554
},{
"label": "Fraccionamiento las Palomas", "lat": 19.162258, "lng": -98.776493
},{
"label": "San Rafael", "lat": 19.209688, "lng": -98.756152
},{
"label": "Barrio de San Pedro", "lat": 19.216027, "lng": -98.797074
},{
"label": "Santiago [Kilómetro 58.5]", "lat": 19.206087, "lng": -98.81452
},{
"label": "Terreno San Luis (La Nopalera)", "lat": 19.194635, "lng": -98.810414
},{
"label": "La Cañada", "lat": 19.219273, "lng": -98.753054
},{
"label": "Rancho Fernando de la Macorra", "lat": 19.195544, "lng": -98.801036
},{
"label": "Tlalmanalco de Velázquez", "lat": 19.205903, "lng": -98.802554
},{
"label": "La Plantación", "lat": 19.211077, "lng": -98.740786
}]