[{
"label": "Galaxias Toluca", "lat": 19.399696, "lng": -99.648809
},{
"label": "San Juan Tilapa", "lat": 19.221752, "lng": -99.660107
},{
"label": "Rancho el Rosedal", "lat": 19.405228, "lng": -99.72065
},{
"label": "San Pablo Autopan", "lat": 19.357432, "lng": -99.657216
},{
"label": "Colonia San Pablo", "lat": 19.243923, "lng": -99.67124
},{
"label": "Sauces", "lat": 19.358802, "lng": -99.592261
},{
"label": "San Diego Linares", "lat": 19.385854, "lng": -99.637575
},{
"label": "Tecaxic", "lat": 19.326122, "lng": -99.71486
},{
"label": "Pegaso [Centro Dinámico Social]", "lat": 19.366114, "lng": -99.557259
},{
"label": "San Andrés Cuexcontitlán", "lat": 19.355732, "lng": -99.625614
},{
"label": "El Dorado", "lat": 19.410557, "lng": -99.716008
},{
"label": "Ejido de Oxtotitlán (Nova)", "lat": 19.325241, "lng": -99.699496
},{
"label": "La Magdalena Otzacatipan", "lat": 19.337118, "lng": -99.6136
},{
"label": "San Buenaventura", "lat": 19.267702, "lng": -99.692161
},{
"label": "Arroyo Vista Hermosa", "lat": 19.337598, "lng": -99.550933
},{
"label": "San Isidro", "lat": 19.354502, "lng": -99.715171
},{
"label": "Santiago Miltepec", "lat": 19.306699, "lng": -99.651071
},{
"label": "Barrio la Cruz", "lat": 19.250327, "lng": -99.656449
},{
"label": "El Cerrillo Vista Hermosa", "lat": 19.321957, "lng": -99.543761
},{
"label": "Rancho San Miguel Zacango", "lat": 19.243746, "lng": -99.697103
},{
"label": "Guadalupe Totoltepec", "lat": 19.348471, "lng": -99.564227
},{
"label": "Tlachaloya", "lat": 19.450149, "lng": -99.664086
},{
"label": "De Jesús 2da. Sección", "lat": 19.350463, "lng": -99.673811
},{
"label": "San Cristóbal Huichochitlán", "lat": 19.336907, "lng": -99.636576
},{
"label": "Santa Cruz Atzcapotzaltongo", "lat": 19.314875, "lng": -99.657606
},{
"label": "Barrio la Venta", "lat": 19.241196, "lng": -99.635306
},{
"label": "Rancho la Esperanza", "lat": 19.418353, "lng": -99.695244
},{
"label": "Villa Toscana [Conjunto Urbano]", "lat": 19.367049, "lng": -99.566427
},{
"label": "Cerrillo Piedras Blancas", "lat": 19.414054, "lng": -99.678945
},{
"label": "Guadalupe", "lat": 19.210028, "lng": -99.659941
},{
"label": "San Lorenzo Tepaltitlán", "lat": 19.312778, "lng": -99.624347
},{
"label": "Pueblo Nuevo (Serratón)", "lat": 19.313588, "lng": -99.718444
},{
"label": "San Pedro Totoltepec", "lat": 19.312412, "lng": -99.572498
},{
"label": "De Jesús 1ra. Sección", "lat": 19.365268, "lng": -99.683243
},{
"label": "Santiago Tlaxomulco", "lat": 19.314111, "lng": -99.670356
},{
"label": "Santiago Tlacotepec", "lat": 19.223879, "lng": -99.670501
},{
"label": "La Palma Toltepec", "lat": 19.342129, "lng": -99.698512
},{
"label": "Barrio la Joya", "lat": 19.229501, "lng": -99.650451
},{
"label": "Palmillas", "lat": 19.347532, "lng": -99.688519
},{
"label": "San Carlos", "lat": 19.431374, "lng": -99.690887
},{
"label": "Jicaltepec Autopan", "lat": 19.371899, "lng": -99.641151
},{
"label": "Rancho San Bartolo", "lat": 19.342825, "lng": -99.716318
},{
"label": "Rancho las Lupitas", "lat": 19.383683, "lng": -99.708614
},{
"label": "Colonia Dos Ríos", "lat": 19.249658, "lng": -99.642726
},{
"label": "Hacienda Santín (Rancho Santín)", "lat": 19.359332, "lng": -99.589428
},{
"label": "San Blas Totoltepec", "lat": 19.370346, "lng": -99.552192
},{
"label": "El Refugio", "lat": 19.226673, "lng": -99.694073
},{
"label": "San Martín Toltepec", "lat": 19.351934, "lng": -99.705701
},{
"label": "Santa Ana Tlapaltitlán", "lat": 19.279259, "lng": -99.627183
},{
"label": "La Loma Cuexcontitlán", "lat": 19.379896, "lng": -99.648774
},{
"label": "Colonia Guadalupe", "lat": 19.21894, "lng": -99.685564
},{
"label": "Barrio el Mirador", "lat": 19.233069, "lng": -99.639113
},{
"label": "Xicaltepec", "lat": 19.395368, "lng": -99.671068
},{
"label": "San Blas Otzacatipan", "lat": 19.378256, "lng": -99.5655
},{
"label": "Santa María Totoltepec", "lat": 19.301545, "lng": -99.58586
},{
"label": "Albergue Estación de Microondas", "lat": 19.118999, "lng": -99.747579
},{
"label": "Santa Cruz Otzacatipan", "lat": 19.34023, "lng": -99.607464
},{
"label": "Colonia la Joya", "lat": 19.226569, "lng": -99.658751
},{
"label": "Ejido Santa Cruz Atzcapozaltongo", "lat": 19.334369, "lng": -99.672214
},{
"label": "El Calvario", "lat": 19.315803, "lng": -99.67506
},{
"label": "Cacalomacán", "lat": 19.253309, "lng": -99.704588
},{
"label": "Calixtlahuaca", "lat": 19.334505, "lng": -99.685475
},{
"label": "Colonia del Durazno", "lat": 19.220591, "lng": -99.654489
},{
"label": "Ejido de San Marcos Yachihuacaltepec", "lat": 19.376599, "lng": -99.716335
},{
"label": "San Miguel Totoltepec", "lat": 19.328083, "lng": -99.572558
},{
"label": "San Nicolás Tolentino", "lat": 19.358165, "lng": -99.571927
},{
"label": "San José Guadalupe Otzacatipan", "lat": 19.344608, "lng": -99.590981
},{
"label": "San Cayetano Morelos", "lat": 19.400336, "lng": -99.704559
},{
"label": "Ejido de Nova (Barrio del Museo)", "lat": 19.332613, "lng": -99.697151
},{
"label": "San Diego de los Padres Cuexcontitlán", "lat": 19.366479, "lng": -99.606154
},{
"label": "Tlachaloya Segunda Sección", "lat": 19.463231, "lng": -99.660112
},{
"label": "Toluca 2000 [Parque Industrial]", "lat": 19.381274, "lng": -99.57924
},{
"label": "La Planada (El Arenal)", "lat": 19.33674, "lng": -99.678259
},{
"label": "Barrio la Soledad", "lat": 19.246247, "lng": -99.672723
},{
"label": "Rancho Shuli (El Socavón)", "lat": 19.317495, "lng": -99.680026
},{
"label": "Fraccionamiento San Diego", "lat": 19.382161, "lng": -99.63772
},{
"label": "San Cayetano [Parque Industrial]", "lat": 19.417801, "lng": -99.717453
},{
"label": "Crespa Floresta", "lat": 19.313538, "lng": -99.594541
},{
"label": "La Constitución Toltepec", "lat": 19.348614, "lng": -99.549264
},{
"label": "San José Buenavista", "lat": 19.422561, "lng": -99.636249
},{
"label": "Jicaltepec Cuexcontitlán", "lat": 19.373511, "lng": -99.627391
},{
"label": "Ejido de Almoloya de Juárez", "lat": 19.373042, "lng": -99.701418
},{
"label": "San Carlos Autopan", "lat": 19.385763, "lng": -99.687233
},{
"label": "Colonia Acuxtitla", "lat": 19.217335, "lng": -99.667246
},{
"label": "Rancho San Alberto", "lat": 19.223767, "lng": -99.719971
},{
"label": "Las Jaras San Nicolás", "lat": 19.476483, "lng": -99.666193
},{
"label": "Fraccionamiento Real de San Pablo", "lat": 19.389381, "lng": -99.648796
},{
"label": "Barrio Zimbrones", "lat": 19.36079, "lng": -99.695687
},{
"label": "Colonia las Palmas", "lat": 19.237977, "lng": -99.657537
},{
"label": "Colonia Shingade", "lat": 19.232761, "lng": -99.659043
},{
"label": "Capultitlán", "lat": 19.249184, "lng": -99.663038
},{
"label": "Toluca de Lerdo", "lat": 19.293488, "lng": -99.657317
},{
"label": "Sebastián Lerdo de Tejada", "lat": 19.38978, "lng": -99.725036
},{
"label": "Ojo de Agua", "lat": 19.360883, "lng": -99.691594
},{
"label": "Barrio Bordo Nuevo", "lat": 19.379235, "lng": -99.673296
},{
"label": "Las Misiones [Conjunto Urbano]", "lat": 19.374206, "lng": -99.55697
},{
"label": "Joya de Cacalomacán", "lat": 19.241686, "lng": -99.714843
},{
"label": "San Judas Tadeo", "lat": 19.241604, "lng": -99.66166
},{
"label": "San José la Costa", "lat": 19.431603, "lng": -99.643312
},{
"label": "San Isidro Ejido de Calixtlahuaca", "lat": 19.374967, "lng": -99.728602
},{
"label": "Las Bugambilias [Conjunto Habitacional]", "lat": 19.36992, "lng": -99.708238
},{
"label": "San Antonio Buenavista", "lat": 19.260833, "lng": -99.712197
},{
"label": "Ejido de la Y Sección Siete A Revolución", "lat": 19.394939, "lng": -99.616519
},{
"label": "Balbuena", "lat": 19.438964, "lng": -99.650374
},{
"label": "Barrio San Mateo", "lat": 19.450384, "lng": -99.648557
},{
"label": "San Diego de los Padres Otzacatipan", "lat": 19.363493, "lng": -99.593934
},{
"label": "San Marcos Yachihuacaltepec", "lat": 19.32289, "lng": -99.679398
},{
"label": "San Francisco Totoltepec", "lat": 19.328535, "lng": -99.555246
},{
"label": "La Cañada", "lat": 19.244713, "lng": -99.647271
},{
"label": "Francisco Villa", "lat": 19.360228, "lng": -99.578448
},{
"label": "San Felipe Tlalmimilolpan", "lat": 19.237801, "lng": -99.643347
},{
"label": "San Mateo Oxtotitlán", "lat": 19.292521, "lng": -99.68687
},{
"label": "Paseos San Martín [Conjunto Urbano]", "lat": 19.346209, "lng": -99.710019
},{
"label": "Aviación Autopan", "lat": 19.379258, "lng": -99.693467
},{
"label": "Ejido del Cerro del Murciélago", "lat": 19.336896, "lng": -99.721774
},{
"label": "San Mateo Otzacatipan", "lat": 19.326717, "lng": -99.605106
}]