[{
"label": "El Rincón", "lat": 18.801489, "lng": -99.681911
},{
"label": "La Comunidad", "lat": 18.811104, "lng": -99.679349
},{
"label": "Los Amates (San José de los Amates)", "lat": 18.784692, "lng": -99.68522
},{
"label": "El Trapiche", "lat": 18.794733, "lng": -99.669997
},{
"label": "El Zapote", "lat": 18.770963, "lng": -99.632146
},{
"label": "El Terrero", "lat": 18.791172, "lng": -99.647756
},{
"label": "Colixtlahuacán", "lat": 18.739729, "lng": -99.623855
},{
"label": "San Martín", "lat": 18.747866, "lng": -99.605844
},{
"label": "Paso de San Juan", "lat": 18.81222, "lng": -99.673313
},{
"label": "San Miguel", "lat": 18.790052, "lng": -99.66905
},{
"label": "San Bartolo", "lat": 18.799089, "lng": -99.628239
},{
"label": "La Audiencia", "lat": 18.814296, "lng": -99.627684
},{
"label": "El Picacho", "lat": 18.820609, "lng": -99.662173
},{
"label": "Tonatico", "lat": 18.802019, "lng": -99.670935
},{
"label": "Tlacopan", "lat": 18.816007, "lng": -99.649592
},{
"label": "Salinas", "lat": 18.797499, "lng": -99.642809
},{
"label": "Ojo de Agua", "lat": 18.743226, "lng": -99.612669
},{
"label": "La Puerta de Santiago", "lat": 18.765618, "lng": -99.624094
},{
"label": "La Vega", "lat": 18.763743, "lng": -99.654146
}]