[{
"label": "San Julián", "lat": 25.338729, "lng": -111.880633
},{
"label": "Los Farallones", "lat": 24.545358, "lng": -112.060808
},{
"label": "Las Higueritas", "lat": 25.511591, "lng": -111.603354
},{
"label": "El Tajo", "lat": 25.084783, "lng": -111.133312
},{
"label": "Las Garzas", "lat": 25.138097, "lng": -111.332431
},{
"label": "Ninguno [CFE]", "lat": 24.814929, "lng": -112.091016
},{
"label": "Nueva California Lote 21", "lat": 25.105245, "lng": -111.850448
},{
"label": "La Muñeca", "lat": 26.04543, "lng": -111.759567
},{
"label": "Nueva California Lote 23", "lat": 25.111358, "lng": -111.860566
},{
"label": "San José del Romerillal", "lat": 25.143124, "lng": -111.604219
},{
"label": "Nueva California Lote 24", "lat": 25.118313, "lng": -111.867227
},{
"label": "Nueva California Lote 25", "lat": 25.126454, "lng": -111.869158
},{
"label": "Nueva California Lote 16", "lat": 25.126908, "lng": -111.924154
},{
"label": "Nueva California Lote 17", "lat": 25.127766, "lng": -111.861202
},{
"label": "Nueva California Lote 18", "lat": 25.123993, "lng": -111.855509
},{
"label": "El Garambullo", "lat": 26.394084, "lng": -112.502566
},{
"label": "Ninguno [Industrias Mares de California]", "lat": 24.816365, "lng": -112.088443
},{
"label": "Los Chorros", "lat": 26.347085, "lng": -112.124618
},{
"label": "Tres Marías", "lat": 26.441032, "lng": -112.239986
},{
"label": "Lote 10 Bis", "lat": 25.433889, "lng": -111.799444
},{
"label": "Cuauhtémoc", "lat": 25.161303, "lng": -111.664092
},{
"label": "El Guarismo", "lat": 26.325202, "lng": -111.944696
},{
"label": "Los Achemes", "lat": 24.939259, "lng": -111.204019
},{
"label": "El Codey", "lat": 24.988279, "lng": -111.254251
},{
"label": "El Conchalito", "lat": 25.509648, "lng": -112.066446
},{
"label": "Guadalajara Lote 20", "lat": 25.018847, "lng": -111.833065
},{
"label": "San Fermín", "lat": 24.942914, "lng": -111.337716
},{
"label": "La Ballena", "lat": 26.378618, "lng": -112.600933
},{
"label": "Nueva California Lote 12", "lat": 25.129844, "lng": -111.895717
},{
"label": "Nueva California Lote 14", "lat": 25.128826, "lng": -111.903026
},{
"label": "Nueva California Lote 15", "lat": 25.126083, "lng": -111.910908
},{
"label": "Ninguno", "lat": 26.002574, "lng": -111.734853
},{
"label": "El Capricho", "lat": 24.947801, "lng": -111.215409
},{
"label": "Escorpión Beach", "lat": 26.243604, "lng": -112.477266
},{
"label": "Piedras Paradas", "lat": 25.555586, "lng": -111.73594
},{
"label": "Los Prados", "lat": 25.340419, "lng": -112.074933
},{
"label": "Poza Honda", "lat": 25.221599, "lng": -111.211341
},{
"label": "Casas Viejas", "lat": 26.136714, "lng": -112.151021
},{
"label": "Cabo San Lázaro", "lat": 24.793354, "lng": -112.301089
},{
"label": "El Pato", "lat": 25.323308, "lng": -111.196482
},{
"label": "Guadalajara Lote 13", "lat": 25.018459, "lng": -111.81626
},{
"label": "Nueva California Lote 42", "lat": 25.090703, "lng": -111.770979
},{
"label": "Campo Peña (Romerillal)", "lat": 25.137353, "lng": -111.578486
},{
"label": "Nueva California Lote 43", "lat": 25.098666, "lng": -111.769476
},{
"label": "Nueva California Lote 44", "lat": 25.099527, "lng": -111.758907
},{
"label": "Juan Diego", "lat": 25.136522, "lng": -111.303779
},{
"label": "Navojoa Uno Lote 11", "lat": 25.259101, "lng": -111.846926
},{
"label": "Nueva California Lote 45", "lat": 25.093196, "lng": -111.762369
},{
"label": "Las Praderas", "lat": 26.332949, "lng": -111.961966
},{
"label": "Nueva California Lote 48", "lat": 25.119591, "lng": -111.799391
},{
"label": "Nueva California Lote 38", "lat": 25.108329, "lng": -111.778556
},{
"label": "Nueva California Lote 39", "lat": 25.090824, "lng": -111.780976
},{
"label": "El Delirio", "lat": 25.823629, "lng": -112.07764
},{
"label": "Quiñí Grande", "lat": 26.343559, "lng": -112.243211
},{
"label": "Boca de las Cañadas", "lat": 25.05771, "lng": -111.151193
},{
"label": "Ejido la Granada Lote 23", "lat": 24.944002, "lng": -111.695973
},{
"label": "Los Felitos", "lat": 26.134462, "lng": -111.955296
},{
"label": "Las Parras", "lat": 26.215026, "lng": -111.992086
},{
"label": "El Palo Verde", "lat": 26.173859, "lng": -111.772697
},{
"label": "Pascual", "lat": 26.365708, "lng": -111.890403
},{
"label": "Buenos Aires Lotes 1 y 1B", "lat": 25.270376, "lng": -111.742073
},{
"label": "Nueva California Lote 32", "lat": 25.071653, "lng": -111.802074
},{
"label": "Nueva California Lote 33", "lat": 25.106746, "lng": -111.816456
},{
"label": "Cola de Venado", "lat": 26.337493, "lng": -111.852949
},{
"label": "Quiñí Chiquito", "lat": 26.319419, "lng": -112.261827
},{
"label": "Nueva California Lote 35", "lat": 25.102035, "lng": -111.802672
},{
"label": "San Juan de las Lagunetas", "lat": 25.369662, "lng": -111.654906
},{
"label": "Nueva California Lote 27", "lat": 25.09462, "lng": -111.820714
},{
"label": "El Volcán", "lat": 24.75803, "lng": -112.259206
},{
"label": "Nueva California Lote 29", "lat": 25.082576, "lng": -111.819447
},{
"label": "El Agua Grande", "lat": 26.050778, "lng": -111.868925
},{
"label": "Galeana Lote 15-A", "lat": 25.407931, "lng": -111.743423
},{
"label": "El Infierno", "lat": 26.511309, "lng": -112.167486
},{
"label": "Chametla", "lat": 25.270504, "lng": -111.103247
},{
"label": "Santa Fe Dos Lote 71", "lat": 25.315868, "lng": -111.703876
},{
"label": "Los Pilares", "lat": 25.877342, "lng": -111.785856
},{
"label": "Salvatierra Lote 68", "lat": 25.125122, "lng": -111.608386
},{
"label": "Palos Altos Lote 5", "lat": 25.355666, "lng": -111.741957
},{
"label": "Palos Altos Lote 7", "lat": 25.342964, "lng": -111.742611
},{
"label": "Palos Altos Lote 1", "lat": 25.351396, "lng": -111.75802
},{
"label": "Nueva California Lote 60", "lat": 25.130673, "lng": -111.767436
},{
"label": "Palos Altos Lote 3", "lat": 25.355828, "lng": -111.767839
},{
"label": "Nueva California Lote 61", "lat": 25.129005, "lng": -111.777516
},{
"label": "Palos Altos Lote 2", "lat": 25.344291, "lng": -111.771628
},{
"label": "Nueva California Lote 62", "lat": 25.134308, "lng": -111.792504
},{
"label": "La Angostura", "lat": 26.374964, "lng": -111.962298
},{
"label": "Nueva California Lote 66", "lat": 25.1426, "lng": -111.797807
},{
"label": "Nueva California Lote 67", "lat": 25.139232, "lng": -111.786714
},{
"label": "Agustín Olachea Lote 39", "lat": 25.153611, "lng": -111.729664
},{
"label": "La Mesa del Carro Quemado", "lat": 26.334579, "lng": -111.891186
},{
"label": "Buenos Aires Lote 54", "lat": 25.307475, "lng": -111.668212
},{
"label": "San Luis Gonzaga", "lat": 24.907524, "lng": -111.290524
},{
"label": "Buenos Aires Lote 52", "lat": 25.312832, "lng": -111.682613
},{
"label": "La Laguneta", "lat": 25.207724, "lng": -111.287193
},{
"label": "Paso Hondo", "lat": 26.347145, "lng": -112.172203
},{
"label": "Emiliano Zapata Lote 7", "lat": 25.0417, "lng": -111.738297
},{
"label": "Los Médanos", "lat": 25.082172, "lng": -111.831448
},{
"label": "Emiliano Zapata Lote 8", "lat": 25.035179, "lng": -111.74523
},{
"label": "Emiliano Zapata Lote 5", "lat": 25.040258, "lng": -111.714428
},{
"label": "Emiliano Zapata Lote 6", "lat": 25.034946, "lng": -111.728279
},{
"label": "Agustín Olachea Lote 24", "lat": 25.165678, "lng": -111.740171
},{
"label": "La Huertita Dos", "lat": 25.143344, "lng": -111.282761
},{
"label": "Cadejé", "lat": 26.377944, "lng": -112.512425
},{
"label": "Plandá", "lat": 26.104599, "lng": -111.780851
},{
"label": "Guadalajara Lote 1-A", "lat": 25.054523, "lng": -111.825014
},{
"label": "San Antonio de la Montaña", "lat": 24.956758, "lng": -111.329783
},{
"label": "Nueva California Lote 55", "lat": 25.124746, "lng": -111.790453
},{
"label": "Emiliano Zapata Lote 3", "lat": 25.039813, "lng": -111.698989
},{
"label": "Nueva California Lote 58", "lat": 25.122343, "lng": -111.759523
},{
"label": "Nueva California Lote 59", "lat": 25.129694, "lng": -111.760557
},{
"label": "Nueva California Lote 49", "lat": 25.114102, "lng": -111.788119
},{
"label": "Las Veredas", "lat": 25.137933, "lng": -111.339817
},{
"label": "Salvatierra Lote 42", "lat": 25.138344, "lng": -111.641931
},{
"label": "Santa María", "lat": 26.194483, "lng": -111.850131
},{
"label": "Cuauhtémoc Lote 2", "lat": 25.175228, "lng": -111.663017
},{
"label": "Cuauhtémoc Lote 1", "lat": 25.175665, "lng": -111.673533
},{
"label": "El Potrillo", "lat": 24.910852, "lng": -111.313429
},{
"label": "Fierro Encinas Dos Lote 5", "lat": 25.30609, "lng": -111.778639
},{
"label": "El Garambullal", "lat": 26.333523, "lng": -111.788889
},{
"label": "Palos Altos Lote 8", "lat": 25.349816, "lng": -111.732214
},{
"label": "El Cachimbo", "lat": 26.23618, "lng": -111.978974
},{
"label": "La Ciénega", "lat": 26.355659, "lng": -112.249063
},{
"label": "Yaquis Lote 16", "lat": 24.964472, "lng": -111.620243
},{
"label": "Ejido Santo Domingo Lote 1-A", "lat": 25.479681, "lng": -111.914356
},{
"label": "El Palo Fierro", "lat": 25.220022, "lng": -111.437914
},{
"label": "Norte Lote 1", "lat": 25.152442, "lng": -111.665814
},{
"label": "Yaquis Lote 14", "lat": 24.993553, "lng": -111.579628
},{
"label": "Yaquis Lote 13", "lat": 24.983276, "lng": -111.585913
},{
"label": "Nueva California Lote 82", "lat": 25.156009, "lng": -111.762923
},{
"label": "Nueva California Lote 83", "lat": 25.169078, "lng": -111.754063
},{
"label": "Norte Lote 5", "lat": 25.132778, "lng": -111.670429
},{
"label": "Norte Lote 6", "lat": 25.138003, "lng": -111.659733
},{
"label": "Nueva California Lote 88", "lat": 25.170752, "lng": -111.804122
},{
"label": "La Huertita", "lat": 26.335004, "lng": -112.240222
},{
"label": "Yaquis Lote 18", "lat": 24.967211, "lng": -111.602375
},{
"label": "Buenos Aires Lote 36", "lat": 25.298843, "lng": -111.663219
},{
"label": "Buenos Aires Lote 35", "lat": 25.303266, "lng": -111.673298
},{
"label": "San Judas Tadeo", "lat": 25.1306, "lng": -111.567831
},{
"label": "Salvatierra Lote 11", "lat": 25.139445, "lng": -111.688822
},{
"label": "Buenos Aires Lote 32", "lat": 25.269937, "lng": -111.685415
},{
"label": "Grupo Solidario Hermanos Ocampo", "lat": 25.052659, "lng": -111.810886
},{
"label": "Los Pájaros", "lat": 26.392738, "lng": -111.778943
},{
"label": "El Chicural", "lat": 25.465638, "lng": -111.413315
},{
"label": "La Cruz", "lat": 25.368262, "lng": -111.271717
},{
"label": "Buenos Aires Lote 39", "lat": 25.271327, "lng": -111.668737
},{
"label": "Buenos Aires Lote 38", "lat": 25.280271, "lng": -111.670088
},{
"label": "Yaquis Lote 26", "lat": 24.963112, "lng": -111.587307
},{
"label": "Punta San Lázaro", "lat": 24.753639, "lng": -112.259117
},{
"label": "Las Iguanitas", "lat": 26.425722, "lng": -112.195398
},{
"label": "Nueva California Lote 71", "lat": 25.150876, "lng": -111.755383
},{
"label": "Yaquis Lote 22", "lat": 24.952876, "lng": -111.625686
},{
"label": "Nueva California Lote 72", "lat": 25.146696, "lng": -111.766737
},{
"label": "Yaquis Lote 21", "lat": 24.985119, "lng": -111.575747
},{
"label": "La Casita", "lat": 25.759102, "lng": -111.719433
},{
"label": "Nueva California Lote 75", "lat": 25.150213, "lng": -111.796933
},{
"label": "San Francisco", "lat": 24.987794, "lng": -111.398525
},{
"label": "Buenos Aires Lote 46", "lat": 25.281293, "lng": -111.747043
},{
"label": "Buenos Aires Lote 45", "lat": 25.290883, "lng": -111.752664
},{
"label": "Salvatierra Lote 23", "lat": 25.081166, "lng": -111.680705
},{
"label": "Buenos Aires Lote 44", "lat": 25.314368, "lng": -111.746886
},{
"label": "Buenos Aires Lote 43", "lat": 25.312446, "lng": -111.724124
},{
"label": "Ciudad Insurgentes", "lat": 25.264104, "lng": -111.777462
},{
"label": "La Soledad", "lat": 26.293067, "lng": -112.129859
},{
"label": "Buenos Aires Lote 41", "lat": 25.305869, "lng": -111.743783
},{
"label": "Buenos Aires Lote 40", "lat": 25.257817, "lng": -111.666949
},{
"label": "Las Norias", "lat": 25.389824, "lng": -111.141944
},{
"label": "Salvatierra Lote 25", "lat": 25.123458, "lng": -111.671221
},{
"label": "La Presa del Higuajil", "lat": 24.973574, "lng": -111.395819
},{
"label": "Salvatierra Lote 27", "lat": 25.102449, "lng": -111.669291
},{
"label": "Buenos Aires Lote 48", "lat": 25.264722, "lng": -111.755556
},{
"label": "Campo 95", "lat": 25.163713, "lng": -111.826122
},{
"label": "El Paraíso", "lat": 25.081901, "lng": -111.218087
},{
"label": "El Vivero", "lat": 25.001374, "lng": -111.655755
},{
"label": "Buenos Aires Lote 11", "lat": 25.268517, "lng": -111.716078
},{
"label": "Rancho Arias", "lat": 24.917726, "lng": -111.574601
},{
"label": "Buenos Aires Lote 10", "lat": 25.26769, "lng": -111.72616
},{
"label": "Los Torunos", "lat": 25.139392, "lng": -111.300165
},{
"label": "La Boca del Viejo", "lat": 26.429247, "lng": -112.018921
},{
"label": "Buenos Aires Lote 18", "lat": 25.279961, "lng": -111.705944
},{
"label": "Las Mesas", "lat": 26.274046, "lng": -112.129088
},{
"label": "Las Gaviotas", "lat": 24.777071, "lng": -111.489525
},{
"label": "Nueva California Lote 90", "lat": 25.170434, "lng": -111.831838
},{
"label": "Santa Teresa", "lat": 25.139578, "lng": -111.564969
},{
"label": "El Camarillo", "lat": 25.072137, "lng": -111.620907
},{
"label": "Agustín Olachea Lotes 4, 5, 12 y 11", "lat": 25.175031, "lng": -111.733289
},{
"label": "Nueva California Lote 99", "lat": 25.127358, "lng": -111.818174
},{
"label": "Buenos Aires Lote 24", "lat": 25.29229, "lng": -111.699399
},{
"label": "Jalisco MZ-M", "lat": 25.45041, "lng": -111.867007
},{
"label": "Buenos Aires Lote 23", "lat": 25.282558, "lng": -111.695396
},{
"label": "El Cardón Escrito", "lat": 26.078348, "lng": -111.820152
},{
"label": "Buenos Aires Lote 22", "lat": 25.273084, "lng": -111.695887
},{
"label": "El Portón Uno", "lat": 26.052451, "lng": -112.122711
},{
"label": "Puerto Adolfo López Mateos", "lat": 25.196389, "lng": -112.111389
},{
"label": "Buenos Aires Lote 20", "lat": 25.260139, "lng": -111.706045
},{
"label": "Ejido Matancitas Grupo 10 F-13", "lat": 25.089888, "lng": -111.87056
},{
"label": "El Puga", "lat": 25.588918, "lng": -111.695304
},{
"label": "El Mauto", "lat": 26.438738, "lng": -112.179458
},{
"label": "Buenos Aires Lote 28", "lat": 25.285016, "lng": -111.684848
},{
"label": "San Ramón", "lat": 25.283072, "lng": -111.275294
},{
"label": "La Colorina", "lat": 24.93437, "lng": -111.32807
},{
"label": "Vargas Lote 1", "lat": 25.066, "lng": -111.681175
},{
"label": "El Abanico", "lat": 26.340574, "lng": -112.478722
},{
"label": "Sinaloa (Frutales del Valle)", "lat": 25.126509, "lng": -111.716329
},{
"label": "Las Barrancas", "lat": 26.002124, "lng": -112.197445
},{
"label": "Puerto Magdalena", "lat": 24.634444, "lng": -112.139444
},{
"label": "Mesa la Ceribosa", "lat": 26.499137, "lng": -112.087694
},{
"label": "San Refugio de la Presa", "lat": 24.961259, "lng": -111.336253
},{
"label": "El Huatamote", "lat": 25.916363, "lng": -111.959651
},{
"label": "El Edén", "lat": 25.242977, "lng": -111.839686
},{
"label": "La Trituradora del Kilómetro Tres", "lat": 25.119196, "lng": -111.555433
},{
"label": "La Cieneguita", "lat": 25.405309, "lng": -111.103611
},{
"label": "Jalisco Lote C6-D (Palos Verdes)", "lat": 25.415499, "lng": -111.76466
},{
"label": "El Choyal", "lat": 26.184014, "lng": -111.899914
},{
"label": "San Carlos Lote 605-3", "lat": 24.906389, "lng": -111.623744
},{
"label": "El Pabellón", "lat": 26.101706, "lng": -111.885102
},{
"label": "La Mascota Lote 6", "lat": 25.313956, "lng": -111.782793
},{
"label": "Los Arquitos", "lat": 25.177219, "lng": -111.499722
},{
"label": "La Mascota Lote 7", "lat": 25.307144, "lng": -111.788226
},{
"label": "Huichapa", "lat": 24.905517, "lng": -111.617191
},{
"label": "La Trinidad", "lat": 25.366228, "lng": -111.338022
},{
"label": "Coahuila Lote 10", "lat": 24.905992, "lng": -111.603896
},{
"label": "El Aguajito Dos", "lat": 26.162722, "lng": -112.105402
},{
"label": "Kilómetro 183", "lat": 24.802227, "lng": -111.567609
},{
"label": "Los Panales", "lat": 26.316635, "lng": -112.01721
},{
"label": "México Lotes 4 y 5", "lat": 25.183608, "lng": -111.783268
},{
"label": "Santa Fe del Río", "lat": 25.192086, "lng": -111.656728
},{
"label": "El Carricito", "lat": 24.941514, "lng": -111.19238
},{
"label": "Cuitláhuac (Kilómetro 217)", "lat": 25.085528, "lng": -111.701176
},{
"label": "La Arpillera", "lat": 24.833793, "lng": -111.697855
},{
"label": "El Tezo", "lat": 25.42411, "lng": -111.684936
},{
"label": "San Carlos Lote 507-1", "lat": 24.898279, "lng": -111.634671
},{
"label": "El Agua Honda", "lat": 26.427996, "lng": -112.12997
},{
"label": "Coahuila Lote 11", "lat": 24.909111, "lng": -111.593553
},{
"label": "San Carlos Lote 507-4", "lat": 24.889817, "lng": -111.635464
},{
"label": "San José", "lat": 25.413686, "lng": -111.906074
},{
"label": "La Poza del Gato", "lat": 25.073706, "lng": -111.118076
},{
"label": "El Dulce", "lat": 25.322841, "lng": -111.140583
},{
"label": "Sinaloa Lote 7", "lat": 25.141132, "lng": -111.746356
},{
"label": "La Sospechosa", "lat": 26.408581, "lng": -112.003068
},{
"label": "La Laguna Lotes 16 y 17", "lat": 25.240054, "lng": -111.803975
},{
"label": "Sinaloa Lote 8", "lat": 25.134232, "lng": -111.739884
},{
"label": "Sinaloa Lote 6", "lat": 25.150814, "lng": -111.726607
},{
"label": "Sinaloa Lote 3", "lat": 25.150072, "lng": -111.745876
},{
"label": "Sinaloa Lote 1", "lat": 25.134301, "lng": -111.747716
},{
"label": "La Yaqui", "lat": 26.43368, "lng": -112.482503
},{
"label": "Chihuahua Lote 4", "lat": 25.29809, "lng": -111.849015
},{
"label": "El Molino de Batequitos", "lat": 25.138081, "lng": -111.335336
},{
"label": "Andachires", "lat": 25.385356, "lng": -111.506367
},{
"label": "Los Paredones", "lat": 26.392009, "lng": -111.960491
},{
"label": "Magisterial (Rancho Ocampo)", "lat": 24.935001, "lng": -111.722689
},{
"label": "El Palo Blanco", "lat": 26.484345, "lng": -112.405008
},{
"label": "El Mezquital Seco", "lat": 25.700023, "lng": -111.989004
},{
"label": "Santa Elena [Campo Pesquero]", "lat": 25.241294, "lng": -112.077559
},{
"label": "El Pozo de Miguel", "lat": 25.502357, "lng": -111.586955
},{
"label": "Las Tijeras", "lat": 24.381353, "lng": -111.709626
},{
"label": "Jalisco Lote C3-B", "lat": 25.417656, "lng": -111.834683
},{
"label": "Peninsular [Agrícola y Ganadera]", "lat": 25.04133, "lng": -111.704231
},{
"label": "El Temblor", "lat": 25.576558, "lng": -112.073781
},{
"label": "Los Cerritos", "lat": 25.190139, "lng": -111.414953
},{
"label": "El Liberato", "lat": 26.286258, "lng": -111.904431
},{
"label": "La Picota", "lat": 25.084361, "lng": -111.232677
},{
"label": "Ojo de Agua", "lat": 25.320237, "lng": -111.435331
},{
"label": "San Judas", "lat": 25.430096, "lng": -111.482425
},{
"label": "Nuevo Linares", "lat": 25.390824, "lng": -111.233803
},{
"label": "San Vicente", "lat": 26.162747, "lng": -112.012426
},{
"label": "Galeana Lote 7", "lat": 25.383187, "lng": -111.747611
},{
"label": "Galeana Lote 8", "lat": 25.38759, "lng": -111.737175
},{
"label": "Ley Federal de Aguas Número Cuatro", "lat": 25.203333, "lng": -111.560833
},{
"label": "Ejido el Portón", "lat": 25.990208, "lng": -112.118578
},{
"label": "La Tórtola", "lat": 25.335763, "lng": -111.29833
},{
"label": "Palo Bola", "lat": 25.067778, "lng": -111.6425
},{
"label": "El Datilón", "lat": 26.442936, "lng": -112.751569
},{
"label": "Jalisco Lote C5-D", "lat": 25.413276, "lng": -111.827162
},{
"label": "Fernando de la Toba Lote 5", "lat": 25.181323, "lng": -111.742934
},{
"label": "Los Laureles", "lat": 26.03103, "lng": -112.14834
},{
"label": "Fernando de la Toba Lote 3", "lat": 25.186119, "lng": -111.76293
},{
"label": "Fernando de la Toba Lote 2", "lat": 25.17809, "lng": -111.753838
},{
"label": "La Vinatería", "lat": 26.101039, "lng": -111.836478
},{
"label": "Fernando de la Toba Lote 1", "lat": 25.180329, "lng": -111.763718
},{
"label": "Mesa de las Mulas", "lat": 26.396091, "lng": -112.117574
},{
"label": "Puerto San Carlos", "lat": 24.789746, "lng": -112.108062
},{
"label": "Las Casitas", "lat": 26.265503, "lng": -112.00173
},{
"label": "Santa Isabel", "lat": 25.215862, "lng": -111.276459
},{
"label": "Jalisco Lote C5-R", "lat": 25.388511, "lng": -111.827653
},{
"label": "Fernando de la Toba Lote 8", "lat": 25.178366, "lng": -111.713389
},{
"label": "Fernando de la Toba Lote 7", "lat": 25.179796, "lng": -111.733783
},{
"label": "Paso Colorado", "lat": 26.321606, "lng": -112.168531
},{
"label": "El Pescadero", "lat": 25.548907, "lng": -111.833694
},{
"label": "Dieciocho de Marzo Lote 4", "lat": 25.203186, "lng": -111.861589
},{
"label": "El Chicharrón", "lat": 26.065301, "lng": -112.273401
},{
"label": "El Cardo", "lat": 25.431518, "lng": -111.676346
},{
"label": "El Chamizal (La Partida)", "lat": 25.50888, "lng": -111.890349
},{
"label": "María Auxiliadora Lote 10", "lat": 25.415164, "lng": -111.867515
},{
"label": "San Carlos (Kilómetro 194)", "lat": 24.89649, "lng": -111.610962
},{
"label": "Jalisco (El Pozo Peña)", "lat": 25.4261, "lng": -111.843971
},{
"label": "El Sauce", "lat": 25.283097, "lng": -111.161477
},{
"label": "El Represito", "lat": 26.485163, "lng": -112.144598
},{
"label": "Tinaja el Venadito", "lat": 26.430756, "lng": -111.94831
},{
"label": "Morelos (San Antonio)", "lat": 24.875581, "lng": -111.630809
},{
"label": "Calagua", "lat": 26.35695, "lng": -111.833269
},{
"label": "El Columpio", "lat": 25.397953, "lng": -111.970039
},{
"label": "El Ojito de Agua", "lat": 25.836748, "lng": -111.776756
},{
"label": "El Salto", "lat": 26.162, "lng": -112.130049
},{
"label": "La Regadera", "lat": 26.184685, "lng": -111.930116
},{
"label": "La Media Ventana", "lat": 26.425935, "lng": -112.417442
},{
"label": "Campo 19", "lat": 25.215619, "lng": -111.633614
},{
"label": "La Ensenada", "lat": 25.132444, "lng": -111.047775
},{
"label": "El Romerillal", "lat": 25.137703, "lng": -111.574078
},{
"label": "Jalisco Lote C2-K", "lat": 25.443831, "lng": -111.891331
},{
"label": "Río Lerma Lote 1", "lat": 24.773355, "lng": -111.66981
},{
"label": "Jalisco Lote C2-M", "lat": 25.452442, "lng": -111.886887
},{
"label": "Emiliano Zapata (La Granja)", "lat": 25.029188, "lng": -111.786113
},{
"label": "San Vicente de la Palma", "lat": 24.859695, "lng": -111.212214
},{
"label": "San Cristóbal", "lat": 26.306978, "lng": -111.774083
},{
"label": "La Laguna Lote 38", "lat": 25.245369, "lng": -111.779636
},{
"label": "La Carrerita", "lat": 25.322164, "lng": -111.325463
},{
"label": "Los Bajíos", "lat": 26.368561, "lng": -112.064377
},{
"label": "Santo Niño de Atocha (Romerillal)", "lat": 25.149192, "lng": -111.586447
},{
"label": "El Chipí", "lat": 26.014019, "lng": -111.751412
},{
"label": "El Arenoso", "lat": 25.070398, "lng": -111.201216
},{
"label": "Josefa Ortiz de Domínguez Grupo 2 Lote 18", "lat": 24.998041, "lng": -111.813902
},{
"label": "Boca de San Carlos", "lat": 25.298796, "lng": -111.1399
},{
"label": "El Medio Corral", "lat": 25.974164, "lng": -111.916598
},{
"label": "Palo de Rayo", "lat": 24.931006, "lng": -111.30684
},{
"label": "Las Botellas", "lat": 25.297855, "lng": -112.076743
},{
"label": "La Laguna Lote 31", "lat": 25.229363, "lng": -111.7961
},{
"label": "San Rafael Uno", "lat": 25.407036, "lng": -111.503349
},{
"label": "Familia Álvarez Arce", "lat": 25.244794, "lng": -111.856504
},{
"label": "Villa Morelos", "lat": 24.931518, "lng": -111.628206
},{
"label": "Guanajuato Lote 11", "lat": 25.025247, "lng": -111.769914
},{
"label": "Los Varelas", "lat": 26.170888, "lng": -111.822124
},{
"label": "Los Pelones", "lat": 26.277147, "lng": -112.154978
},{
"label": "Las Piedras Rojas", "lat": 26.175158, "lng": -112.065483
},{
"label": "El Divino Niño Jesús", "lat": 24.936667, "lng": -111.930278
},{
"label": "Guanajuato Lote 19", "lat": 25.003994, "lng": -111.748073
},{
"label": "Guanajuato Lote 13", "lat": 25.009265, "lng": -111.777741
},{
"label": "Las Elenas", "lat": 25.096016, "lng": -111.558914
},{
"label": "La Pintada", "lat": 26.302464, "lng": -112.006581
},{
"label": "El Dátil", "lat": 26.165345, "lng": -111.90502
},{
"label": "La Bebelamita", "lat": 26.249317, "lng": -111.955464
},{
"label": "El Venadito", "lat": 25.019188, "lng": -111.569167
},{
"label": "Los Calichales", "lat": 26.015765, "lng": -112.213069
},{
"label": "El Canelo", "lat": 25.627567, "lng": -111.816734
},{
"label": "Las Olas Altas", "lat": 25.118977, "lng": -111.652933
},{
"label": "Las Paredes", "lat": 26.025237, "lng": -111.839911
},{
"label": "San Juan Bosco Lote 6", "lat": 25.320101, "lng": -111.852669
},{
"label": "Jalisco Lote C2-F", "lat": 25.460028, "lng": -111.897439
},{
"label": "El Horconcito", "lat": 25.530743, "lng": -112.066688
},{
"label": "La Frutilla Lote 3", "lat": 24.963008, "lng": -111.717978
},{
"label": "El Cantil", "lat": 25.254083, "lng": -111.414704
},{
"label": "La Frutilla Lote 2", "lat": 24.962395, "lng": -111.706499
},{
"label": "San José de Comondú", "lat": 26.058767, "lng": -111.823696
},{
"label": "La Piedra", "lat": 26.459035, "lng": -112.019123
},{
"label": "La Frutilla Lote 1", "lat": 24.967452, "lng": -111.709089
},{
"label": "Jalisco Lote C2-0", "lat": 25.442335, "lng": -111.852369
},{
"label": "La Laguna Lote 52", "lat": 25.248032, "lng": -111.822094
},{
"label": "La Máquina", "lat": 25.389843, "lng": -111.149499
},{
"label": "Rancho Estrada", "lat": 25.305317, "lng": -111.828874
},{
"label": "La China", "lat": 25.560901, "lng": -111.769633
},{
"label": "La Laguna Lote 55", "lat": 25.253288, "lng": -111.830957
},{
"label": "La Laguna Lote 54", "lat": 25.239544, "lng": -111.819111
},{
"label": "Don Pelayo", "lat": 25.016524, "lng": -111.666267
},{
"label": "La Ventana", "lat": 26.469769, "lng": -112.330346
},{
"label": "La Poza Larga", "lat": 25.060692, "lng": -111.143603
},{
"label": "Salvatierra Lote 8", "lat": 25.128708, "lng": -111.697278
},{
"label": "Los Naranjos", "lat": 26.345065, "lng": -111.950311
},{
"label": "Matancitas", "lat": 26.378921, "lng": -112.171533
},{
"label": "Ejido Matancitas Grupo 9", "lat": 25.10035, "lng": -111.886125
},{
"label": "Salvatierra Lote 5", "lat": 25.108397, "lng": -111.708963
},{
"label": "Salvatierra Lote 4", "lat": 25.120874, "lng": -111.707378
},{
"label": "Agustín Olachea Lote 2", "lat": 25.178975, "lng": -111.750686
},{
"label": "Agustín Olachea Lote 3", "lat": 24.935427, "lng": -111.642087
},{
"label": "Salvatierra Lote 1", "lat": 25.144122, "lng": -111.710478
},{
"label": "Rincón del Venado", "lat": 26.309332, "lng": -112.020223
},{
"label": "San Gregorio", "lat": 26.116214, "lng": -112.263011
},{
"label": "La Calera", "lat": 25.355861, "lng": -111.458516
},{
"label": "La Poza Grande", "lat": 25.768481, "lng": -112.026605
},{
"label": "Cañada del Palo Blanco", "lat": 26.270713, "lng": -112.159771
},{
"label": "San Isidro Labrador", "lat": 24.931507, "lng": -111.301315
},{
"label": "Lote 42", "lat": 25.157006, "lng": -111.526592
},{
"label": "La Poza del Ciruelo", "lat": 25.050149, "lng": -111.095341
},{
"label": "El Aparejo", "lat": 26.213863, "lng": -111.997946
},{
"label": "Cerro Colorado", "lat": 26.244855, "lng": -111.977192
},{
"label": "San Venancio", "lat": 25.852509, "lng": -111.888489
},{
"label": "Las Pimientillas", "lat": 25.07576, "lng": -111.424673
},{
"label": "El Pailabote", "lat": 25.547454, "lng": -112.066364
},{
"label": "Guanajuato Lote 23", "lat": 24.995401, "lng": -111.751849
},{
"label": "El Cociteyo", "lat": 26.134282, "lng": -111.917128
},{
"label": "Tinaja del Mezquite", "lat": 26.283672, "lng": -112.097138
},{
"label": "Colonia Agrícola Revolución Mexicana", "lat": 25.009269, "lng": -111.619715
},{
"label": "Ley Federal de Aguas Número Uno Lote 3", "lat": 25.440509, "lng": -111.789683
},{
"label": "Las Bebelamas", "lat": 24.947805, "lng": -111.173923
},{
"label": "El Mezquitón", "lat": 25.047479, "lng": -111.064754
},{
"label": "El Tiradero", "lat": 25.072434, "lng": -111.166854
},{
"label": "Ley Federal de Aguas Número Uno Lote 8", "lat": 25.428398, "lng": -111.794357
},{
"label": "Las Delicias (Rancho Ocampo)", "lat": 24.933135, "lng": -111.798415
},{
"label": "San Dionisio Quepo", "lat": 25.323145, "lng": -111.322957
},{
"label": "Jalisco Lote 5-0", "lat": 25.405871, "lng": -111.808944
},{
"label": "María Auxiliadora Lote 7-A", "lat": 25.430406, "lng": -111.877038
},{
"label": "La Laguna Lotes 29 y 30", "lat": 25.236847, "lng": -111.789366
},{
"label": "Los Palos Fierros", "lat": 26.215825, "lng": -111.854255
},{
"label": "Ley Federal de Aguas Número Cinco", "lat": 25.097222, "lng": -111.530833
},{
"label": "Las Joyitas", "lat": 26.126608, "lng": -111.779658
},{
"label": "Puerto Cancún", "lat": 24.548404, "lng": -111.746501
},{
"label": "El Aguajito Uno", "lat": 25.3946, "lng": -111.483455
},{
"label": "Mexicali Lote 10", "lat": 25.167425, "lng": -111.616947
},{
"label": "Derramadero", "lat": 26.050293, "lng": -112.094061
},{
"label": "Los Tulares Lote 2-B", "lat": 25.079111, "lng": -111.845501
},{
"label": "Guanajuato Lote 6", "lat": 25.022445, "lng": -111.719603
},{
"label": "Guanajuato Lote 5", "lat": 25.022021, "lng": -111.711219
},{
"label": "Guanajuato Lote 4", "lat": 25.01821, "lng": -111.697968
},{
"label": "El Palo Adán", "lat": 26.177308, "lng": -111.782373
},{
"label": "Mexicali Lote 11", "lat": 25.166436, "lng": -111.628514
},{
"label": "Llano Verde Lote 1", "lat": 24.963539, "lng": -111.799605
},{
"label": "Mexicali Lote 12", "lat": 25.186506, "lng": -111.611608
},{
"label": "La Purísima (Grupo Solidaridad)", "lat": 25.459166, "lng": -111.872687
},{
"label": "San Antonio Uno", "lat": 25.497785, "lng": -111.888959
},{
"label": "La Torre", "lat": 24.977954, "lng": -111.401896
},{
"label": "El Agua Fría", "lat": 26.444644, "lng": -112.131927
},{
"label": "Los Ranchitos", "lat": 26.466096, "lng": -112.065791
},{
"label": "Las Tinajas", "lat": 26.017944, "lng": -111.816634
},{
"label": "San Francisco de Tepentú", "lat": 25.085275, "lng": -111.288663
},{
"label": "Jalisco Lote C3", "lat": 25.433866, "lng": -111.817618
},{
"label": "El Portón Dos", "lat": 26.066318, "lng": -112.113079
},{
"label": "El Palo Fierrito", "lat": 26.068863, "lng": -111.784799
},{
"label": "Llano los Patitos Lote 5", "lat": 24.981388, "lng": -111.755049
},{
"label": "Guadalupe de la Picota", "lat": 25.068557, "lng": -111.187394
},{
"label": "El Desengaño", "lat": 25.356077, "lng": -111.991729
},{
"label": "Llano Verde Lote 4", "lat": 24.946294, "lng": -111.799068
},{
"label": "El Coyote", "lat": 24.826045, "lng": -111.578888
},{
"label": "Llano los Patitos Lote 1", "lat": 24.962457, "lng": -111.732879
},{
"label": "Llano los Patitos Lote 3", "lat": 24.969068, "lng": -111.734513
},{
"label": "Josefa Ortiz de Domínguez", "lat": 25.001389, "lng": -111.833333
},{
"label": "El Canutillo (Los Cacumes)", "lat": 25.211042, "lng": -111.352153
},{
"label": "La Barrita", "lat": 24.796686, "lng": -112.267525
},{
"label": "Mexicali Lote 23", "lat": 25.17395, "lng": -111.588094
},{
"label": "El Esterón", "lat": 25.187553, "lng": -111.405158
},{
"label": "La Poza", "lat": 26.470879, "lng": -112.167362
},{
"label": "La Piedra Rajada", "lat": 26.072483, "lng": -112.275686
},{
"label": "Las Compostelas (Las Isabeles)", "lat": 24.886052, "lng": -111.701872
},{
"label": "Ejido Santo Domingo Grupo 14", "lat": 25.450548, "lng": -111.926222
},{
"label": "La Palmita", "lat": 25.63477, "lng": -111.61935
},{
"label": "Nueva Jiménez Lote 22", "lat": 25.220121, "lng": -111.669816
},{
"label": "La Subida Alta", "lat": 26.207915, "lng": -112.227874
},{
"label": "El Cantiloso", "lat": 26.499707, "lng": -112.052611
},{
"label": "El Seguro", "lat": 26.077612, "lng": -111.752145
},{
"label": "El Rosario", "lat": 25.088306, "lng": -111.880476
},{
"label": "San Cipriano", "lat": 25.353047, "lng": -111.380794
},{
"label": "La Tunita", "lat": 26.388278, "lng": -111.958784
},{
"label": "Teotlán", "lat": 25.156991, "lng": -111.912511
},{
"label": "Karlita", "lat": 24.921617, "lng": -111.970724
},{
"label": "Buenavista", "lat": 26.210674, "lng": -111.8815
},{
"label": "Los Tepalcates", "lat": 26.469357, "lng": -112.258584
},{
"label": "El Pedregal de San Luis", "lat": 24.957649, "lng": -111.301681
},{
"label": "El Lloradero", "lat": 25.225813, "lng": -111.196608
},{
"label": "El Sauzal", "lat": 25.349369, "lng": -111.279003
},{
"label": "La Bocana de San Gregorio", "lat": 26.06076, "lng": -112.286666
},{
"label": "Ejido Santo Domingo Grupo 23", "lat": 25.507548, "lng": -111.81004
},{
"label": "El Crucerito", "lat": 26.332969, "lng": -111.776299
},{
"label": "El Mezquitalito", "lat": 25.337886, "lng": -111.101039
},{
"label": "La Mascota", "lat": 25.320002, "lng": -111.794956
},{
"label": "Nuevo Jiménez Lote 4", "lat": 25.211608, "lng": -111.664703
},{
"label": "Nuevo Jiménez Lote 6", "lat": 25.193144, "lng": -111.666378
},{
"label": "Yaquis Lote 1", "lat": 24.97824, "lng": -111.637894
},{
"label": "Nuevo Jiménez Lote 8", "lat": 25.197592, "lng": -111.656156
},{
"label": "Nuevo Jiménez Lote 9", "lat": 25.205508, "lng": -111.655611
},{
"label": "Nueva Jiménez Lote 31", "lat": 25.197907, "lng": -111.621153
},{
"label": "El Cerrito", "lat": 24.943501, "lng": -111.189063
},{
"label": "La Pila", "lat": 25.071526, "lng": -110.985414
},{
"label": "El Potrerito", "lat": 26.484236, "lng": -112.203814
},{
"label": "El Sauzalito", "lat": 25.119484, "lng": -111.051256
},{
"label": "Guanajuato Lote 8", "lat": 25.020403, "lng": -111.736328
},{
"label": "Yaquis Lote 9", "lat": 24.97711, "lng": -111.626269
},{
"label": "Rancho Calderón", "lat": 24.827771, "lng": -111.638715
},{
"label": "El Picacho", "lat": 26.198252, "lng": -111.790757
},{
"label": "Yaquis Lote 8", "lat": 24.969578, "lng": -111.633707
},{
"label": "Jalisco Lote 5 C3MZM", "lat": 25.445296, "lng": -111.842677
},{
"label": "La Escondida", "lat": 26.390669, "lng": -112.451196
},{
"label": "Flores Rodríguez Lote 2", "lat": 24.862688, "lng": -111.696303
},{
"label": "Ejido Santo Domingo Grupo 11", "lat": 25.492885, "lng": -111.811752
},{
"label": "Agua Escondida", "lat": 26.082769, "lng": -112.033819
},{
"label": "Santa Rosa", "lat": 25.392467, "lng": -111.194968
},{
"label": "La Junta", "lat": 26.415748, "lng": -112.00862
},{
"label": "Ejido Santo Domingo Grupo 12", "lat": 25.499899, "lng": -111.807297
},{
"label": "El Chamizal Lote 14", "lat": 25.507646, "lng": -111.893544
},{
"label": "La Sábila", "lat": 25.58987, "lng": -111.629132
},{
"label": "María Auxiliadora (El Mompala)", "lat": 25.409215, "lng": -111.855624
},{
"label": "El Batequito", "lat": 25.002424, "lng": -111.439263
},{
"label": "Loma Atravesada", "lat": 26.09392, "lng": -112.086882
},{
"label": "El Chamizal Lote 10", "lat": 25.510906, "lng": -111.869068
},{
"label": "Galeana Lote 37", "lat": 25.347115, "lng": -111.688013
},{
"label": "El Infiernito", "lat": 26.058033, "lng": -111.837353
},{
"label": "La Malilla", "lat": 25.336497, "lng": -111.432499
},{
"label": "San Carlos Lote 511-4", "lat": 24.902236, "lng": -111.688439
},{
"label": "Galeana Lote 35", "lat": 25.315791, "lng": -111.673162
},{
"label": "Galeana Lote 34", "lat": 25.319645, "lng": -111.688011
},{
"label": "Las Palmas", "lat": 25.049127, "lng": -111.661753
},{
"label": "San Silvestre", "lat": 24.961569, "lng": -111.347016
},{
"label": "La Pitaya", "lat": 25.049639, "lng": -111.653198
},{
"label": "San Luisito", "lat": 24.936081, "lng": -111.327472
},{
"label": "San Carlos Lote 511-1", "lat": 24.901044, "lng": -111.674118
},{
"label": "San Carlos Lote 511-2", "lat": 24.892454, "lng": -111.72242
},{
"label": "Agua de León", "lat": 26.325276, "lng": -111.972562
},{
"label": "Los Gallos", "lat": 25.002778, "lng": -111.608333
},{
"label": "Santo Niño", "lat": 24.924722, "lng": -111.299389
},{
"label": "Ejido Santo Domingo Grupo 25", "lat": 25.52225, "lng": -111.820064
},{
"label": "La Tinaja del Burro", "lat": 26.326749, "lng": -111.958767
},{
"label": "El Cincuentaidós", "lat": 24.821529, "lng": -112.085376
},{
"label": "San Miguel de Quepo", "lat": 25.283946, "lng": -111.378877
},{
"label": "Ejido Santo Domingo Grupo 28", "lat": 25.499803, "lng": -111.907903
},{
"label": "La Selva", "lat": 24.723964, "lng": -111.630158
},{
"label": "Los Álvarez", "lat": 25.051303, "lng": -111.846929
},{
"label": "El Llano Redondo", "lat": 26.252731, "lng": -111.782768
},{
"label": "Fierro Encinas Dos (Rancho Celis)", "lat": 25.316837, "lng": -111.763908
},{
"label": "Benito Juárez", "lat": 25.113686, "lng": -111.825988
},{
"label": "Las Compostelas (El Sacrificio)", "lat": 24.890874, "lng": -111.700619
},{
"label": "Galeana Lote 40", "lat": 25.347161, "lng": -111.679632
},{
"label": "Ejido Santo Domingo Grupo 31", "lat": 25.518899, "lng": -111.838123
},{
"label": "Rancho Nuevo", "lat": 25.392523, "lng": -111.20881
},{
"label": "Los Metatitos", "lat": 25.287405, "lng": -111.265687
},{
"label": "El Vallecito", "lat": 25.067851, "lng": -111.604788
},{
"label": "San Felipe", "lat": 25.048821, "lng": -111.620059
},{
"label": "Los Gatitos", "lat": 26.459921, "lng": -112.150262
},{
"label": "Galeana Lote 16", "lat": 25.363552, "lng": -111.742686
},{
"label": "El Tecolote", "lat": 26.247075, "lng": -111.774087
},{
"label": "Galeana Lote 15", "lat": 25.361814, "lng": -111.697242
},{
"label": "Ninguno [INIFAP]", "lat": 25.009412, "lng": -111.664047
},{
"label": "Galeana Lote 13", "lat": 25.374536, "lng": -111.727733
},{
"label": "Galeana Lote 12", "lat": 25.374139, "lng": -111.738053
},{
"label": "Galeana Lote 11", "lat": 25.370252, "lng": -111.752742
},{
"label": "Galeana Lote 10", "lat": 25.371865, "lng": -111.714377
},{
"label": "Puente de Madera", "lat": 26.028985, "lng": -111.846758
},{
"label": "El Purgatorio", "lat": 26.513809, "lng": -112.154986
},{
"label": "Río Mayo Lote 10", "lat": 25.198964, "lng": -111.813756
},{
"label": "Río Mayo Lote 12", "lat": 25.184244, "lng": -111.813385
},{
"label": "Río Mayo Lote 13", "lat": 25.181136, "lng": -111.803269
},{
"label": "Las Vacas", "lat": 25.404207, "lng": -112.085464
},{
"label": "El Conejo", "lat": 25.286228, "lng": -111.979093
},{
"label": "Río Mayo Lote 14", "lat": 25.181763, "lng": -111.793616
},{
"label": "Río Mayo Lote 15", "lat": 25.209983, "lng": -111.815327
},{
"label": "Punta Arenas", "lat": 24.58411, "lng": -112.075141
},{
"label": "Tierras Blancas", "lat": 26.403386, "lng": -112.182853
},{
"label": "El Choyero", "lat": 24.98877, "lng": -111.390459
},{
"label": "El Llano Blanco", "lat": 25.163174, "lng": -111.165948
},{
"label": "Rancho Grande", "lat": 24.949906, "lng": -111.356733
},{
"label": "Magisterial Lote 4", "lat": 24.934868, "lng": -111.651976
},{
"label": "Galeana Lote 28", "lat": 25.333478, "lng": -111.696789
},{
"label": "San Pedro", "lat": 26.064723, "lng": -112.075368
},{
"label": "Galeana Lote 27", "lat": 25.333859, "lng": -111.713527
},{
"label": "Galeana Lote 24", "lat": 25.347403, "lng": -111.723668
},{
"label": "Galeana Lote 23", "lat": 25.342901, "lng": -111.697888
},{
"label": "Galeana Lote 22", "lat": 25.343373, "lng": -111.709793
},{
"label": "El Duguajal", "lat": 26.35859, "lng": -111.921515
},{
"label": "Galeana Lote 20", "lat": 25.352284, "lng": -111.702107
},{
"label": "El Jarillal", "lat": 25.735169, "lng": -111.719054
},{
"label": "La Petaca", "lat": 25.371944, "lng": -111.252436
},{
"label": "La Pitahaya", "lat": 24.766593, "lng": -111.568415
},{
"label": "La Poza de Silverio", "lat": 26.113127, "lng": -112.065539
},{
"label": "Magisterial Lote 611-2", "lat": 24.920214, "lng": -111.683036
},{
"label": "Puerto Cortés", "lat": 24.477856, "lng": -111.821636
},{
"label": "Tepentú", "lat": 25.092107, "lng": -111.322275
},{
"label": "Nueva California Lote 3", "lat": 25.098195, "lng": -111.835626
},{
"label": "Nueva California Lote 6", "lat": 25.111616, "lng": -111.882895
},{
"label": "Nueva California Lote 8", "lat": 25.118589, "lng": -111.90086
},{
"label": "La Piedra Pintada", "lat": 26.407746, "lng": -112.487635
},{
"label": "Las Tazajeras", "lat": 25.421324, "lng": -111.091354
},{
"label": "El Relevo", "lat": 25.118651, "lng": -111.912719
},{
"label": "El Corral Viejo", "lat": 26.188113, "lng": -111.823412
},{
"label": "Cuernavaca", "lat": 25.52774, "lng": -111.935374
},{
"label": "Los Tulares", "lat": 25.065692, "lng": -111.824191
},{
"label": "Uña de Gato", "lat": 25.249393, "lng": -111.186304
},{
"label": "Jalisco (El Coto)", "lat": 25.396968, "lng": -111.773838
},{
"label": "El Tequesquite", "lat": 25.209069, "lng": -111.360825
},{
"label": "Álvarez Lote 22", "lat": 25.329428, "lng": -111.782181
},{
"label": "El Chamizal Lote 5", "lat": 25.523678, "lng": -111.862635
},{
"label": "Ninguno [Campamento SCT]", "lat": 25.009936, "lng": -111.661612
},{
"label": "San Lázaro", "lat": 26.174914, "lng": -111.745886
},{
"label": "Nuevo Jiménez Lote 38", "lat": 25.211272, "lng": -111.61507
},{
"label": "Cuitláhuac Lote 23", "lat": 25.084685, "lng": -111.739213
},{
"label": "La Noria", "lat": 26.015874, "lng": -111.856933
},{
"label": "Cuitláhuac Lote 24", "lat": 25.083868, "lng": -111.721037
},{
"label": "Nuevo Jiménez Lote 36", "lat": 25.193625, "lng": -111.614739
},{
"label": "Las Tinajas de San Pablo", "lat": 26.125852, "lng": -111.735794
},{
"label": "El Pedregal", "lat": 25.13998, "lng": -111.32049
},{
"label": "Cuitláhuac Lote 28", "lat": 25.075095, "lng": -111.751401
},{
"label": "Nuevo Jiménez Lote 30", "lat": 25.204039, "lng": -111.623939
},{
"label": "Álvarez Lote 15", "lat": 25.356139, "lng": -111.777593
},{
"label": "Álvarez Lote 14", "lat": 25.363907, "lng": -111.767603
},{
"label": "Álvarez Lote 17", "lat": 25.387504, "lng": -111.844218
},{
"label": "Las Palmas de San Luis", "lat": 24.911711, "lng": -111.289573
},{
"label": "Álvarez Lote 19", "lat": 25.379421, "lng": -111.769142
},{
"label": "Agua Grande", "lat": 26.048542, "lng": -111.872305
},{
"label": "Álvarez Lote 31", "lat": 25.347, "lng": -111.819502
},{
"label": "Álvarez Lote 34", "lat": 25.359913, "lng": -111.836913
},{
"label": "El Mechudo", "lat": 26.180339, "lng": -111.975648
},{
"label": "Cuitláhuac Lote 30", "lat": 25.077419, "lng": -111.738039
},{
"label": "Tiguana", "lat": 25.208236, "lng": -111.127774
},{
"label": "Cuitláhuac Lote 31", "lat": 25.076953, "lng": -111.723114
},{
"label": "Agua Verde", "lat": 26.367129, "lng": -111.933592
},{
"label": "Cuitláhuac Lote 32", "lat": 25.069371, "lng": -111.711964
},{
"label": "Cuitláhuac Lote 34", "lat": 25.073457, "lng": -111.692545
},{
"label": "Cuitláhuac Lote 37", "lat": 25.067218, "lng": -111.731716
},{
"label": "El Secreto", "lat": 25.34929, "lng": -111.649009
},{
"label": "Cuitláhuac Lote 39", "lat": 25.068481, "lng": -111.714229
},{
"label": "San Agustín", "lat": 24.831289, "lng": -111.809678
},{
"label": "Tinaja los Becerros", "lat": 26.273687, "lng": -111.945469
},{
"label": "Álvarez Lote 25", "lat": 25.35207, "lng": -111.788538
},{
"label": "El Remendado", "lat": 26.123621, "lng": -112.190541
},{
"label": "El Temporal", "lat": 25.114346, "lng": -111.049336
},{
"label": "Las Tres Cruces", "lat": 25.254146, "lng": -111.925792
},{
"label": "Emiliano Zapata Lote 17", "lat": 25.030874, "lng": -111.704613
},{
"label": "México Lote 1", "lat": 25.177014, "lng": -111.775272
},{
"label": "Emiliano Zapata Lote 15", "lat": 25.031705, "lng": -111.733524
},{
"label": "El Vergel Lote 1", "lat": 24.914002, "lng": -111.608391
},{
"label": "El Aguajito de Tepentú", "lat": 25.090498, "lng": -111.297069
},{
"label": "La Venada", "lat": 25.27874, "lng": -111.162938
},{
"label": "La Cuestecita", "lat": 26.278984, "lng": -112.141841
},{
"label": "Los Perdidos", "lat": 25.363994, "lng": -111.96449
},{
"label": "El Ojo de Agua", "lat": 24.965587, "lng": -111.341973
},{
"label": "Cuedas", "lat": 24.901187, "lng": -111.249792
},{
"label": "El Imperio Verde", "lat": 25.136014, "lng": -111.341003
},{
"label": "San Buto", "lat": 24.759849, "lng": -112.045948
},{
"label": "México Lote 8", "lat": 25.196426, "lng": -111.791586
},{
"label": "México Lote 7", "lat": 25.195149, "lng": -111.780839
},{
"label": "México Lote 6", "lat": 25.188939, "lng": -111.803231
},{
"label": "Emiliano Zapata Lote 11", "lat": 25.030411, "lng": -111.764364
},{
"label": "Loma Alta", "lat": 25.01633, "lng": -111.902903
},{
"label": "San Ramón Tres", "lat": 26.079767, "lng": -112.221098
},{
"label": "El Llano", "lat": 26.440615, "lng": -112.109616
},{
"label": "San José de Guajademí", "lat": 26.38461, "lng": -112.163224
},{
"label": "La Matrera", "lat": 26.462286, "lng": -112.015772
},{
"label": "Poza Sola 3", "lat": 25.093864, "lng": -111.331176
},{
"label": "El Rincón de las Garzas", "lat": 25.144383, "lng": -111.330898
},{
"label": "La Peralta", "lat": 26.302203, "lng": -111.916282
},{
"label": "Cuitláhuac Lote 10", "lat": 25.096573, "lng": -111.719228
},{
"label": "Cuitláhuac Lote 12", "lat": 25.099369, "lng": -111.706701
},{
"label": "Cuitláhuac Lote 15", "lat": 25.097574, "lng": -111.747663
},{
"label": "Cuitláhuac Lote 16", "lat": 25.092134, "lng": -111.73007
},{
"label": "Rancho Espinoza", "lat": 25.460322, "lng": -111.871678
},{
"label": "San Ignacio", "lat": 25.348209, "lng": -111.165487
},{
"label": "Cuitláhuac Lote 18", "lat": 25.090957, "lng": -111.709797
},{
"label": "Cuitláhuac Lote 19", "lat": 25.094276, "lng": -111.702546
},{
"label": "Emiliano Zapata Lote 20", "lat": 25.027461, "lng": -111.78616
},{
"label": "El Portezuelo", "lat": 25.043349, "lng": -111.084309
},{
"label": "Emiliano Zapata Lote 23", "lat": 25.045805, "lng": -111.788063
},{
"label": "Las Estiladeras", "lat": 26.177663, "lng": -112.231689
},{
"label": "Emiliano Zapata Lote 24", "lat": 25.022892, "lng": -111.78532
},{
"label": "Kilómetro 228", "lat": 25.180388, "lng": -111.741992
},{
"label": "Emiliano Zapata Lote 21", "lat": 25.044635, "lng": -111.763754
},{
"label": "Núñez Lote 3", "lat": 24.882781, "lng": -111.604582
},{
"label": "El Limón", "lat": 26.328214, "lng": -111.961406
},{
"label": "Las Pilas", "lat": 26.348443, "lng": -111.759271
},{
"label": "San Andresito", "lat": 25.805086, "lng": -112.120155
},{
"label": "El Ensueño", "lat": 25.037814, "lng": -111.622998
},{
"label": "La Bartolina", "lat": 26.274346, "lng": -111.994708
},{
"label": "San Ignacio Uno", "lat": 25.478208, "lng": -111.391788
},{
"label": "El Corral de Cardón", "lat": 26.229733, "lng": -112.196098
},{
"label": "Tinaja las Yeguas", "lat": 26.456862, "lng": -112.083477
},{
"label": "San Miguel", "lat": 26.076568, "lng": -112.06096
},{
"label": "El Cardón", "lat": 26.420478, "lng": -112.097481
},{
"label": "Jalisco (Rancho González)", "lat": 25.443534, "lng": -111.873587
},{
"label": "Las Jaras", "lat": 25.373386, "lng": -111.24251
},{
"label": "Poza Honda Dos", "lat": 25.368291, "lng": -111.522357
},{
"label": "El Zapote", "lat": 26.182733, "lng": -112.092871
},{
"label": "La Redonda", "lat": 26.270484, "lng": -111.867245
},{
"label": "El Aguajito", "lat": 25.123922, "lng": -111.034277
},{
"label": "El Chamizal Lote 1-8", "lat": 25.500146, "lng": -111.885246
},{
"label": "El Vergel Lote 29", "lat": 24.935551, "lng": -111.621073
},{
"label": "El Vergel Lote 28", "lat": 24.967441, "lng": -111.572613
},{
"label": "El Vergel Lote 23", "lat": 24.944499, "lng": -111.622082
},{
"label": "El Vergel Lote 22", "lat": 24.939203, "lng": -111.609123
},{
"label": "El Divisadero", "lat": 26.491476, "lng": -112.090133
},{
"label": "El Vergel Lote 25", "lat": 24.947223, "lng": -111.602021
},{
"label": "El Vergel Lote 24", "lat": 24.948089, "lng": -111.612752
},{
"label": "Las Lomas", "lat": 24.800317, "lng": -112.102897
},{
"label": "Los Pinos", "lat": 24.909236, "lng": -112.004064
},{
"label": "San Jorge", "lat": 24.95781, "lng": -111.333546
},{
"label": "San Mateo Uno", "lat": 25.499748, "lng": -111.440779
},{
"label": "Jalisco (Palos Verdes C6-B)", "lat": 25.419693, "lng": -111.78254
},{
"label": "Ampliación Santo Domingo", "lat": 25.492065, "lng": -111.901241
},{
"label": "El Junco", "lat": 25.026578, "lng": -111.014726
},{
"label": "La Minita", "lat": 25.211476, "lng": -111.098944
},{
"label": "El Mezquital", "lat": 26.176628, "lng": -112.090807
},{
"label": "El Indomable", "lat": 24.828869, "lng": -111.693489
},{
"label": "Los Güeros", "lat": 26.125397, "lng": -111.966163
},{
"label": "Cuitláhuac Lote 40", "lat": 25.067154, "lng": -111.701843
},{
"label": "Cuitláhuac Lote 41", "lat": 25.065917, "lng": -111.692096
},{
"label": "Cuitláhuac Lote 42", "lat": 25.058132, "lng": -111.752624
},{
"label": "Cuitláhuac Lote 43", "lat": 25.060381, "lng": -111.742381
},{
"label": "Cuitláhuac Lote 44", "lat": 25.055341, "lng": -111.735152
},{
"label": "El Rincón de la Perra", "lat": 26.468395, "lng": -112.130324
},{
"label": "Las Tres Marías", "lat": 25.956598, "lng": -112.078854
},{
"label": "Cuitláhuac Lote 45", "lat": 25.051806, "lng": -111.730438
},{
"label": "San Martín", "lat": 26.355732, "lng": -111.909804
},{
"label": "Cuitláhuac Lote 46", "lat": 25.058943, "lng": -111.712747
},{
"label": "Cuitláhuac Lote 47", "lat": 25.05795, "lng": -111.703482
},{
"label": "Salvatierra (Las Bramonas)", "lat": 25.124103, "lng": -111.714671
},{
"label": "San Jacinto", "lat": 25.580774, "lng": -111.570771
},{
"label": "Cuitláhuac Lote 49", "lat": 25.050696, "lng": -111.753087
},{
"label": "Ninguno [Estación de Acueducto]", "lat": 25.249781, "lng": -111.913226
},{
"label": "El Saucito", "lat": 26.099773, "lng": -112.210718
},{
"label": "El Vergel Lote 13", "lat": 24.931658, "lng": -111.615373
},{
"label": "Las Agujas", "lat": 26.259092, "lng": -112.000528
},{
"label": "Los Ocampo", "lat": 25.016561, "lng": -111.613315
},{
"label": "El Bule", "lat": 26.376528, "lng": -112.601575
},{
"label": "Jalisco (Palos Verdes C6-C)", "lat": 25.421989, "lng": -111.774625
},{
"label": "Navojoa Segunda Sección Lote 12", "lat": 24.97433, "lng": -111.648748
},{
"label": "El Caimán", "lat": 25.227454, "lng": -111.175001
},{
"label": "Mexicali Lote 18-A", "lat": 25.159667, "lng": -111.594306
},{
"label": "Santo Domingo", "lat": 25.489261, "lng": -111.918337
},{
"label": "La Pocita", "lat": 25.377786, "lng": -111.165476
},{
"label": "El Sapo", "lat": 26.52492, "lng": -112.071373
},{
"label": "Álvarez Lote 13", "lat": 25.365316, "lng": -111.777447
},{
"label": "El Palo Estribo", "lat": 26.459643, "lng": -112.216653
},{
"label": "Guadalajara Lote 2-A", "lat": 25.057331, "lng": -111.837013
},{
"label": "La Paila", "lat": 25.139364, "lng": -111.338969
},{
"label": "Cuitláhuac Lote 50", "lat": 25.048824, "lng": -111.743168
},{
"label": "Cuitláhuac Lote 51", "lat": 25.047239, "lng": -111.734423
},{
"label": "Buenos Aires Lote 8", "lat": 25.286, "lng": -111.730392
},{
"label": "Buenos Aires Lote 9", "lat": 25.275777, "lng": -111.727133
},{
"label": "Ley Federal de Aguas Número Tres", "lat": 25.25, "lng": -111.563611
},{
"label": "Buenos Aires Lote 6", "lat": 25.299956, "lng": -111.724346
},{
"label": "Buenos Aires Lote 5", "lat": 25.304263, "lng": -111.735555
},{
"label": "El Atorón", "lat": 25.436466, "lng": -111.606124
},{
"label": "Nueva Jiménez Lote 3", "lat": 25.203794, "lng": -111.67393
},{
"label": "Las Delicias Lote 7", "lat": 24.949155, "lng": -111.734447
},{
"label": "Nueva Jiménez Lote 1", "lat": 25.188189, "lng": -111.681711
},{
"label": "Plan de los Valles", "lat": 25.114676, "lng": -110.966555
},{
"label": "Las Delicias Lote 9", "lat": 24.952548, "lng": -111.723225
},{
"label": "El Abrevadero del Dos", "lat": 25.275177, "lng": -111.574351
},{
"label": "La Severiana", "lat": 26.408923, "lng": -111.986913
},{
"label": "Acatic Lote 403", "lat": 25.432674, "lng": -111.934143
},{
"label": "El Horno", "lat": 26.284417, "lng": -111.762263
},{
"label": "El Tajo del Picacho", "lat": 26.213641, "lng": -111.784076
},{
"label": "El Chicural de la Relumbrosa", "lat": 25.420776, "lng": -111.350082
},{
"label": "Poza Sola Dos", "lat": 25.085111, "lng": -111.332039
},{
"label": "San Antoñito", "lat": 26.069202, "lng": -111.791117
},{
"label": "La Poza de Palo Alto", "lat": 25.378779, "lng": -111.907132
},{
"label": "La Laguna Lotes 26 y 27", "lat": 25.248811, "lng": -111.788192
},{
"label": "Jalisco Lote C6-K", "lat": 25.407244, "lng": -111.792974
},{
"label": "San Isidro", "lat": 26.204207, "lng": -112.041639
},{
"label": "San Miguel de Comondú", "lat": 26.038074, "lng": -111.834741
},{
"label": "La Joya", "lat": 26.189011, "lng": -111.859345
},{
"label": "Jalisco Lote C6-Q", "lat": 25.393853, "lng": -111.783307
},{
"label": "Jalisco Lote C-251", "lat": 25.435387, "lng": -111.860888
},{
"label": "Santa Fe Uno Lote F", "lat": 25.31961, "lng": -111.647482
},{
"label": "Nueva California Lote 57-A", "lat": 25.125782, "lng": -111.76854
},{
"label": "Nueva California Lote 57-B", "lat": 25.122224, "lng": -111.767864
},{
"label": "La Cueva", "lat": 25.039711, "lng": -111.036392
},{
"label": "Paso de Romo", "lat": 25.328425, "lng": -111.299819
},{
"label": "El Juncal", "lat": 26.231335, "lng": -111.933134
},{
"label": "Las Puntas", "lat": 26.004389, "lng": -112.098798
},{
"label": "La Chuparrosa", "lat": 26.22954, "lng": -111.971891
},{
"label": "La Sandía", "lat": 26.275501, "lng": -112.131053
},{
"label": "El Saltito", "lat": 25.054899, "lng": -111.027793
},{
"label": "Las Cuevas Verdes", "lat": 26.469921, "lng": -112.22582
},{
"label": "Jalisco Lote NC5", "lat": 25.40712, "lng": -111.822741
},{
"label": "El Sacramento", "lat": 25.058355, "lng": -111.585914
},{
"label": "Fierro Encinas Uno Lote 2", "lat": 25.316225, "lng": -111.805176
},{
"label": "Rancho Valverde", "lat": 24.90943, "lng": -111.27153
},{
"label": "Valenzuela", "lat": 25.383149, "lng": -111.152941
},{
"label": "Fierro Encinas Uno Lote 4", "lat": 25.329488, "lng": -111.808273
},{
"label": "La Virgencita II", "lat": 25.841993, "lng": -111.894522
},{
"label": "La Becerrita", "lat": 26.443533, "lng": -111.995534
},{
"label": "Rancho de Jesús", "lat": 24.973221, "lng": -111.357593
},{
"label": "El Imposible", "lat": 24.802092, "lng": -111.566261
},{
"label": "Barranca de Otates Lote 10", "lat": 24.935709, "lng": -111.817076
},{
"label": "Barranca de Otates Lote 13", "lat": 24.97209, "lng": -111.794745
},{
"label": "San Nicolás", "lat": 24.866418, "lng": -111.272174
},{
"label": "El Agua de León", "lat": 26.293413, "lng": -111.771202
},{
"label": "Santa Rita", "lat": 26.479663, "lng": -112.083275
},{
"label": "Barranca de Otates Lote 14", "lat": 24.971594, "lng": -111.808095
},{
"label": "Calejú", "lat": 26.323814, "lng": -111.967232
},{
"label": "Los Algodones", "lat": 25.223923, "lng": -111.183507
},{
"label": "Buenos Aires", "lat": 24.939616, "lng": -111.182641
},{
"label": "San Lucas", "lat": 24.960755, "lng": -111.330284
},{
"label": "Ciudad Constitución", "lat": 25.034434, "lng": -111.673218
},{
"label": "Las Milpas", "lat": 26.255822, "lng": -111.921007
},{
"label": "El Reparito", "lat": 26.56103, "lng": -112.279436
},{
"label": "Ejido Santo Domingo Lote 15", "lat": 25.474386, "lng": -111.898555
},{
"label": "San Antonio", "lat": 26.203766, "lng": -111.743692
},{
"label": "El Quemadito", "lat": 24.954186, "lng": -111.290725
},{
"label": "El Pozo del Burro", "lat": 26.167627, "lng": -111.856577
},{
"label": "La Purísima Lote 3", "lat": 25.457102, "lng": -111.861392
},{
"label": "El Librado", "lat": 26.187004, "lng": -111.960144
},{
"label": "El Porvenir", "lat": 25.334947, "lng": -111.181585
},{
"label": "La Purísima (Rancho Peralta)", "lat": 25.462543, "lng": -111.871626
},{
"label": "La Purísima (Los Pinos)", "lat": 25.455596, "lng": -111.88206
},{
"label": "Ley Federal de Aguas Número Cinco Pozo 22", "lat": 25.118229, "lng": -111.554286
},{
"label": "Fernando de la Toba Lote 79", "lat": 25.25789, "lng": -111.742099
},{
"label": "Palo Estribo", "lat": 26.371312, "lng": -112.086368
},{
"label": "Los Gavilanes", "lat": 26.205614, "lng": -111.817916
},{
"label": "Progreso Lote 1", "lat": 25.175122, "lng": -111.834524
},{
"label": "Progreso Lote 2", "lat": 25.176363, "lng": -111.84429
},{
"label": "San Pedrito", "lat": 24.906603, "lng": -111.256446
},{
"label": "San Andrés", "lat": 25.797501, "lng": -111.779348
},{
"label": "Santa Fe Lote G", "lat": 25.306684, "lng": -111.648538
},{
"label": "Santa Fe Dos Lote 71-A", "lat": 25.323494, "lng": -111.697261
},{
"label": "Fierro Encinas Uno Lote 10", "lat": 25.318546, "lng": -111.827794
},{
"label": "El Salvador", "lat": 26.009042, "lng": -111.745614
},{
"label": "La Huerta", "lat": 25.03204, "lng": -111.061864
},{
"label": "El Toro", "lat": 26.51492, "lng": -112.060261
},{
"label": "Revolución Mexicana Lotes 87 y 88", "lat": 25.010894, "lng": -111.587735
},{
"label": "Fernando de la Toba Lote 81", "lat": 25.256458, "lng": -111.722775
},{
"label": "Fernando de la Toba Lote 83", "lat": 25.258623, "lng": -111.699491
},{
"label": "Fernando de la Toba Lote 85", "lat": 25.256286, "lng": -111.677363
},{
"label": "Fernando de la Toba Lote 87", "lat": 25.252633, "lng": -111.657763
},{
"label": "Fernando de la Toba Lote 88", "lat": 25.232926, "lng": -111.672986
},{
"label": "Fernando de la Toba Lote 89", "lat": 25.234545, "lng": -111.662827
},{
"label": "La Herradura", "lat": 24.787518, "lng": -111.967953
},{
"label": "Ley Federal de Aguas Número Uno", "lat": 25.335278, "lng": -111.638889
},{
"label": "Palo Fierro", "lat": 26.130546, "lng": -111.794883
},{
"label": "Los Camachos", "lat": 25.026033, "lng": -111.616307
},{
"label": "Purísima Vieja", "lat": 26.309727, "lng": -112.161652
},{
"label": "La Bandera", "lat": 26.289284, "lng": -111.949974
},{
"label": "El Zayal", "lat": 26.266871, "lng": -111.766633
},{
"label": "La Curvita [Restaurante]", "lat": 24.96191, "lng": -111.865839
},{
"label": "La Laguna Lotes 36 y 37", "lat": 25.254472, "lng": -111.787143
},{
"label": "San Bartolo", "lat": 25.450111, "lng": -111.468603
},{
"label": "Bateque Lino", "lat": 25.305528, "lng": -111.205463
},{
"label": "El Fierrero", "lat": 25.031223, "lng": -111.62888
},{
"label": "Progreso Lote 6", "lat": 25.177829, "lng": -111.883741
},{
"label": "Santa Elena", "lat": 25.136416, "lng": -111.301473
},{
"label": "Fernando de la Toba Lote 56", "lat": 25.225922, "lng": -111.683327
},{
"label": "Ramaditas", "lat": 25.1227, "lng": -111.956521
},{
"label": "Cuitláhuac Lote 6", "lat": 25.113578, "lng": -111.728339
},{
"label": "El Higuajil", "lat": 24.981339, "lng": -111.397734
},{
"label": "El Potrero", "lat": 25.284449, "lng": -111.2705
},{
"label": "Los Tres Potrillos", "lat": 25.079022, "lng": -111.114586
},{
"label": "Cuitláhuac Lote 3", "lat": 25.120975, "lng": -111.727816
},{
"label": "Navojoa Dos Lote 4", "lat": 24.984947, "lng": -111.699234
},{
"label": "Cuitláhuac Lote 4", "lat": 25.11504, "lng": -111.789581
},{
"label": "La Poza Muerta", "lat": 25.327923, "lng": -111.30935
},{
"label": "Nuevo Jiménez Lote 16", "lat": 25.196072, "lng": -111.635506
},{
"label": "El Oroval", "lat": 25.004956, "lng": -111.43602
},{
"label": "Nuevo Jiménez Lote 14", "lat": 25.17775, "lng": -111.632122
},{
"label": "Barranca de Otates Lote 1", "lat": 24.958563, "lng": -111.808536
},{
"label": "Ley Federal de Aguas Número Dos", "lat": 25.258611, "lng": -111.628611
},{
"label": "Nuevo Jiménez Lote 15", "lat": 25.189969, "lng": -111.631572
},{
"label": "Nuevo Jiménez Lote 10", "lat": 25.205739, "lng": -111.645817
},{
"label": "El Molino", "lat": 24.840506, "lng": -111.783638
},{
"label": "Nuevo Jiménez Lote 11", "lat": 25.192433, "lng": -111.646369
},{
"label": "Navojoa Dos Lote 3", "lat": 24.983576, "lng": -111.708206
},{
"label": "Misión Lote 3", "lat": 25.013344, "lng": -111.717468
},{
"label": "Fernando de la Toba Lote 60", "lat": 25.234444, "lng": -111.730853
},{
"label": "Fernando de la Toba Lote 61", "lat": 25.233706, "lng": -111.719697
},{
"label": "Fernando de la Toba Lote 62", "lat": 25.232977, "lng": -111.709892
},{
"label": "Fernando de la Toba Lote 63", "lat": 25.237062, "lng": -111.700959
},{
"label": "El Tulillo", "lat": 25.404954, "lng": -111.173033
},{
"label": "Jalisco Lote C6-P (Las Palmas)", "lat": 25.389167, "lng": -111.7863
},{
"label": "Campo Plascencia", "lat": 25.157031, "lng": -111.608825
},{
"label": "Misión Lote 8", "lat": 25.001221, "lng": -111.71678
},{
"label": "Barranca de Otates Lote 3", "lat": 24.962283, "lng": -111.832534
},{
"label": "Fernando de la Toba Lote 66", "lat": 25.251998, "lng": -111.757446
},{
"label": "San Juan", "lat": 25.613898, "lng": -111.902241
},{
"label": "Fernando de la Toba Lote 68", "lat": 25.249334, "lng": -111.744856
},{
"label": "Santa Catalina", "lat": 26.454264, "lng": -112.439353
},{
"label": "La Loma", "lat": 25.135481, "lng": -111.338336
},{
"label": "Los Dormideros", "lat": 26.178089, "lng": -111.951869
},{
"label": "El Carrizalito", "lat": 25.388547, "lng": -111.187533
},{
"label": "El Parajito", "lat": 26.396034, "lng": -112.075813
},{
"label": "La Esperanza", "lat": 26.056287, "lng": -111.736593
},{
"label": "Nuevo Jiménez Lote 29", "lat": 25.215733, "lng": -111.619718
},{
"label": "Los Cajoncitos", "lat": 26.111533, "lng": -111.892669
},{
"label": "Corral Dos Puertas", "lat": 26.361607, "lng": -111.823196
},{
"label": "Nuevo Jiménez Lote 27", "lat": 25.227617, "lng": -111.632433
},{
"label": "Los Lombolles", "lat": 26.522697, "lng": -112.226099
},{
"label": "La Carrera", "lat": 25.318699, "lng": -111.331073
},{
"label": "El Pilón", "lat": 26.271291, "lng": -112.121373
},{
"label": "Nuevo Jiménez Lote 26", "lat": 25.228403, "lng": -111.641736
},{
"label": "Nuevo Jiménez Lote 24", "lat": 25.220877, "lng": -111.659718
},{
"label": "San Juan de Matancitas", "lat": 25.12985, "lng": -111.468439
},{
"label": "Nuevo Jiménez Lote 20", "lat": 25.22005, "lng": -111.650981
},{
"label": "Parácuaro", "lat": 25.763596, "lng": -111.859214
},{
"label": "Fernando de la Toba Lote 73", "lat": 25.240825, "lng": -111.688384
},{
"label": "Los Cajones", "lat": 26.463533, "lng": -111.986924
},{
"label": "El Agua Relumbrosa", "lat": 25.40833, "lng": -111.365774
},{
"label": "La Purísima Lote C2", "lat": 25.4637, "lng": -111.874524
},{
"label": "Fernando de la Toba Lote 75", "lat": 25.24402, "lng": -111.672514
},{
"label": "Fernando de la Toba Lote 76", "lat": 25.244403, "lng": -111.662708
},{
"label": "Agua Blanca", "lat": 26.490754, "lng": -112.066649
},{
"label": "Fernando de la Toba Lote 34", "lat": 25.210775, "lng": -111.725702
},{
"label": "Acatic Lote 2", "lat": 25.441127, "lng": -111.932631
},{
"label": "Punta Edy", "lat": 24.804399, "lng": -112.144374
},{
"label": "Las Glorias", "lat": 24.640674, "lng": -112.14194
},{
"label": "Fernando de la Toba Lote 38", "lat": 25.212065, "lng": -111.680857
},{
"label": "Fernando de la Toba Lote 39", "lat": 25.218883, "lng": -111.760572
},{
"label": "Tinajas de Moreno", "lat": 26.094388, "lng": -111.911647
},{
"label": "Santo Domingo Viejo", "lat": 25.487425, "lng": -111.930666
},{
"label": "Guadalajara Lote 7", "lat": 25.034343, "lng": -111.805571
},{
"label": "Guadalajara Lote 9", "lat": 25.022085, "lng": -111.797285
},{
"label": "Galeana Lote sin Número", "lat": 25.360949, "lng": -111.752707
},{
"label": "Progreso Lote 24", "lat": 25.143537, "lng": -111.885712
},{
"label": "Sinaloa Lote 22", "lat": 25.154498, "lng": -111.699022
},{
"label": "Sinaloa Lote 21", "lat": 25.167682, "lng": -111.697324
},{
"label": "Fomento Minero [ROFOMEX]", "lat": 25.256185, "lng": -112.075962
},{
"label": "La Curva", "lat": 24.804893, "lng": -112.113088
},{
"label": "Misión Lote 16", "lat": 25.010978, "lng": -111.686186
},{
"label": "Misión Lote 17", "lat": 25.001896, "lng": -111.686867
},{
"label": "Los Hombres Solos", "lat": 25.653793, "lng": -112.067151
},{
"label": "San Juan de Tepentú", "lat": 25.085747, "lng": -111.278605
},{
"label": "Los Ángeles", "lat": 25.679663, "lng": -112.00618
},{
"label": "Fernando de la Toba Lote 41", "lat": 25.223281, "lng": -111.739931
},{
"label": "Misión Lote 12", "lat": 25.014161, "lng": -111.736047
},{
"label": "Misión Lote 13", "lat": 24.995198, "lng": -111.716803
},{
"label": "Fernando de la Toba Lote 44", "lat": 25.219637, "lng": -111.710956
},{
"label": "Revolución Mexicana Lote 50", "lat": 25.028889, "lng": -111.564444
},{
"label": "Misión Lote 11", "lat": 24.996608, "lng": -111.737415
},{
"label": "Ejido Santo Domingo Grupo 9", "lat": 25.510787, "lng": -111.824492
},{
"label": "Las Delicias Lote 16", "lat": 24.95352, "lng": -111.713738
},{
"label": "Ejido Santo Domingo Grupo 8", "lat": 25.503275, "lng": -111.830498
},{
"label": "Fernando de la Toba Lote 47", "lat": 25.217112, "lng": -111.680069
},{
"label": "Fernando de la Toba Lote 48", "lat": 25.233441, "lng": -111.759075
},{
"label": "Las Delicias Lote 17", "lat": 24.95118, "lng": -111.703625
},{
"label": "Ejido Santo Domingo Grupo 6", "lat": 25.465849, "lng": -111.923533
},{
"label": "Los Cantiles", "lat": 25.598729, "lng": -111.74034
},{
"label": "Fernando de la Toba Lote 49", "lat": 25.231057, "lng": -111.749413
},{
"label": "Las Lágrimas", "lat": 25.938308, "lng": -111.675171
},{
"label": "Fierro Encinas Lote 15", "lat": 25.331497, "lng": -111.75667
},{
"label": "La Bajada", "lat": 25.575356, "lng": -111.682965
},{
"label": "Fierro Encinas Dos Lote 49", "lat": 25.314942, "lng": -111.713325
},{
"label": "Sinaloa Lote 20", "lat": 25.167948, "lng": -111.694875
},{
"label": "Ejido Santo Domingo Grupo 5", "lat": 25.455339, "lng": -111.918192
},{
"label": "Ejido Santo Domingo Grupo 4", "lat": 25.460065, "lng": -111.911023
},{
"label": "La Laguna de Afuera", "lat": 26.309016, "lng": -111.900508
},{
"label": "Ejido Santo Domingo Grupo 3", "lat": 25.459699, "lng": -111.907824
},{
"label": "Laredo", "lat": 25.390943, "lng": -111.202358
},{
"label": "Ejido Santo Domingo Grupo 2", "lat": 25.505803, "lng": -111.819909
},{
"label": "Sinaloa Lote 12", "lat": 25.127332, "lng": -111.723712
},{
"label": "Las Tinas", "lat": 25.138974, "lng": -111.298602
},{
"label": "Sinaloa Lote 17", "lat": 25.176037, "lng": -111.703098
},{
"label": "El Huico", "lat": 26.359923, "lng": -112.156092
},{
"label": "El Triunfo", "lat": 24.908522, "lng": -111.238626
},{
"label": "Sinaloa Lote 15", "lat": 25.17169, "lng": -111.713731
},{
"label": "Fierro Encinas Lote 18", "lat": 25.329271, "lng": -111.725888
},{
"label": "Progreso Lote 18", "lat": 25.153241, "lng": -111.849273
},{
"label": "Fernando de la Toba Lote 50", "lat": 25.225304, "lng": -111.740111
},{
"label": "Sinaloa Lote 19", "lat": 25.158648, "lng": -111.704801
},{
"label": "El Represo", "lat": 26.276152, "lng": -111.845387
},{
"label": "Fernando de la Toba Lote 51", "lat": 25.224753, "lng": -111.733329
},{
"label": "Sinaloa Lote 18", "lat": 25.168309, "lng": -111.704034
},{
"label": "Progreso Lote 19", "lat": 25.160098, "lng": -111.862043
},{
"label": "El Cantil Alto", "lat": 25.204223, "lng": -111.328936
},{
"label": "Progreso Lote 16", "lat": 25.164589, "lng": -111.835096
},{
"label": "Fernando de la Toba Lote 53", "lat": 25.224126, "lng": -111.715207
},{
"label": "Fernando de la Toba Lote 54", "lat": 25.224153, "lng": -111.703821
},{
"label": "Progreso Lote 14", "lat": 25.167727, "lng": -111.860918
},{
"label": "Ninguno [CBTA 27]", "lat": 25.262526, "lng": -111.753814
},{
"label": "San Bernardo", "lat": 25.02795, "lng": -111.526137
},{
"label": "Fernando de la Toba Lote 55", "lat": 25.222807, "lng": -111.689958
},{
"label": "Progreso Lote 15", "lat": 25.165535, "lng": -111.844822
},{
"label": "Guadalupe", "lat": 25.313084, "lng": -111.193344
},{
"label": "Jalisco Lote C3-W", "lat": 25.426887, "lng": -111.829106
},{
"label": "Jalisco Lote C3-X", "lat": 25.422968, "lng": -111.808839
},{
"label": "Fierro Encinas Dos Lote 18", "lat": 25.332333, "lng": -111.727933
},{
"label": "Jalisco Lote C3-Y", "lat": 25.428075, "lng": -111.802387
},{
"label": "Gallo Loco Lote 1", "lat": 25.072491, "lng": -111.776969
},{
"label": "Fernando de la Toba Lote 17", "lat": 25.186787, "lng": -111.697102
},{
"label": "Gallo Loco Lote 3", "lat": 25.067123, "lng": -111.785964
},{
"label": "Gallo Loco Lote 4", "lat": 25.071522, "lng": -111.770643
},{
"label": "La Poza del León", "lat": 25.362985, "lng": -111.173393
},{
"label": "Fierro Encinas Dos Lote 11", "lat": 25.315979, "lng": -111.754656
},{
"label": "Piedra Sola", "lat": 25.047983, "lng": -111.659719
},{
"label": "La Poza del Bule", "lat": 25.053822, "lng": -111.123785
},{
"label": "Villa Hidalgo", "lat": 25.147782, "lng": -111.933692
},{
"label": "Fierro Encinas Dos Lote 16", "lat": 25.331271, "lng": -111.767064
},{
"label": "El Tanque del Mezquite", "lat": 26.525475, "lng": -112.147486
},{
"label": "Fierro Encinas Dos Lote 13", "lat": 25.325546, "lng": -111.744815
},{
"label": "Río Mayo Lote 5", "lat": 25.193497, "lng": -111.836073
},{
"label": "Navojoa Uno Lote 5", "lat": 25.277242, "lng": -111.829611
},{
"label": "Río Mayo Lote 2", "lat": 25.192902, "lng": -111.844508
},{
"label": "Navojoa Uno Lote 4", "lat": 25.276719, "lng": -111.819321
},{
"label": "Río Mayo Lote 3", "lat": 25.184331, "lng": -111.845054
},{
"label": "Navojoa Uno Lote 7", "lat": 25.258237, "lng": -111.817347
},{
"label": "Río Mayo Lote 8", "lat": 25.191315, "lng": -111.822894
},{
"label": "Navojoa Uno Lote 6", "lat": 25.26782, "lng": -111.823027
},{
"label": "Río Mayo Lote 6", "lat": 25.184368, "lng": -111.832503
},{
"label": "Río Mayo Lote 7", "lat": 25.203199, "lng": -111.825273
},{
"label": "Los Cuatro Corrales", "lat": 24.943704, "lng": -111.508885
},{
"label": "San Antonio de Batequitos", "lat": 25.139778, "lng": -111.339331
},{
"label": "Jalisco Lote C3-P", "lat": 25.437231, "lng": -111.84212
},{
"label": "Mesa Santa Rosa", "lat": 26.454684, "lng": -112.199627
},{
"label": "Fernando de la Toba Lote 20", "lat": 25.200179, "lng": -111.762958
},{
"label": "Jalisco Lote C3-T", "lat": 25.436503, "lng": -111.802608
},{
"label": "Puerto Alcatraz", "lat": 24.504507, "lng": -111.847712
},{
"label": "Los Ejotones", "lat": 26.261006, "lng": -112.092882
},{
"label": "Fernando de la Toba Lote 22", "lat": 25.20188, "lng": -111.741661
},{
"label": "El Eucalipto", "lat": 25.09614, "lng": -111.890385
},{
"label": "Fernando de la Toba Lote 25", "lat": 25.20164, "lng": -111.71111
},{
"label": "La Laguna Lotes 46 y 47", "lat": 25.235075, "lng": -111.777193
},{
"label": "Fernando de la Toba Lote 26", "lat": 25.198162, "lng": -111.702293
},{
"label": "Fernando de la Toba Lote 28", "lat": 25.195764, "lng": -111.69028
},{
"label": "Fernando de la Toba Lote 29", "lat": 25.210566, "lng": -111.771343
},{
"label": "Siempre Viva", "lat": 25.579141, "lng": -111.537949
},{
"label": "El Mezquitito", "lat": 25.285828, "lng": -111.370121
},{
"label": "Fierro Encinas Dos Lote 23", "lat": 25.320626, "lng": -111.726948
},{
"label": "Mesa de las Yeguas", "lat": 26.324529, "lng": -112.038646
},{
"label": "Fierro Encinas Dos Lote 21", "lat": 25.325694, "lng": -111.707759
},{
"label": "Las Delicias Lote 34", "lat": 24.955794, "lng": -111.670488
},{
"label": "Las Delicias Lote 33", "lat": 24.945812, "lng": -111.67384
},{
"label": "María Auxiliadora", "lat": 25.427289, "lng": -111.899231
},{
"label": "Las Delicias Lote 35", "lat": 24.964254, "lng": -111.672162
},{
"label": "Fernando de la Toba (Ferinsa)", "lat": 25.281561, "lng": -111.787858
},{
"label": "Misión Lote 20", "lat": 25.010759, "lng": -111.676454
},{
"label": "Revolución Mexicana Lotes 63 y 64", "lat": 25.010679, "lng": -111.630701
},{
"label": "Guadalajara Lote 1", "lat": 25.050808, "lng": -111.823767
},{
"label": "El Malverde", "lat": 24.908027, "lng": -111.278195
},{
"label": "Medio Corral", "lat": 26.360166, "lng": -111.882085
},{
"label": "El Caratel", "lat": 24.975827, "lng": -111.025163
},{
"label": "Misión Lote 21", "lat": 25.001643, "lng": -111.676811
},{
"label": "Fernando de la Toba Lote 33", "lat": 25.215813, "lng": -111.734716
},{
"label": "Los Tres Reyes", "lat": 26.479297, "lng": -112.24647
},{
"label": "El Tular", "lat": 26.54366, "lng": -112.499659
},{
"label": "Agustín Olachea Lotes 6, 7, 13 y 14", "lat": 25.174223, "lng": -111.722715
},{
"label": "Colonia Agrícola Salvatierra", "lat": 25.104747, "lng": -111.659268
},{
"label": "Los Rochas", "lat": 26.074341, "lng": -111.862616
},{
"label": "Fernando de la Toba Lote 130", "lat": 25.278187, "lng": -111.786088
},{
"label": "San José de Batequitos", "lat": 25.139012, "lng": -111.366018
},{
"label": "El Cielo", "lat": 25.136362, "lng": -111.327464
},{
"label": "Agua de Pájaro", "lat": 25.945565, "lng": -111.925801
},{
"label": "Camino Real", "lat": 25.283056, "lng": -111.285076
},{
"label": "Sinaloa Lote 28-A", "lat": 25.153823, "lng": -111.6902
},{
"label": "San Miguel de Velázquez", "lat": 25.024557, "lng": -111.476517
},{
"label": "La Gallineta", "lat": 26.501795, "lng": -111.988916
},{
"label": "Rancho Escondido", "lat": 25.364407, "lng": -111.173708
},{
"label": "Vargas Lote 13", "lat": 25.047304, "lng": -111.68384
},{
"label": "Santo Tomás", "lat": 25.383255, "lng": -111.233897
},{
"label": "Fernando de la Toba Lote 139", "lat": 25.282709, "lng": -111.773319
},{
"label": "Revolución Mexicana Lote 90", "lat": 25.004995, "lng": -111.603441
},{
"label": "Guadalajara Lote 20-A", "lat": 25.014748, "lng": -111.80677
},{
"label": "El Tajito", "lat": 26.511309, "lng": -112.147486
},{
"label": "Fernando de la Toba Lote 132", "lat": 25.273177, "lng": -111.76576
},{
"label": "La Purísima Lote C3-G", "lat": 25.454655, "lng": -111.835796
},{
"label": "Fernando de la Toba Lote 131", "lat": 25.27486, "lng": -111.788379
},{
"label": "La Purísima Lote C3-F", "lat": 25.451456, "lng": -111.846749
},{
"label": "Fernando de la Toba Lote 138", "lat": 25.282354, "lng": -111.755481
},{
"label": "Revolución Mexicana Lote 91", "lat": 24.998454, "lng": -111.614182
},{
"label": "Revolución Mexicana Lote 92", "lat": 24.997761, "lng": -111.624216
},{
"label": "Revolución Mexicana Lote 93", "lat": 24.993408, "lng": -111.634144
},{
"label": "Revolución Mexicana Lote 94", "lat": 24.987551, "lng": -111.641941
},{
"label": "La Travesía", "lat": 26.493277, "lng": -112.392487
},{
"label": "Fernando de la Toba Lote 140", "lat": 25.283, "lng": -111.775927
},{
"label": "El Cajón", "lat": 25.691317, "lng": -111.776573
},{
"label": "La Huertita de Batequitos", "lat": 25.142109, "lng": -111.28392
},{
"label": "Batequitos", "lat": 25.142097, "lng": -111.356692
},{
"label": "La Higuerita", "lat": 25.446975, "lng": -111.444261
},{
"label": "El Pozo Número Uno", "lat": 24.977003, "lng": -111.366576
},{
"label": "Nueva California Lote 100", "lat": 25.112111, "lng": -111.83491
},{
"label": "Las Tinajitas", "lat": 26.069919, "lng": -111.821308
},{
"label": "Nueva California Lote 101", "lat": 25.156059, "lng": -111.827154
},{
"label": "Fernando de la Toba Lote 145", "lat": 25.26658, "lng": -111.806801
},{
"label": "Fernando de la Toba Lote 144", "lat": 25.277274, "lng": -111.806248
},{
"label": "Fernando de la Toba Lote 143", "lat": 25.28529, "lng": -111.809781
},{
"label": "Fernando de la Toba Lote 142", "lat": 25.286419, "lng": -111.794234
},{
"label": "El Paraje de la Laguna", "lat": 26.128971, "lng": -111.746181
},{
"label": "Fernando de la Toba Lote 10", "lat": 25.191094, "lng": -111.768294
},{
"label": "Revolución Mexicana Lote 77", "lat": 25.009707, "lng": -111.618868
},{
"label": "La Pimientilla", "lat": 26.300945, "lng": -112.168996
},{
"label": "Carambuche", "lat": 26.215975, "lng": -112.020674
},{
"label": "Las Piedras Rodadas", "lat": 26.00582, "lng": -111.8687
},{
"label": "El Cardal", "lat": 25.067936, "lng": -111.174644
},{
"label": "La Pedregosa", "lat": 26.525098, "lng": -112.159554
},{
"label": "Las Tres Palmas", "lat": 26.087678, "lng": -112.225426
},{
"label": "La Leona", "lat": 26.16783, "lng": -111.957194
},{
"label": "Las Cruces", "lat": 26.373366, "lng": -111.799977
},{
"label": "Agua Clarita", "lat": 25.322109, "lng": -111.117005
},{
"label": "La Cerca", "lat": 26.226715, "lng": -111.8155
},{
"label": "Jalisco Lote C1-O", "lat": 25.449784, "lng": -111.908232
},{
"label": "Los Dolores", "lat": 26.484546, "lng": -112.528545
},{
"label": "Kilómetro 54", "lat": 24.800059, "lng": -112.09853
},{
"label": "El Injerto", "lat": 26.15151, "lng": -111.785703
},{
"label": "Kilómetro 56", "lat": 24.801179, "lng": -112.107475
},{
"label": "Las Delicias (Rancho Guzmán)", "lat": 24.952856, "lng": -111.640642
},{
"label": "El Paisano", "lat": 25.032739, "lng": -111.199634
},{
"label": "La Laguna del Mezquital", "lat": 25.681071, "lng": -111.9442
},{
"label": "Llano Catarina", "lat": 26.176942, "lng": -111.883397
},{
"label": "La Chiripa", "lat": 26.508253, "lng": -112.145819
},{
"label": "El Agua Escondida", "lat": 26.16455, "lng": -112.230546
},{
"label": "La Manglosa", "lat": 25.073319, "lng": -111.999167
},{
"label": "La Matancita", "lat": 25.316453, "lng": -111.441568
},{
"label": "Los Palos Verdes", "lat": 25.012112, "lng": -111.455118
},{
"label": "Los Tulares Lote 3", "lat": 25.07293, "lng": -111.815154
},{
"label": "Los Tulares Lote 2", "lat": 25.059756, "lng": -111.820659
},{
"label": "Fernando de la Toba Lote 126", "lat": 25.273941, "lng": -111.787915
},{
"label": "El Frijol", "lat": 24.955595, "lng": -111.317625
},{
"label": "El Abrevadero del Tres", "lat": 25.234383, "lng": -111.514753
},{
"label": "Jesús María", "lat": 25.331112, "lng": -111.428454
},{
"label": "Familia Carrillo", "lat": 26.272577, "lng": -112.200308
},{
"label": "Las Avispas", "lat": 25.263957, "lng": -111.145955
},{
"label": "El Dorado", "lat": 24.897709, "lng": -111.327108
},{
"label": "San José de la Noria", "lat": 25.405681, "lng": -111.114401
},{
"label": "Santa Adelaida", "lat": 24.947626, "lng": -111.903739
},{
"label": "San Juanico", "lat": 26.256998, "lng": -112.478891
},{
"label": "Ley Federal de Aguas Número Cinco Pozo 3 Yaki", "lat": 25.114051, "lng": -111.543328
},{
"label": "El Batequi", "lat": 24.989769, "lng": -111.420292
},{
"label": "Las Jarillas", "lat": 26.082514, "lng": -112.152866
},{
"label": "Santa Fe Uno Lote 11", "lat": 25.306785, "lng": -111.659251
},{
"label": "Los Enjambres", "lat": 25.326159, "lng": -111.102918
},{
"label": "La Virgencita", "lat": 24.574126, "lng": -112.073254
},{
"label": "El Agua Libre", "lat": 25.083882, "lng": -111.820258
},{
"label": "La Jícama", "lat": 26.40285, "lng": -112.024684
},{
"label": "San Lorenzo", "lat": 25.100283, "lng": -111.329816
},{
"label": "Fernando de la Toba [MACSA]", "lat": 25.236106, "lng": -111.768488
},{
"label": "San Hilario", "lat": 26.19377, "lng": -111.790478
},{
"label": "Los Tules", "lat": 25.388252, "lng": -111.377818
},{
"label": "Médano Amarillo", "lat": 24.753421, "lng": -111.933726
},{
"label": "El Agua Puerca", "lat": 26.403189, "lng": -112.144871
},{
"label": "El Veladero", "lat": 25.804255, "lng": -111.889527
},{
"label": "Fierro Encinas Dos Lote 1", "lat": 25.320143, "lng": -111.777794
},{
"label": "El Aviadero", "lat": 26.060076, "lng": -111.804734
},{
"label": "Fernando de la Toba (Los Algarrobos)", "lat": 25.198308, "lng": -111.731709
},{
"label": "Los Mezquitones", "lat": 25.357783, "lng": -111.271561
},{
"label": "El Malvar", "lat": 26.247282, "lng": -112.315222
},{
"label": "Yerbabuena", "lat": 26.350568, "lng": -111.833149
},{
"label": "Loma Linda", "lat": 25.612535, "lng": -111.808959
},{
"label": "Las Moritas", "lat": 25.342525, "lng": -111.383599
},{
"label": "Nayarit Lote 3", "lat": 25.218886, "lng": -111.836945
},{
"label": "Los Jacalitos", "lat": 24.350798, "lng": -111.69768
},{
"label": "Nayarit Lote 4", "lat": 25.209283, "lng": -111.835617
},{
"label": "San Eulogio", "lat": 25.213448, "lng": -111.242734
},{
"label": "Nayarit Lote 6", "lat": 25.217984, "lng": -111.821228
},{
"label": "El Ranchito", "lat": 25.991598, "lng": -111.884683
},{
"label": "San Fidencio", "lat": 25.29054, "lng": -111.940109
},{
"label": "Villa Ignacio Zaragoza", "lat": 25.397222, "lng": -111.843056
},{
"label": "El Nuevo Capricho", "lat": 24.94038, "lng": -111.229136
},{
"label": "San Juan de Matancitas Lote 1", "lat": 25.128374, "lng": -111.931303
},{
"label": "Capí", "lat": 26.027443, "lng": -111.799983
},{
"label": "El Buterfiel", "lat": 25.013873, "lng": -111.622055
},{
"label": "Boca del Arroyo", "lat": 25.438012, "lng": -111.467421
},{
"label": "El Manglito", "lat": 26.266104, "lng": -111.863603
},{
"label": "San José del Parral", "lat": 24.873961, "lng": -111.250408
},{
"label": "San Rafael", "lat": 25.382014, "lng": -111.986723
},{
"label": "Huerta Vieja", "lat": 26.275609, "lng": -112.006569
},{
"label": "El Refugio", "lat": 24.787083, "lng": -111.761177
},{
"label": "El Aeropuerto", "lat": 25.052222, "lng": -111.593056
},{
"label": "Palo Alto", "lat": 25.385911, "lng": -111.92692
},{
"label": "La Vinatería Dos", "lat": 25.394424, "lng": -111.377366
},{
"label": "La Laguna", "lat": 26.305591, "lng": -111.891724
},{
"label": "El 49", "lat": 24.84924, "lng": -112.085423
},{
"label": "El Juncalito", "lat": 24.956348, "lng": -111.323946
},{
"label": "El Alto", "lat": 25.387924, "lng": -111.140142
},{
"label": "La Mochilla", "lat": 26.324021, "lng": -111.994286
},{
"label": "La Calabaza", "lat": 25.428428, "lng": -111.488948
},{
"label": "El Llanito de los Becerros", "lat": 26.263019, "lng": -111.964626
},{
"label": "Las Delicias Lote 42", "lat": 24.956993, "lng": -111.642793
},{
"label": "Las Delicias Lote 45", "lat": 24.942295, "lng": -111.652414
},{
"label": "La Lomboyosa", "lat": 26.314647, "lng": -111.857471
},{
"label": "Las Delicias Lote 47", "lat": 24.942152, "lng": -111.633444
},{
"label": "El Gramal", "lat": 25.050754, "lng": -111.113461
},{
"label": "Las Delicias Lote 46", "lat": 24.941628, "lng": -111.642456
},{
"label": "Mexicali Lote 1", "lat": 25.170528, "lng": -111.653133
},{
"label": "Mexicali Lote 2", "lat": 25.155933, "lng": -111.651658
},{
"label": "Guadalajara Lote 24-A", "lat": 25.011877, "lng": -111.794277
},{
"label": "Mexicali Lote 4", "lat": 25.157094, "lng": -111.641506
},{
"label": "Villa Hidalgo Lote 28", "lat": 25.159883, "lng": -111.92782
},{
"label": "Villa Hidalgo Lote 29", "lat": 25.150547, "lng": -111.923334
},{
"label": "Emiliano Zapata", "lat": 25.030002, "lng": -111.689978
},{
"label": "Mexicali Lote 6", "lat": 25.162578, "lng": -111.623444
},{
"label": "Calderón", "lat": 26.242259, "lng": -111.948928
},{
"label": "El Corralito", "lat": 25.333284, "lng": -111.390405
},{
"label": "San Judas de Batequitos", "lat": 25.145462, "lng": -111.357188
},{
"label": "La Purísima", "lat": 26.188224, "lng": -112.074131
},{
"label": "El Nayo", "lat": 26.326533, "lng": -111.893517
},{
"label": "El Paso", "lat": 25.398158, "lng": -111.12693
},{
"label": "María Auxiliadora Lote 6", "lat": 25.430876, "lng": -111.884388
},{
"label": "Las Delicias Lote 52", "lat": 24.938524, "lng": -111.759479
},{
"label": "La Ramadita", "lat": 25.104, "lng": -111.073321
},{
"label": "Los Burros", "lat": 26.165556, "lng": -112.245556
},{
"label": "María Auxiliadora Lote 4", "lat": 25.40956, "lng": -111.890232
},{
"label": "Ninguno [SAGARPA]", "lat": 24.9886, "lng": -111.653898
},{
"label": "Las Delicias Lote 56", "lat": 24.960924, "lng": -111.769791
},{
"label": "Agroproductos las Cumbres", "lat": 25.080854, "lng": -111.690969
},{
"label": "María Auxiliadora Lote 1", "lat": 25.431887, "lng": -111.890775
},{
"label": "Salvatierra Longoria", "lat": 25.078109, "lng": -111.682171
},{
"label": "El Segundo Paso", "lat": 26.294125, "lng": -112.007781
},{
"label": "Bebelamas", "lat": 25.223969, "lng": -111.182105
},{
"label": "Villa Hidalgo Lote 15", "lat": 25.195768, "lng": -111.897077
},{
"label": "La Vinata", "lat": 25.794144, "lng": -111.796595
},{
"label": "La Zavalsa", "lat": 26.064867, "lng": -111.750892
},{
"label": "Dieciocho de Marzo Lote 11", "lat": 25.196934, "lng": -111.881941
},{
"label": "Núñez", "lat": 24.874524, "lng": -111.600803
},{
"label": "La Pila [Club Campestre]", "lat": 25.018305, "lng": -111.677013
},{
"label": "La Purísima Lote MZ1", "lat": 25.451267, "lng": -111.866371
},{
"label": "Los Llanitos", "lat": 26.217192, "lng": -111.917373
},{
"label": "El Agua Zarca", "lat": 26.517739, "lng": -112.382988
},{
"label": "Chihuahua Lote 4-A", "lat": 25.305001, "lng": -111.862611
},{
"label": "Santa Margarita", "lat": 24.965264, "lng": -111.335212
},{
"label": "San Fabián", "lat": 24.938202, "lng": -111.230291
},{
"label": "El Trece", "lat": 24.768289, "lng": -112.036592
},{
"label": "María Auxiliadora (Rancho Carballo)", "lat": 25.432278, "lng": -111.905254
},{
"label": "Los Tepetates", "lat": 25.32395, "lng": -111.431302
},{
"label": "Galmar", "lat": 26.33421, "lng": -112.162252
},{
"label": "El Saladito", "lat": 26.318325, "lng": -112.300467
},{
"label": "Tinaja de la Laguna", "lat": 26.301869, "lng": -111.882193
},{
"label": "Álvarez Lote 4", "lat": 25.369939, "lng": -111.831968
},{
"label": "Emiliano Zapata Lote 2-B", "lat": 25.038725, "lng": -111.689334
},{
"label": "Álvarez Lote 2", "lat": 25.380139, "lng": -111.787531
},{
"label": "El Milagro", "lat": 25.138236, "lng": -111.340444
},{
"label": "Álvarez Lote 8", "lat": 25.370431, "lng": -111.787135
},{
"label": "Bellavista", "lat": 25.764765, "lng": -111.966927
},{
"label": "Álvarez Lote 5", "lat": 25.377478, "lng": -111.819609
},{
"label": "La Cerquita", "lat": 26.175004, "lng": -111.924782
},{
"label": "Álvarez Lote 9", "lat": 25.374273, "lng": -111.77217
},{
"label": "El Chencho", "lat": 26.503809, "lng": -112.059983
},{
"label": "San Juan de la Cruz", "lat": 24.891338, "lng": -111.232254
},{
"label": "Ninguno [Procesadora Agropecuaria]", "lat": 25.105161, "lng": -111.705494
},{
"label": "El Mezquite", "lat": 26.563394, "lng": -112.399604
},{
"label": "Francisco Villa", "lat": 25.803034, "lng": -112.028616
},{
"label": "Villa Hidalgo (La Providencia)", "lat": 25.188387, "lng": -111.902271
},{
"label": "Rancho Covarrubias", "lat": 25.06362, "lng": -111.802678
},{
"label": "Jalisco Lote C3-MVW", "lat": 25.430461, "lng": -111.840079
}]