[{
"label": "El Tanque", "lat": 26.353262, "lng": -106.197663
},{
"label": "Piedra Bola", "lat": 25.927812, "lng": -106.423818
},{
"label": "Mesas Coloradas", "lat": 26.311061, "lng": -106.071518
},{
"label": "Cerro Prieto (El Cáñamo)", "lat": 26.338529, "lng": -106.195864
},{
"label": "Agua de Cresencio", "lat": 26.376349, "lng": -105.950962
},{
"label": "Jesús Ramos Aguirre", "lat": 25.775272, "lng": -105.799091
},{
"label": "El Cedro", "lat": 26.058679, "lng": -106.276476
},{
"label": "El Macho", "lat": 26.29092, "lng": -106.070438
},{
"label": "Bajío del Tapanco", "lat": 25.754142, "lng": -106.0599
},{
"label": "Biogame", "lat": 25.771541, "lng": -105.845007
},{
"label": "Piedra Agujerada", "lat": 26.130843, "lng": -106.018686
},{
"label": "San Antonio de Arriba", "lat": 25.854029, "lng": -106.078122
},{
"label": "Rincón del Bajío (Rincón de Cebollas)", "lat": 25.832084, "lng": -106.135453
},{
"label": "El Carrizo", "lat": 26.024309, "lng": -105.846479
},{
"label": "Palomas", "lat": 25.700541, "lng": -105.636098
},{
"label": "Los Tanques", "lat": 25.889745, "lng": -106.329696
},{
"label": "Ignacio Lazos V.", "lat": 26.265569, "lng": -106.362703
},{
"label": "Pueblo Nuevo", "lat": 25.931625, "lng": -106.519292
},{
"label": "El Salitre", "lat": 25.847554, "lng": -106.061811
},{
"label": "El Soldado", "lat": 26.265461, "lng": -106.051757
},{
"label": "Los Bajíos", "lat": 25.881493, "lng": -105.999859
},{
"label": "Los Cochinos", "lat": 25.989346, "lng": -106.408199
},{
"label": "La Joya (El Ranchito de Porfirio)", "lat": 26.019976, "lng": -106.341611
},{
"label": "El Potrero Viejo", "lat": 25.938858, "lng": -105.830109
},{
"label": "California", "lat": 25.958298, "lng": -106.274283
},{
"label": "Rancho de Agustina", "lat": 26.243947, "lng": -106.082274
},{
"label": "El Táscate", "lat": 26.082928, "lng": -106.270314
},{
"label": "Predilecta", "lat": 25.954396, "lng": -105.988686
},{
"label": "Bajío el Canelo", "lat": 26.312934, "lng": -106.333495
},{
"label": "Tapustete", "lat": 25.969438, "lng": -106.007938
},{
"label": "Arroyo del Palomo (La Cruz)", "lat": 25.819379, "lng": -106.273618
},{
"label": "Rafael Rodríguez", "lat": 25.776471, "lng": -105.795408
},{
"label": "Agua del Pino", "lat": 25.915743, "lng": -106.172558
},{
"label": "El Águila", "lat": 25.846355, "lng": -106.311778
},{
"label": "Las Adjuntas", "lat": 25.780045, "lng": -106.013501
},{
"label": "Lajas", "lat": 25.927602, "lng": -106.294577
},{
"label": "Ciénega de los Remedios", "lat": 25.94828, "lng": -105.89877
},{
"label": "El Olvido", "lat": 25.876536, "lng": -106.293437
},{
"label": "El Chihuistoso", "lat": 26.156249, "lng": -106.352261
},{
"label": "Los Capones", "lat": 25.93106, "lng": -106.343655
},{
"label": "Agua Zarca", "lat": 25.99734, "lng": -105.913566
},{
"label": "La Punta de la Mesa", "lat": 26.367581, "lng": -106.154384
},{
"label": "El Alto de la Rosilla", "lat": 26.138039, "lng": -106.351202
},{
"label": "La Manga", "lat": 25.724923, "lng": -105.922589
},{
"label": "El Astillero", "lat": 26.357882, "lng": -105.98242
},{
"label": "La Manada", "lat": 25.746067, "lng": -106.098659
},{
"label": "Aurelio Martínez", "lat": 25.879199, "lng": -106.021744
},{
"label": "San Juan de Abajo", "lat": 25.817892, "lng": -106.296395
},{
"label": "La Pitarrilla", "lat": 25.756191, "lng": -105.979591
},{
"label": "La Joya de Casas", "lat": 26.129852, "lng": -105.934684
},{
"label": "El Vaquero", "lat": 26.234251, "lng": -106.205965
},{
"label": "El Maguey", "lat": 25.804261, "lng": -106.305228
},{
"label": "El Pájaro", "lat": 25.934389, "lng": -105.940403
},{
"label": "El Relámpago", "lat": 25.854041, "lng": -106.060001
},{
"label": "Mesa del Remudadero", "lat": 25.846114, "lng": -106.193986
},{
"label": "Abraham Ramírez Corral", "lat": 25.76895, "lng": -105.798099
},{
"label": "La Veta de Dios", "lat": 25.931355, "lng": -105.936886
},{
"label": "Rancho Alberto", "lat": 25.839799, "lng": -106.042174
},{
"label": "Cendradillas", "lat": 26.283112, "lng": -106.009476
},{
"label": "Romerillos", "lat": 25.832693, "lng": -106.324204
},{
"label": "Atanacio Villanueva T.", "lat": 26.086609, "lng": -106.316266
},{
"label": "Aguaje Colorado", "lat": 26.330271, "lng": -106.3206
},{
"label": "Rancho de Peña", "lat": 25.849949, "lng": -106.032646
},{
"label": "El Rincón", "lat": 25.895591, "lng": -105.909893
},{
"label": "Ciénega Prieta", "lat": 26.251908, "lng": -106.060825
},{
"label": "El Aguaje", "lat": 25.819599, "lng": -106.336396
},{
"label": "Los Mimbres", "lat": 25.877916, "lng": -105.782506
},{
"label": "El Barranco", "lat": 26.321281, "lng": -106.078354
},{
"label": "Peñas Azules", "lat": 25.956381, "lng": -105.929006
},{
"label": "Los Charcos", "lat": 26.01728, "lng": -106.102906
},{
"label": "Las Cuevas", "lat": 25.885653, "lng": -106.093572
},{
"label": "El Coconito", "lat": 26.072337, "lng": -106.327823
},{
"label": "El Bajío", "lat": 26.278148, "lng": -106.36877
},{
"label": "La Otra Banda", "lat": 25.775816, "lng": -105.796501
},{
"label": "Arroyo del Hacho (La Cruz)", "lat": 25.950057, "lng": -105.980239
},{
"label": "Cueva Prieta", "lat": 26.010621, "lng": -106.356337
},{
"label": "El Gato", "lat": 25.758606, "lng": -106.046717
},{
"label": "El Huachuchito", "lat": 26.231804, "lng": -106.393324
},{
"label": "San Miguel", "lat": 26.003658, "lng": -105.836613
},{
"label": "La Rosilla", "lat": 26.128815, "lng": -106.333488
},{
"label": "El Cerro", "lat": 25.884733, "lng": -105.823837
},{
"label": "Ciénega Amarilla de Abajo", "lat": 25.818974, "lng": -106.119874
},{
"label": "La Calera", "lat": 25.970073, "lng": -105.979107
},{
"label": "Las Canoas", "lat": 26.033815, "lng": -105.929364
},{
"label": "La Joya de Ayala", "lat": 25.84384, "lng": -106.130472
},{
"label": "Pie de la Cuesta", "lat": 25.963298, "lng": -106.467158
},{
"label": "Arroyo del Conejo", "lat": 25.794768, "lng": -106.18818
},{
"label": "El Chorro", "lat": 26.043644, "lng": -106.031063
},{
"label": "Rosa Morada", "lat": 25.967751, "lng": -106.411154
},{
"label": "Pedernales", "lat": 26.080746, "lng": -106.401526
},{
"label": "Ciénega de la Vaca", "lat": 25.898785, "lng": -106.186626
},{
"label": "Vivero Forestal Llano Grande", "lat": 26.101905, "lng": -106.322974
},{
"label": "Coscomate", "lat": 25.898234, "lng": -105.836037
},{
"label": "El Cebollincito", "lat": 25.957499, "lng": -106.162835
},{
"label": "La Mesa de Coscomate", "lat": 26.155214, "lng": -106.177566
},{
"label": "Potrerillos", "lat": 25.917401, "lng": -105.960869
},{
"label": "Arroyo del Embudo", "lat": 25.995373, "lng": -106.112482
},{
"label": "Ciénega del Conejo", "lat": 25.858578, "lng": -106.244556
},{
"label": "El Potrillo", "lat": 25.889966, "lng": -106.224963
},{
"label": "El Remate", "lat": 26.352369, "lng": -106.091593
},{
"label": "Cuatro Milpas", "lat": 25.70768, "lng": -105.790414
},{
"label": "La Patilla", "lat": 25.876622, "lng": -106.228707
},{
"label": "Las Huertas de Morelos", "lat": 25.713548, "lng": -105.861619
},{
"label": "La Osa", "lat": 25.843877, "lng": -106.057633
},{
"label": "Las Ánimas", "lat": 25.784777, "lng": -106.258569
},{
"label": "Los Ídolos", "lat": 25.899269, "lng": -105.873043
},{
"label": "Las Maravillas (Arroyo Hondito)", "lat": 26.442636, "lng": -106.214218
},{
"label": "Rancho Viejo", "lat": 26.178565, "lng": -106.257188
},{
"label": "Nombre de Dios", "lat": 26.036381, "lng": -105.828197
},{
"label": "Familia Enríquez", "lat": 25.788151, "lng": -106.084999
},{
"label": "Cebollas", "lat": 25.843011, "lng": -106.100656
},{
"label": "El Papel", "lat": 26.052072, "lng": -106.09267
},{
"label": "El Yerbanís", "lat": 26.266303, "lng": -106.354396
},{
"label": "Los Nopales", "lat": 25.901428, "lng": -105.895776
},{
"label": "Vistahermosa", "lat": 26.134802, "lng": -106.223914
},{
"label": "El Durazno", "lat": 26.382615, "lng": -106.202289
},{
"label": "La Labor de San Javier", "lat": 25.859695, "lng": -105.826661
},{
"label": "Ciénega Amarilla de Arriba", "lat": 25.813526, "lng": -106.140086
},{
"label": "Ricardo Villanueva C.", "lat": 26.093439, "lng": -106.319856
},{
"label": "Los Árboles", "lat": 25.952459, "lng": -106.491534
},{
"label": "La Cruz", "lat": 26.127247, "lng": -105.851098
},{
"label": "Mesa de los Tanques", "lat": 25.793514, "lng": -106.168906
},{
"label": "La Rosa", "lat": 25.886399, "lng": -106.316399
},{
"label": "Las Huertas", "lat": 26.029319, "lng": -105.83725
},{
"label": "Los Ancones", "lat": 26.050245, "lng": -105.837336
},{
"label": "San Andrés de Abajo", "lat": 26.012243, "lng": -105.887546
},{
"label": "Las Trabas", "lat": 25.837728, "lng": -106.019286
},{
"label": "Arroyo de Lajas (Lajas)", "lat": 25.942545, "lng": -106.298116
},{
"label": "Aguaje Colorado (Rancho de los Viga)", "lat": 26.315299, "lng": -106.319743
},{
"label": "Los Órganos", "lat": 25.873361, "lng": -106.334692
},{
"label": "El Coyote", "lat": 26.104609, "lng": -106.325593
},{
"label": "Agua Caliente", "lat": 25.913227, "lng": -105.913714
},{
"label": "San Francisco", "lat": 26.140141, "lng": -106.266004
},{
"label": "Bajío Largo", "lat": 25.868722, "lng": -106.329331
},{
"label": "Tlaxcala", "lat": 26.347768, "lng": -106.227852
},{
"label": "El Mortero", "lat": 25.900174, "lng": -105.88446
},{
"label": "La Tatema", "lat": 26.255861, "lng": -106.076579
},{
"label": "La Soledad", "lat": 25.908061, "lng": -105.907584
},{
"label": "Las Pomas", "lat": 26.162078, "lng": -106.169328
},{
"label": "El Chihuital", "lat": 25.719602, "lng": -105.923041
},{
"label": "El Venado", "lat": 25.957771, "lng": -105.865505
},{
"label": "La Mesa del Cambray", "lat": 25.801673, "lng": -106.238218
},{
"label": "Corral de Piedra", "lat": 26.204148, "lng": -106.133393
},{
"label": "Santos Torres", "lat": 26.090313, "lng": -106.321375
},{
"label": "San Antonio de los Sabinos", "lat": 25.975763, "lng": -105.940008
},{
"label": "Los Lobos", "lat": 26.011188, "lng": -105.966328
},{
"label": "Austrebertha Bustillos", "lat": 26.233242, "lng": -106.383078
},{
"label": "La Mezcalera", "lat": 26.342266, "lng": -106.215871
},{
"label": "Arroyo del Cristal", "lat": 26.337458, "lng": -106.18533
},{
"label": "El Monzón", "lat": 25.915173, "lng": -105.924395
},{
"label": "La Tijera", "lat": 26.390733, "lng": -106.189082
},{
"label": "El Pino", "lat": 26.310477, "lng": -106.032213
},{
"label": "El Arroyo de Cuevecillas", "lat": 25.770601, "lng": -106.238524
},{
"label": "San Isidro", "lat": 25.773948, "lng": -105.89231
},{
"label": "La Joya", "lat": 26.261759, "lng": -106.094307
},{
"label": "Arroyo Seco", "lat": 25.845082, "lng": -105.826534
},{
"label": "El Palomo", "lat": 25.84508, "lng": -106.282425
},{
"label": "Piloncillos", "lat": 26.043547, "lng": -105.876373
},{
"label": "Barbacoas", "lat": 26.035372, "lng": -105.952317
},{
"label": "Emigdio Mata Ortega", "lat": 25.925828, "lng": -105.931827
},{
"label": "El Granizo", "lat": 26.350879, "lng": -106.239493
},{
"label": "El Potrerito", "lat": 25.898384, "lng": -106.225574
},{
"label": "El Alto de los Lirios", "lat": 26.241363, "lng": -106.385769
},{
"label": "Los Frailes", "lat": 25.893264, "lng": -106.071486
},{
"label": "Agua Amarilla", "lat": 25.737675, "lng": -105.923894
},{
"label": "Chupaderos", "lat": 25.645079, "lng": -105.724389
},{
"label": "Las Joyas", "lat": 26.065659, "lng": -105.790972
},{
"label": "La Escondida", "lat": 26.115904, "lng": -106.271874
},{
"label": "El Puerto Colorado", "lat": 26.323933, "lng": -106.325226
},{
"label": "Los Berros", "lat": 25.992881, "lng": -105.83931
},{
"label": "Bajío de San Rafael", "lat": 25.819366, "lng": -106.469265
},{
"label": "La Cabaña", "lat": 26.089732, "lng": -106.298648
},{
"label": "Posta de Jihuites", "lat": 25.733976, "lng": -105.602291
},{
"label": "Agua Escondida", "lat": 26.319931, "lng": -106.072286
},{
"label": "Ambrosio Reyes Rivera", "lat": 25.766571, "lng": -105.793511
},{
"label": "Guanaceví", "lat": 25.931662, "lng": -105.954432
},{
"label": "Contrayerba", "lat": 25.792384, "lng": -105.747456
},{
"label": "Las Alacenas", "lat": 25.993963, "lng": -106.199557
},{
"label": "La Joya de Lascano", "lat": 25.860776, "lng": -106.201497
},{
"label": "Río Colorado", "lat": 25.871541, "lng": -106.230153
},{
"label": "Las Tapias", "lat": 26.364255, "lng": -106.187665
},{
"label": "San Francisco de los Cano", "lat": 25.836553, "lng": -106.482905
},{
"label": "Puerto de la Herradura", "lat": 26.132791, "lng": -106.246698
},{
"label": "Boleras", "lat": 25.64014, "lng": -105.656686
},{
"label": "El Ranchito", "lat": 25.937726, "lng": -106.182728
},{
"label": "Arianeña", "lat": 25.944454, "lng": -105.975404
},{
"label": "Cristales", "lat": 25.719886, "lng": -106.054307
},{
"label": "El Tepeiste", "lat": 25.782664, "lng": -106.160908
},{
"label": "El Alamillo", "lat": 25.77666, "lng": -106.137961
},{
"label": "El Terrerito", "lat": 26.301185, "lng": -106.071881
},{
"label": "Rosales", "lat": 25.945674, "lng": -105.943161
},{
"label": "San Antonio", "lat": 26.291112, "lng": -106.175499
},{
"label": "La Cumbre", "lat": 25.969287, "lng": -106.344873
},{
"label": "La Cieneguita", "lat": 25.808816, "lng": -105.800062
},{
"label": "Bajío de Zenón (Bajío de Caborachi)", "lat": 25.863662, "lng": -106.516864
},{
"label": "Dispensas de Arriba", "lat": 26.208691, "lng": -106.188671
},{
"label": "San Rafael", "lat": 26.096228, "lng": -105.88578
},{
"label": "El Quelele", "lat": 25.924312, "lng": -106.259995
},{
"label": "El Berro", "lat": 25.892898, "lng": -106.526177
},{
"label": "Portales", "lat": 25.875138, "lng": -105.833478
},{
"label": "El Zape", "lat": 25.771268, "lng": -105.788885
},{
"label": "Bajío del Alambre", "lat": 25.745671, "lng": -106.03889
},{
"label": "El Carricito", "lat": 26.450598, "lng": -106.218323
},{
"label": "Bajío de los Arrieros", "lat": 26.337487, "lng": -106.30987
},{
"label": "El Hurón", "lat": 26.333773, "lng": -106.218694
},{
"label": "Rancho Nuevo", "lat": 25.758127, "lng": -106.110913
},{
"label": "El Escalón", "lat": 26.088663, "lng": -106.323491
},{
"label": "Talayotes", "lat": 25.823925, "lng": -106.050072
},{
"label": "Los Desmontes", "lat": 25.828759, "lng": -106.028206
},{
"label": "San José", "lat": 26.196384, "lng": -106.099403
},{
"label": "La Joya de Vallecillos", "lat": 25.960375, "lng": -106.209139
},{
"label": "El Calvario", "lat": 26.275577, "lng": -106.357267
},{
"label": "San Andrés", "lat": 26.014625, "lng": -105.908471
},{
"label": "Salsipuedes", "lat": 26.064645, "lng": -106.083046
},{
"label": "Dispensas de Abajo", "lat": 26.237959, "lng": -106.183182
},{
"label": "El Tecolote", "lat": 26.073983, "lng": -105.924979
},{
"label": "José María Morelos", "lat": 25.722075, "lng": -105.809319
},{
"label": "El Toro de Abajo", "lat": 26.319949, "lng": -106.088409
},{
"label": "San Francisco de los Remedios (Las Pintas)", "lat": 26.368316, "lng": -106.201081
},{
"label": "Rafael Lazos V.", "lat": 26.224878, "lng": -106.381659
},{
"label": "Escobar y Anexos", "lat": 25.651915, "lng": -105.692497
},{
"label": "La Lagunita", "lat": 26.063381, "lng": -106.451854
},{
"label": "Cueva de los Árabes", "lat": 26.072835, "lng": -106.401992
},{
"label": "Los Álamos", "lat": 25.906818, "lng": -105.838842
},{
"label": "Los Portales", "lat": 26.231003, "lng": -106.293323
},{
"label": "Ciénega de Quelites (Quelites)", "lat": 25.805416, "lng": -105.663493
},{
"label": "San José de la Trampa", "lat": 25.760792, "lng": -106.135018
},{
"label": "Los Ojuelos", "lat": 26.015769, "lng": -106.111431
},{
"label": "Colonia Metalúrgica (La Planta)", "lat": 25.919364, "lng": -105.954985
},{
"label": "Cañada Verde", "lat": 26.191488, "lng": -106.274029
},{
"label": "El Pañito", "lat": 26.360828, "lng": -106.044001
},{
"label": "Todos Santos", "lat": 25.960024, "lng": -105.997599
},{
"label": "La Rosita", "lat": 25.854064, "lng": -106.302751
},{
"label": "La Lobera", "lat": 25.879148, "lng": -105.899165
},{
"label": "La Tinaja (Ciento Veinte)", "lat": 25.923791, "lng": -105.926132
},{
"label": "Ciénega del Serrucho", "lat": 26.028994, "lng": -106.024762
},{
"label": "San Pedro", "lat": 25.956667, "lng": -106.019444
},{
"label": "El Cócono", "lat": 26.040556, "lng": -106.375556
},{
"label": "Bajío Redondo", "lat": 25.807667, "lng": -106.062459
},{
"label": "Llano del Pino", "lat": 25.717594, "lng": -105.863373
},{
"label": "Curva Blanca", "lat": 25.855813, "lng": -106.164841
},{
"label": "La Canoa", "lat": 26.39875, "lng": -106.238205
},{
"label": "Chiqueros", "lat": 26.185654, "lng": -106.351842
},{
"label": "Arroyo del Macho", "lat": 26.290764, "lng": -106.093781
},{
"label": "Ojo de Agua", "lat": 25.883009, "lng": -106.237259
},{
"label": "Rancho de los Linos", "lat": 26.318013, "lng": -106.33463
},{
"label": "Vallecillos", "lat": 25.950475, "lng": -106.209903
},{
"label": "El Pinal", "lat": 25.879552, "lng": -106.320623
},{
"label": "El Ojito", "lat": 26.069107, "lng": -105.913268
},{
"label": "La Quebrada", "lat": 26.011633, "lng": -106.170411
},{
"label": "El Cuervito", "lat": 25.752857, "lng": -105.792508
},{
"label": "El Río Chiquihuites", "lat": 25.89186, "lng": -106.02349
},{
"label": "Guanillava", "lat": 25.724927, "lng": -105.882825
},{
"label": "Ventanas", "lat": 25.937767, "lng": -106.233673
},{
"label": "Los Ingleses", "lat": 25.911596, "lng": -106.525383
},{
"label": "San Javier", "lat": 25.745495, "lng": -106.006168
},{
"label": "El Remudadero", "lat": 26.290756, "lng": -106.083246
},{
"label": "Caballos", "lat": 25.825794, "lng": -106.103314
},{
"label": "Nonalco", "lat": 26.331949, "lng": -106.302951
},{
"label": "Cuevitas", "lat": 26.003453, "lng": -106.06326
},{
"label": "El Cebollín", "lat": 26.097353, "lng": -106.255716
},{
"label": "El Oso", "lat": 26.404102, "lng": -106.195676
},{
"label": "La Reforma", "lat": 25.716058, "lng": -105.852156
},{
"label": "Laguna Seca (Las Mangas)", "lat": 25.891419, "lng": -106.158451
},{
"label": "Zape Chico", "lat": 25.813451, "lng": -105.792139
},{
"label": "La Peña", "lat": 25.887169, "lng": -105.916408
},{
"label": "El Río", "lat": 25.792448, "lng": -106.261819
},{
"label": "Alfredo Blanco", "lat": 25.76768, "lng": -105.786491
},{
"label": "El Zorrillo", "lat": 26.192358, "lng": -106.07806
},{
"label": "San Juan", "lat": 25.85899, "lng": -106.300726
},{
"label": "Carricitos", "lat": 25.680392, "lng": -105.705963
},{
"label": "Arroyo de las Yeguas", "lat": 25.83366, "lng": -106.503891
},{
"label": "Las Yeguas", "lat": 25.984543, "lng": -106.085891
},{
"label": "El Terrero", "lat": 26.348112, "lng": -106.202467
},{
"label": "El Barro", "lat": 25.992978, "lng": -106.341683
},{
"label": "Arroyo Hondo", "lat": 26.38285, "lng": -105.910114
},{
"label": "Llano Grande", "lat": 26.078339, "lng": -106.29446
},{
"label": "Arroyo Colorado", "lat": 26.018337, "lng": -106.240653
},{
"label": "Emanuel Ibarra", "lat": 25.781512, "lng": -105.799212
},{
"label": "San Esteban", "lat": 26.089624, "lng": -105.913129
},{
"label": "Arroyo del Corral", "lat": 25.889956, "lng": -105.876374
},{
"label": "Fanny", "lat": 25.961083, "lng": -105.981823
},{
"label": "Biogamito", "lat": 25.790281, "lng": -105.820668
},{
"label": "El Arroyo del Alamillo (Los Lobos)", "lat": 25.756656, "lng": -106.116598
},{
"label": "El Toro de Arriba", "lat": 26.330525, "lng": -106.096839
},{
"label": "San Mateo", "lat": 25.766535, "lng": -105.869022
}]