[{
"label": "Benjamín y Urías (San Andrés)", "lat": 26.207201, "lng": -105.075869
},{
"label": "La Sabina", "lat": 25.921094, "lng": -104.845151
},{
"label": "Villa Unión de Muñoz (Villa Unión)", "lat": 25.697287, "lng": -104.703395
},{
"label": "Los Lobos", "lat": 26.045291, "lng": -104.871547
},{
"label": "Los Auras (Santa Rita)", "lat": 26.112262, "lng": -104.893932
},{
"label": "Revolución (Las Víboras)", "lat": 26.204513, "lng": -105.083298
},{
"label": "El Pedregal", "lat": 25.84049, "lng": -104.591033
},{
"label": "Boquilla de Patos", "lat": 26.157932, "lng": -104.754802
},{
"label": "Cruces", "lat": 25.913689, "lng": -104.660453
},{
"label": "San Isidro", "lat": 25.742053, "lng": -104.665553
},{
"label": "Ignacio Valencia (Los Alamitos)", "lat": 25.736008, "lng": -104.730486
},{
"label": "Santa Teresa", "lat": 26.276594, "lng": -105.147805
},{
"label": "El Mimbre", "lat": 26.00967, "lng": -104.904207
},{
"label": "Las Playas", "lat": 25.701916, "lng": -104.773109
},{
"label": "San Fermín", "lat": 26.321816, "lng": -104.805707
},{
"label": "Tomas Urbina", "lat": 26.228802, "lng": -104.501575
},{
"label": "Alfredo V. Bonfil (San Miguel)", "lat": 26.114703, "lng": -105.006608
},{
"label": "El Táscate", "lat": 26.00591, "lng": -104.74198
},{
"label": "El Consuelo", "lat": 25.883125, "lng": -104.956978
},{
"label": "Santa Fe", "lat": 25.853133, "lng": -104.609256
},{
"label": "Valle Verde (La Mula)", "lat": 26.068369, "lng": -105.074271
},{
"label": "La Española", "lat": 25.971249, "lng": -104.920821
},{
"label": "Cuatro Hermanos (Toquero)", "lat": 26.212286, "lng": -104.703939
},{
"label": "La Fortuna (Los Paseos)", "lat": 26.103034, "lng": -104.812047
},{
"label": "La Escondida", "lat": 25.965002, "lng": -104.614962
},{
"label": "La Doce", "lat": 25.929224, "lng": -104.870024
},{
"label": "El Huizache", "lat": 26.081281, "lng": -104.896325
},{
"label": "El Clavel de Santa Rita", "lat": 25.844819, "lng": -104.946107
},{
"label": "Santa Rosa", "lat": 26.098688, "lng": -104.715216
},{
"label": "Las Felisas (San José de la Mimbrera)", "lat": 26.032985, "lng": -104.955974
},{
"label": "Guadalupe", "lat": 26.385724, "lng": -104.946053
},{
"label": "La Palma", "lat": 26.046364, "lng": -104.732829
},{
"label": "El Arenal", "lat": 25.788715, "lng": -104.709937
},{
"label": "Palo Chino", "lat": 25.765316, "lng": -104.674224
},{
"label": "La Resolana", "lat": 26.102876, "lng": -105.001411
},{
"label": "Agua Nueva", "lat": 25.804019, "lng": -104.626659
},{
"label": "Villa Hidalgo", "lat": 26.251445, "lng": -104.913479
},{
"label": "El Ancón", "lat": 26.326291, "lng": -104.626059
},{
"label": "Nueva Vista del Llano", "lat": 25.851664, "lng": -104.959946
},{
"label": "El Retiro", "lat": 25.982262, "lng": -104.693079
},{
"label": "El Ojo de Agua", "lat": 26.0149, "lng": -105.006207
},{
"label": "San Carlos", "lat": 25.960645, "lng": -104.864307
},{
"label": "Nueva Estación", "lat": 25.846074, "lng": -104.941499
},{
"label": "Las Pintas de Abajo (Las Pintas)", "lat": 25.659963, "lng": -104.68278
},{
"label": "Santa Eugenia", "lat": 26.165082, "lng": -104.944643
},{
"label": "El Orégano", "lat": 25.910219, "lng": -104.567588
},{
"label": "Terrenates", "lat": 25.706708, "lng": -104.649487
},{
"label": "Radar el Palmito", "lat": 25.75573, "lng": -104.904629
},{
"label": "San Antonio", "lat": 26.020664, "lng": -104.901258
},{
"label": "Polonia", "lat": 26.167249, "lng": -104.633863
},{
"label": "Colonia Ganadera la Mimbrera Lote Número 11", "lat": 25.990748, "lng": -104.886195
},{
"label": "El Portento (El Pinole)", "lat": 26.336169, "lng": -104.617448
},{
"label": "Román Arreola (La Mimbrera)", "lat": 26.085486, "lng": -105.032854
},{
"label": "La Cieneguilla", "lat": 25.643131, "lng": -104.658196
},{
"label": "El Tesoro", "lat": 26.224541, "lng": -104.96817
},{
"label": "El Porvenir", "lat": 25.930189, "lng": -104.93739
},{
"label": "Bernabé Silvestre F.", "lat": 26.114845, "lng": -104.940876
},{
"label": "San Bernardo (Nuevo San Bernardo)", "lat": 25.666073, "lng": -104.736147
},{
"label": "El Herradero", "lat": 26.239294, "lng": -105.050838
},{
"label": "Tres Hermanos", "lat": 25.923865, "lng": -104.962854
},{
"label": "El Cortijo", "lat": 26.157383, "lng": -105.180921
},{
"label": "Santa Cecilia", "lat": 26.43915, "lng": -104.70088
},{
"label": "Las Pintas de Arriba", "lat": 25.64262, "lng": -104.730352
},{
"label": "La Lajilla", "lat": 26.254451, "lng": -105.027413
},{
"label": "San Ricardo (Las Petras)", "lat": 26.007943, "lng": -104.66723
},{
"label": "La Zarca", "lat": 25.834785, "lng": -104.741739
},{
"label": "La Soledad (La Laguna)", "lat": 25.990853, "lng": -104.761533
},{
"label": "El Mirador", "lat": 26.126585, "lng": -105.018391
},{
"label": "La Guadalupe (El Cien)", "lat": 25.788545, "lng": -104.579013
},{
"label": "El Salvador", "lat": 25.965352, "lng": -104.904488
},{
"label": "Nuevo San Juan", "lat": 26.113505, "lng": -104.925704
},{
"label": "San Juan Bautista (Los Metates)", "lat": 26.196926, "lng": -104.979691
},{
"label": "Charco Azul", "lat": 26.281474, "lng": -105.178895
},{
"label": "El Berrendo", "lat": 26.345698, "lng": -105.027481
},{
"label": "San Pedro", "lat": 26.243873, "lng": -104.657853
},{
"label": "El Aguajito", "lat": 26.238141, "lng": -104.840568
},{
"label": "La Morita", "lat": 26.212373, "lng": -104.823039
},{
"label": "Urueta", "lat": 25.938534, "lng": -104.894231
},{
"label": "El Milagro (Las Iglesias)", "lat": 26.3464, "lng": -104.698408
},{
"label": "San José (Las Carbonosas)", "lat": 25.882816, "lng": -104.598979
},{
"label": "Las Lomas", "lat": 25.719043, "lng": -104.623343
},{
"label": "El Diamante", "lat": 25.911521, "lng": -104.954867
},{
"label": "San Jorge", "lat": 25.84516, "lng": -104.819068
},{
"label": "Santa Elena", "lat": 26.159532, "lng": -104.572115
},{
"label": "La Botella", "lat": 25.992388, "lng": -104.941458
},{
"label": "San Rafael (Las Cocinas)", "lat": 26.192861, "lng": -105.18561
},{
"label": "Morterillos", "lat": 26.005131, "lng": -104.584407
},{
"label": "El Carrizal", "lat": 25.807079, "lng": -104.659467
},{
"label": "Chombos", "lat": 26.350573, "lng": -105.080918
},{
"label": "Las Carmelitas", "lat": 25.953714, "lng": -104.85477
},{
"label": "La Guitarrilla", "lat": 25.996822, "lng": -104.806697
},{
"label": "Las Pintas", "lat": 25.895065, "lng": -104.904223
},{
"label": "Santa Genoveva", "lat": 26.123625, "lng": -104.743887
},{
"label": "El Saucito (La Trinchera)", "lat": 26.225956, "lng": -104.80963
},{
"label": "Atotonilco", "lat": 26.056517, "lng": -104.596963
},{
"label": "San Juan", "lat": 25.886385, "lng": -104.628543
},{
"label": "El Entronque del Carrizo", "lat": 26.140513, "lng": -105.029854
},{
"label": "El Chaparral", "lat": 26.385538, "lng": -104.670593
},{
"label": "Bellavista", "lat": 26.124363, "lng": -104.586404
},{
"label": "La Esperanza", "lat": 25.860793, "lng": -104.824488
},{
"label": "Las Alazanas", "lat": 26.193301, "lng": -104.829364
},{
"label": "Las Bateas", "lat": 25.881938, "lng": -104.927997
},{
"label": "Ejido San Ignacio (San Pancho)", "lat": 26.364814, "lng": -104.994572
},{
"label": "El Ciento Veinte (La Zarca)", "lat": 25.782108, "lng": -104.763481
},{
"label": "Hacienda la Zarca (Hacienda)", "lat": 25.845184, "lng": -104.741649
},{
"label": "El Palmillento (La Victoria)", "lat": 26.324251, "lng": -105.051003
}]