[{
"label": "Rancho de Peña", "lat": 25.986681, "lng": -105.207222
},{
"label": "La Puerta de Cabrera (Colonia Agrícola J. Aguirre)", "lat": 26.053621, "lng": -105.255486
},{
"label": "La Angostura", "lat": 25.772478, "lng": -105.0123
},{
"label": "El Calvario", "lat": 25.973146, "lng": -105.030683
},{
"label": "La Granjita", "lat": 25.902285, "lng": -105.215731
},{
"label": "La Victoria", "lat": 25.524299, "lng": -105.007253
},{
"label": "Las Delicias", "lat": 25.690155, "lng": -105.033892
},{
"label": "La Tijera", "lat": 25.724469, "lng": -105.069854
},{
"label": "Santa Lucía de los Picachos (Picachos)", "lat": 25.730201, "lng": -104.918886
},{
"label": "El Pedregal", "lat": 25.608892, "lng": -105.014394
},{
"label": "El Pájaro Azul", "lat": 25.785799, "lng": -104.978147
},{
"label": "Palos Verdes", "lat": 25.45219, "lng": -104.745102
},{
"label": "Campamento Cocoyomes", "lat": 25.600844, "lng": -105.020863
},{
"label": "San Gregorio (Los Cincuenta)", "lat": 25.692923, "lng": -104.970043
},{
"label": "Puerto del Aire", "lat": 25.471657, "lng": -104.752289
},{
"label": "El Chivato", "lat": 25.444674, "lng": -104.744299
},{
"label": "El Calichal", "lat": 25.811473, "lng": -105.132756
},{
"label": "San Cristóbal", "lat": 25.874802, "lng": -105.145364
},{
"label": "San José del Barranco", "lat": 25.783548, "lng": -105.131884
},{
"label": "La Pastoría", "lat": 26.019387, "lng": -105.28707
},{
"label": "Las Amapolas", "lat": 25.56123, "lng": -104.695644
},{
"label": "San José del Tizonazo (El Pueblo)", "lat": 25.964333, "lng": -105.190161
},{
"label": "La Horca", "lat": 25.970729, "lng": -105.199796
},{
"label": "La Cruz de Guadalupe", "lat": 25.599122, "lng": -104.788876
},{
"label": "Indé", "lat": 25.912021, "lng": -105.223791
},{
"label": "La Providencia", "lat": 25.904329, "lng": -105.081067
},{
"label": "Puerto de Corralejo", "lat": 25.921433, "lng": -105.250961
},{
"label": "San Antonio del Cuervo (El Cuervo)", "lat": 25.981211, "lng": -105.20463
},{
"label": "Corralejo", "lat": 25.918952, "lng": -105.282223
},{
"label": "Las Tahonas", "lat": 25.966606, "lng": -105.07486
},{
"label": "Santa María", "lat": 25.908589, "lng": -105.174821
},{
"label": "Santa Ana de Abajo", "lat": 25.933139, "lng": -105.169721
},{
"label": "El Gobernador", "lat": 26.116113, "lng": -105.24264
},{
"label": "Paso del Águila (La Cuchilla)", "lat": 25.975205, "lng": -105.10601
},{
"label": "El Setenta y Siete", "lat": 25.591531, "lng": -104.659224
},{
"label": "Campamento de Seguridad Hidráulica (Presa Lázaro Cárdenas)", "lat": 25.597067, "lng": -105.016722
},{
"label": "El Torreón de San Isidro", "lat": 25.549572, "lng": -104.920606
},{
"label": "Los Zarqueños", "lat": 25.60942, "lng": -104.961291
},{
"label": "Club de Caza y Tiro (Campo los Sabinos)", "lat": 25.587683, "lng": -104.997444
},{
"label": "Mineral de Cieneguillas", "lat": 25.87132, "lng": -105.260889
},{
"label": "El Salto de Arriba", "lat": 25.807924, "lng": -105.132233
},{
"label": "El Salto de Abajo", "lat": 25.801551, "lng": -105.134654
},{
"label": "San Antonio de las Cruces (San Antonio)", "lat": 25.758858, "lng": -105.11661
},{
"label": "San José del Prado", "lat": 25.904052, "lng": -105.135124
},{
"label": "Noria Corrales (El Jagüey)", "lat": 25.797733, "lng": -104.961987
},{
"label": "Heriberto Ramírez", "lat": 25.560579, "lng": -104.701899
},{
"label": "El Palmito", "lat": 25.615194, "lng": -105.004965
},{
"label": "Santa Rita", "lat": 25.46608, "lng": -104.813802
},{
"label": "Sauces de Tres Vados (Los Sauces)", "lat": 25.742034, "lng": -105.196043
},{
"label": "La Gallega", "lat": 25.848508, "lng": -105.138944
},{
"label": "Potrero del Llano (Boquilla del Muerto)", "lat": 26.101891, "lng": -105.202011
},{
"label": "Buenos Aires (Chaparrientas)", "lat": 25.746676, "lng": -105.046764
},{
"label": "Ignacio Allende (Los Allendes)", "lat": 25.740846, "lng": -105.101764
},{
"label": "El Congo", "lat": 25.97602, "lng": -105.207924
},{
"label": "San José de los Picachos", "lat": 25.613917, "lng": -104.942919
},{
"label": "Las Huertas", "lat": 25.902857, "lng": -105.168858
},{
"label": "La Gloria (La Jarita)", "lat": 25.815626, "lng": -104.974182
},{
"label": "Tablones", "lat": 25.558035, "lng": -104.701109
},{
"label": "La Loma", "lat": 25.964297, "lng": -105.195191
},{
"label": "La Casita", "lat": 26.104408, "lng": -105.270829
},{
"label": "Mina de Navidad", "lat": 25.430809, "lng": -104.791323
},{
"label": "La Cieneguita", "lat": 25.359914, "lng": -104.701087
},{
"label": "Lorenzo Ávalos (El Pedernal)", "lat": 25.560424, "lng": -104.672894
},{
"label": "Salpica el Agua (El Sitio)", "lat": 25.88544, "lng": -105.086795
},{
"label": "San Francisco de Asís", "lat": 25.484658, "lng": -104.884919
},{
"label": "El Pájaro", "lat": 25.926289, "lng": -105.118186
},{
"label": "Pozo Hondo", "lat": 25.946808, "lng": -105.171468
},{
"label": "San Rafael de Jicorica", "lat": 25.38266, "lng": -104.765797
},{
"label": "La Trinidad", "lat": 25.793437, "lng": -105.134395
},{
"label": "La Peña Leandra (La Peña)", "lat": 25.441957, "lng": -104.612611
},{
"label": "La Unión", "lat": 25.874404, "lng": -105.246021
},{
"label": "La Soledad", "lat": 25.813301, "lng": -105.130357
},{
"label": "El Vetarrón", "lat": 25.896157, "lng": -105.165266
},{
"label": "San Salvador de Peinados (San Salvador)", "lat": 25.990253, "lng": -105.198159
},{
"label": "San José del Nopal (El Nopal)", "lat": 25.831619, "lng": -105.190962
},{
"label": "El Aguaje Blanco", "lat": 25.56906, "lng": -104.888031
},{
"label": "La Capilla", "lat": 25.491073, "lng": -104.828489
},{
"label": "El Herradero", "lat": 25.688603, "lng": -104.966888
},{
"label": "Rancho Nuevo", "lat": 25.822768, "lng": -105.126562
},{
"label": "Tres Hermanos", "lat": 25.464497, "lng": -104.647222
},{
"label": "Los Machos", "lat": 25.97635, "lng": -105.053214
}]