[{
"label": "El Tronco (Isaías Sierra Ávila)", "lat": 25.517912, "lng": -103.514647
},{
"label": "El Pentágono", "lat": 25.510248, "lng": -103.556288
},{
"label": "Establo los Ángeles", "lat": 25.513897, "lng": -103.563561
},{
"label": "Miguel Martínez", "lat": 25.518366, "lng": -103.506544
},{
"label": "Noria Sector Trece", "lat": 25.391625, "lng": -103.448558
},{
"label": "Luis Requejo", "lat": 25.517764, "lng": -103.595377
},{
"label": "Santa Mónica [Granja]", "lat": 25.506221, "lng": -103.548241
},{
"label": "Grupo Solidario la Loma 25", "lat": 25.447873, "lng": -103.671019
},{
"label": "La Noria", "lat": 25.468353, "lng": -103.669514
},{
"label": "Rancho Pinabete (El Salitral)", "lat": 25.524272, "lng": -103.579945
},{
"label": "El Paraíso (Rancho el Señor Cura)", "lat": 25.507496, "lng": -103.564491
},{
"label": "Noria 25 (Jesús Bautista)", "lat": 25.463371, "lng": -103.682019
},{
"label": "Rancho San José (Los Muros)", "lat": 25.508705, "lng": -103.532383
},{
"label": "El Pedregal", "lat": 25.417514, "lng": -103.755852
},{
"label": "Revilla", "lat": 25.460574, "lng": -103.758589
},{
"label": "Lerdo", "lat": 25.536552, "lng": -103.524849
},{
"label": "Rancho la Morita", "lat": 25.509736, "lng": -103.66919
},{
"label": "Don Lencho", "lat": 25.57663, "lng": -103.536621
},{
"label": "Rancho la Rosalera", "lat": 25.507496, "lng": -103.551295
},{
"label": "Rancho del Federal", "lat": 25.509295, "lng": -103.581541
},{
"label": "El Gran Pedregal", "lat": 25.493748, "lng": -103.636421
},{
"label": "Manuel Jáquez Mesta", "lat": 25.532045, "lng": -103.623357
},{
"label": "Rafael Zúñiga", "lat": 25.564406, "lng": -103.574584
},{
"label": "Parcela Escolar Escuela Secundaria Técnica Número 5", "lat": 25.435104, "lng": -103.662523
},{
"label": "La Isla", "lat": 25.473983, "lng": -103.669142
},{
"label": "Ninguno", "lat": 25.581872, "lng": -103.537276
},{
"label": "San Agustín", "lat": 25.5227, "lng": -103.501124
},{
"label": "El Huizache", "lat": 25.486156, "lng": -103.648281
},{
"label": "Mariana Sierra", "lat": 25.521628, "lng": -103.502885
},{
"label": "Las Perlitas", "lat": 25.494123, "lng": -103.650211
},{
"label": "Quinta Julia", "lat": 25.519535, "lng": -103.502385
},{
"label": "La Venada", "lat": 25.702027, "lng": -103.74759
},{
"label": "El Arenal", "lat": 25.50783, "lng": -103.530946
},{
"label": "Noria Sector Quince (1322)", "lat": 25.399098, "lng": -103.384453
},{
"label": "El Batallón", "lat": 25.526535, "lng": -103.613241
},{
"label": "El Puerto", "lat": 25.532263, "lng": -103.570935
},{
"label": "Jesús Lerma García", "lat": 25.522578, "lng": -103.502702
},{
"label": "Sector Uno [Noria]", "lat": 25.434339, "lng": -103.682179
},{
"label": "El Diez (Carmelo Favela Castillo)", "lat": 25.399494, "lng": -103.370645
},{
"label": "Jorge Zermeño", "lat": 25.498652, "lng": -103.603902
},{
"label": "Fernando Amador", "lat": 25.499692, "lng": -103.610944
},{
"label": "La Vega", "lat": 25.472229, "lng": -103.686329
},{
"label": "Las Parras", "lat": 25.479732, "lng": -103.683979
},{
"label": "Don Cuco", "lat": 25.508941, "lng": -103.597363
},{
"label": "Praderas del Desierto (Noria el Colorado)", "lat": 25.544264, "lng": -103.742591
},{
"label": "Salvador Alvarado Cruz", "lat": 25.525491, "lng": -103.506917
},{
"label": "Salvador Ríos", "lat": 25.507384, "lng": -103.533336
},{
"label": "El Cascabel [Rancho]", "lat": 25.452991, "lng": -103.691511
},{
"label": "Vado Río Nazas", "lat": 25.534146, "lng": -103.496631
},{
"label": "La Granja (Sector Número Veinticinco) [Noria]", "lat": 25.446255, "lng": -103.684417
},{
"label": "Sapioris II [Noria]", "lat": 25.408237, "lng": -103.674024
},{
"label": "Ninguno [Frente a la Posta]", "lat": 25.456738, "lng": -103.730943
},{
"label": "Nazareno de Abajo", "lat": 25.392515, "lng": -103.338344
},{
"label": "Cañón del Borrego", "lat": 25.292434, "lng": -103.731927
},{
"label": "Establo Navarro", "lat": 25.517629, "lng": -103.562375
},{
"label": "El Solito", "lat": 25.355004, "lng": -103.488344
},{
"label": "Puerto del Cañón de Fernández", "lat": 25.347646, "lng": -103.739079
},{
"label": "Ejido Carlos Real", "lat": 25.515345, "lng": -103.49619
},{
"label": "La Esperanza (El Jericó)", "lat": 25.502285, "lng": -103.549609
},{
"label": "La Nogalera", "lat": 25.567629, "lng": -103.549606
},{
"label": "El Pedregal (Doctor Barraza)", "lat": 25.507054, "lng": -103.597062
},{
"label": "Julio Camacho", "lat": 25.514859, "lng": -103.691769
},{
"label": "Quinta Era", "lat": 25.527507, "lng": -103.499229
},{
"label": "Los Nogales (Miguel Breceda)", "lat": 25.51475, "lng": -103.554862
},{
"label": "Ninguno [Alfredo Esparza]", "lat": 25.442383, "lng": -103.736102
},{
"label": "Noria la Cinco (El Naranjal)", "lat": 25.556113, "lng": -103.725633
},{
"label": "Noria San José", "lat": 25.479316, "lng": -103.554821
},{
"label": "La Laguneta", "lat": 25.51051, "lng": -103.495364
},{
"label": "Jesús Cazares", "lat": 25.517497, "lng": -103.50577
},{
"label": "Rancho el Quelite", "lat": 25.511311, "lng": -103.569266
},{
"label": "Michel Reynahult", "lat": 25.501053, "lng": -103.622647
},{
"label": "Quinta Don Lupe", "lat": 25.530194, "lng": -103.496629
},{
"label": "Noria la Ocho", "lat": 25.389644, "lng": -103.351172
},{
"label": "Los Mezquitales", "lat": 25.524508, "lng": -103.585145
},{
"label": "La Escala", "lat": 25.275558, "lng": -103.765816
},{
"label": "El Pozo (Néstor Rodríguez)", "lat": 25.514705, "lng": -103.513619
},{
"label": "El Corral", "lat": 25.471698, "lng": -103.450079
},{
"label": "Establo la Montaña", "lat": 25.263565, "lng": -103.512171
},{
"label": "Potrerillos", "lat": 25.432961, "lng": -103.736083
},{
"label": "Los Ángeles [Granja Caprina]", "lat": 25.51876, "lng": -103.561787
},{
"label": "Noria Grupo Número 2", "lat": 25.512999, "lng": -103.603876
},{
"label": "Corrales el Seis (El Mirlo Blanco)", "lat": 25.515319, "lng": -103.603704
},{
"label": "El Invernadero", "lat": 25.507116, "lng": -103.589139
},{
"label": "Noria Sector Uno", "lat": 25.393038, "lng": -103.443836
},{
"label": "Los Sabinos [Granja]", "lat": 25.406088, "lng": -103.737664
},{
"label": "Jesús Contreras", "lat": 25.583228, "lng": -103.541058
},{
"label": "Los Nogales", "lat": 25.504167, "lng": -103.630518
},{
"label": "La Repoñoza (Sociedad de Solidaridad Social)", "lat": 25.520947, "lng": -103.574973
},{
"label": "Colonia Buenos Aires", "lat": 25.514241, "lng": -103.473673
},{
"label": "La Acequia de Enmedio", "lat": 25.507879, "lng": -103.696442
},{
"label": "Lucrecia Martínez", "lat": 25.5227, "lng": -103.503727
},{
"label": "El Ranchito (Don José Castillo)", "lat": 25.462023, "lng": -103.719498
},{
"label": "Las Tres Marías", "lat": 25.505332, "lng": -103.539623
},{
"label": "San Martín", "lat": 25.538749, "lng": -103.749957
},{
"label": "San Jacinto", "lat": 25.480244, "lng": -103.738341
},{
"label": "Ninguno [Yolanda Vargas]", "lat": 25.469864, "lng": -103.689124
},{
"label": "Rancho el Moyote (Frayre)", "lat": 25.526787, "lng": -103.50115
},{
"label": "Casas Blancas", "lat": 25.472227, "lng": -103.45149
},{
"label": "Yonke Mezta", "lat": 25.526541, "lng": -103.612629
},{
"label": "Establo la Garza", "lat": 25.517386, "lng": -103.69233
},{
"label": "SSS Cañón del Borrego (Boca del León)", "lat": 25.190735, "lng": -103.650716
},{
"label": "Los Rodarte", "lat": 25.421727, "lng": -103.427905
},{
"label": "Implementos Mineros [ Accesorios]", "lat": 25.502126, "lng": -103.478446
},{
"label": "Reyes Gutiérrez", "lat": 25.332239, "lng": -103.655741
},{
"label": "San Francisco", "lat": 25.472242, "lng": -103.685374
},{
"label": "Quinta 3 Niñas", "lat": 25.519443, "lng": -103.50281
},{
"label": "Picardías Siete Libres", "lat": 25.324988, "lng": -103.490009
},{
"label": "La Vega (Apolonio Palacios)", "lat": 25.410384, "lng": -103.742357
},{
"label": "Benjamin Arreola", "lat": 25.504115, "lng": -103.583739
},{
"label": "El Oasis (Las Barrancas) [Granja]", "lat": 25.516118, "lng": -103.616428
},{
"label": "Noria 1847", "lat": 25.38207, "lng": -103.459352
},{
"label": "Nogalera Santa Rosa", "lat": 25.507162, "lng": -103.623011
},{
"label": "Las Pirañas", "lat": 25.264242, "lng": -103.77162
},{
"label": "Juan E. García", "lat": 25.491826, "lng": -103.690813
},{
"label": "Establo San Juan", "lat": 25.511393, "lng": -103.577949
},{
"label": "El Paraíso", "lat": 25.506124, "lng": -103.600825
},{
"label": "La Gloria", "lat": 25.489075, "lng": -103.678629
},{
"label": "La Orilla del Río", "lat": 25.435432, "lng": -103.741099
},{
"label": "San Juan de Casta", "lat": 25.499131, "lng": -103.647908
},{
"label": "Las Moras", "lat": 25.490941, "lng": -103.68673
},{
"label": "Santa Lucía", "lat": 25.44918, "lng": -103.702222
},{
"label": "El Kayro", "lat": 25.482508, "lng": -103.659998
},{
"label": "El Rayo", "lat": 25.521048, "lng": -103.606626
},{
"label": "La Joya", "lat": 25.747883, "lng": -103.925027
},{
"label": "Los Laureles (Tres Potrillos)", "lat": 25.387295, "lng": -103.744298
},{
"label": "Establo el Potrero (González Acevedo)", "lat": 25.506954, "lng": -103.537883
},{
"label": "Los Castellén", "lat": 25.481059, "lng": -103.728166
},{
"label": "La Herradura [Granja]", "lat": 25.507933, "lng": -103.567304
},{
"label": "Las Lules [Granja]", "lat": 25.477235, "lng": -103.66648
},{
"label": "Rancho el Mezquital", "lat": 25.515207, "lng": -103.595324
},{
"label": "Establo San José", "lat": 25.51698, "lng": -103.562392
},{
"label": "San Carlos [Propiedad Privada]", "lat": 25.500205, "lng": -103.515653
},{
"label": "Noria Cinco A", "lat": 25.524479, "lng": -103.720107
},{
"label": "San Ignacio [Granja]", "lat": 25.50885, "lng": -103.550256
},{
"label": "Ramiro Hernández", "lat": 25.530671, "lng": -103.495911
},{
"label": "Los Dos Arbolitos", "lat": 25.576426, "lng": -103.557781
},{
"label": "Noria Sector Diez", "lat": 25.403886, "lng": -103.371394
},{
"label": "Rancho la Esperanza", "lat": 25.510027, "lng": -103.577831
},{
"label": "Rancho Parajitos", "lat": 25.591935, "lng": -103.546618
},{
"label": "La Cabaña", "lat": 25.46245, "lng": -103.722924
},{
"label": "Fortuna de Rancho Güero", "lat": 25.609648, "lng": -103.592366
},{
"label": "Doña Martha (La del Río)", "lat": 25.507033, "lng": -103.571561
},{
"label": "La Herradura (Vázquez Torres)", "lat": 25.469322, "lng": -103.700639
},{
"label": "San Luis del Alto", "lat": 25.506962, "lng": -103.503353
},{
"label": "Mi Ranchito", "lat": 25.516292, "lng": -103.55824
},{
"label": "Los Cocodrilos", "lat": 25.529225, "lng": -103.497895
},{
"label": "Don Alfredo", "lat": 25.509728, "lng": -103.571451
},{
"label": "Noria el Refugio", "lat": 25.487273, "lng": -103.572253
},{
"label": "Rancho Pevi", "lat": 25.506509, "lng": -103.539744
},{
"label": "Picardías", "lat": 25.323899, "lng": -103.485718
},{
"label": "San Nicolás", "lat": 25.748773, "lng": -103.902355
},{
"label": "Santa Rita", "lat": 25.540898, "lng": -103.699854
},{
"label": "El Edén", "lat": 25.474623, "lng": -103.684706
},{
"label": "Noria Sector Tres", "lat": 25.417832, "lng": -103.399692
},{
"label": "Mario Olivares", "lat": 25.526513, "lng": -103.576307
},{
"label": "Don Rafa", "lat": 25.531054, "lng": -103.500374
},{
"label": "Ejido 21 de Marzo", "lat": 25.455476, "lng": -103.748119
},{
"label": "Dolores (La Borrega)", "lat": 25.592355, "lng": -103.549139
},{
"label": "Puentes Cuates (El Durazno)", "lat": 25.473639, "lng": -103.691801
},{
"label": "La Hacienda", "lat": 25.468352, "lng": -103.697374
},{
"label": "Vivero del Pitayal", "lat": 25.502706, "lng": -103.607605
},{
"label": "Heriberto Flores", "lat": 25.579423, "lng": -103.546541
},{
"label": "Rancho los Antúnez", "lat": 25.515366, "lng": -103.594246
},{
"label": "La Nogalera (Carlos Herrera)", "lat": 25.504375, "lng": -103.545983
},{
"label": "Establo la Cañada", "lat": 25.514685, "lng": -103.555411
},{
"label": "Jesús Espino", "lat": 25.52411, "lng": -103.501559
},{
"label": "Matilde Segobia", "lat": 25.423719, "lng": -103.656094
},{
"label": "Noria Chica", "lat": 25.427332, "lng": -103.688043
},{
"label": "Noria Sector Veinticuatro", "lat": 25.345, "lng": -103.478594
},{
"label": "Rancho Milso", "lat": 25.513301, "lng": -103.577643
},{
"label": "Ciudad Juárez", "lat": 25.494426, "lng": -103.595815
},{
"label": "La Herradura", "lat": 25.664676, "lng": -103.728382
},{
"label": "Pozo de las Tortugas", "lat": 25.476039, "lng": -103.693196
},{
"label": "6 de Enero [Gasolinera]", "lat": 25.526973, "lng": -103.623311
},{
"label": "Quinta las Tortugas", "lat": 25.526409, "lng": -103.500181
},{
"label": "San Antonio (La Hortaliza)", "lat": 25.491683, "lng": -103.661376
},{
"label": "Establo el Palomo", "lat": 25.510921, "lng": -103.562364
},{
"label": "Los Pirules", "lat": 25.511324, "lng": -103.587379
},{
"label": "León Guzmán", "lat": 25.501308, "lng": -103.659101
},{
"label": "Villa Migaja", "lat": 25.450891, "lng": -103.735939
},{
"label": "Mario Lozano Sánchez", "lat": 25.522845, "lng": -103.50191
},{
"label": "Huerta la Mora", "lat": 25.529539, "lng": -103.502058
},{
"label": "La Loma 133 (El Establo 133) [Grupo Solidario]", "lat": 25.43945, "lng": -103.67087
},{
"label": "San Miguel [Granja]", "lat": 25.464228, "lng": -103.702753
},{
"label": "Santa Cruz", "lat": 25.527448, "lng": -103.701471
},{
"label": "Noria Número Cuatro", "lat": 25.546847, "lng": -103.71689
},{
"label": "Santa Elena", "lat": 25.459993, "lng": -103.715612
},{
"label": "Paraíso II", "lat": 25.510299, "lng": -103.676471
},{
"label": "Cafetería Flor", "lat": 25.331542, "lng": -103.658094
},{
"label": "Noria del Quince (Noria Sector Cuatro)", "lat": 25.354077, "lng": -103.470839
},{
"label": "Rancho Manantial", "lat": 25.504228, "lng": -103.571039
},{
"label": "El Cisne", "lat": 25.527494, "lng": -103.500694
},{
"label": "Miguel Carlos", "lat": 25.498179, "lng": -103.602249
},{
"label": "Jesús Herrera", "lat": 25.508595, "lng": -103.523223
},{
"label": "Pedro Dávila", "lat": 25.583616, "lng": -103.53959
},{
"label": "Félix Ruteaga", "lat": 25.577143, "lng": -103.557322
},{
"label": "Constructora Dominos", "lat": 25.516324, "lng": -103.524734
},{
"label": "Virginias [Granja]", "lat": 25.510491, "lng": -103.564154
},{
"label": "Rancho 6 Potrillos", "lat": 25.274729, "lng": -103.511218
},{
"label": "Las Dos Palmas", "lat": 25.484695, "lng": -103.64936
},{
"label": "La Peña", "lat": 25.501111, "lng": -103.610769
},{
"label": "La Posta [Rancho]", "lat": 25.455308, "lng": -103.733287
},{
"label": "Isaac Portillo", "lat": 25.522934, "lng": -103.502851
},{
"label": "Ninguno [Pedro González]", "lat": 25.472988, "lng": -103.683898
},{
"label": "La Loma", "lat": 25.464223, "lng": -103.675552
},{
"label": "El Rinconcito", "lat": 25.55346, "lng": -103.547164
},{
"label": "Álvaro Obregón", "lat": 25.514908, "lng": -103.50544
},{
"label": "Los Pecosos (Gutiérrez) [Granja]", "lat": 25.512781, "lng": -103.566281
},{
"label": "El Mango (Hugo Escobar Tilón)", "lat": 25.480444, "lng": -103.683083
},{
"label": "Sapioris", "lat": 25.452439, "lng": -103.716804
},{
"label": "La Luz", "lat": 25.634605, "lng": -103.610507
},{
"label": "Eleazar López Quintero", "lat": 25.510373, "lng": -103.581603
},{
"label": "La Unión", "lat": 25.290057, "lng": -103.513007
},{
"label": "Rancho los Pepes", "lat": 25.517983, "lng": -103.506721
},{
"label": "Las Habas", "lat": 25.756135, "lng": -103.895028
},{
"label": "El Refugio (Sacramento) [Propiedad Privada]", "lat": 25.270262, "lng": -103.741193
},{
"label": "Enrique Segovia", "lat": 25.467444, "lng": -103.681964
},{
"label": "Las Cúpulas", "lat": 25.523019, "lng": -103.504536
},{
"label": "Rancho el Pedregal", "lat": 25.507823, "lng": -103.582729
},{
"label": "Nazareno", "lat": 25.397936, "lng": -103.417486
},{
"label": "Noria Marcelo Gómez", "lat": 25.401729, "lng": -103.358714
},{
"label": "Jorge Sánchez", "lat": 25.561822, "lng": -103.550905
},{
"label": "Ninguno [Anastacio González]", "lat": 25.471775, "lng": -103.686018
},{
"label": "José Reverte", "lat": 25.471559, "lng": -103.680862
},{
"label": "La Puja", "lat": 25.467141, "lng": -103.712733
},{
"label": "Miguel Antúnez", "lat": 25.467742, "lng": -103.681867
},{
"label": "Estación la Goma", "lat": 25.449884, "lng": -103.65886
},{
"label": "La Curva", "lat": 25.277656, "lng": -103.759078
},{
"label": "El Monte", "lat": 25.47867, "lng": -103.719184
},{
"label": "El Nueve", "lat": 25.401814, "lng": -103.397074
},{
"label": "Los Ángeles", "lat": 25.520853, "lng": -103.568407
},{
"label": "Ninguno [Luis Rodríguez]", "lat": 25.463603, "lng": -103.691662
},{
"label": "El Álamo [Granja]", "lat": 25.514802, "lng": -103.556465
},{
"label": "El Polvorín de la Cuesta", "lat": 25.480624, "lng": -103.463762
},{
"label": "Rancho Sandra", "lat": 25.511233, "lng": -103.598639
},{
"label": "Estación Chocolate", "lat": 25.294455, "lng": -103.630224
},{
"label": "Rancho Tijerina (Tixes)", "lat": 25.508397, "lng": -103.582852
},{
"label": "Polvorín Kilómetro 6.5 (Polvorín la Carpa)", "lat": 25.503494, "lng": -103.485811
},{
"label": "La Cruz [Granja]", "lat": 25.481403, "lng": -103.662482
},{
"label": "Dos Hermanos (Santa Eloísa)", "lat": 25.460589, "lng": -103.726887
},{
"label": "El Jagüey", "lat": 25.350295, "lng": -103.613824
},{
"label": "El Doctor", "lat": 25.509179, "lng": -103.587913
},{
"label": "Bonanza", "lat": 25.384188, "lng": -103.468293
},{
"label": "San Gerardo [Propiedad Privada]", "lat": 25.584684, "lng": -103.575335
},{
"label": "Vicente Nava (La Gomita)", "lat": 25.489017, "lng": -103.691764
},{
"label": "Promotora Gananadera del Real", "lat": 25.502528, "lng": -103.545319
},{
"label": "Seis de Enero", "lat": 25.520749, "lng": -103.602436
},{
"label": "Noria los Vaqueros de Guillen", "lat": 25.372035, "lng": -103.680503
},{
"label": "La Casita de Madera", "lat": 25.514718, "lng": -103.591461
},{
"label": "Rancho el Chaparral (El Carrizo)", "lat": 25.688782, "lng": -103.710103
},{
"label": "San Ernesto", "lat": 25.519308, "lng": -103.508956
},{
"label": "Noria la Unión (1863)", "lat": 25.28109, "lng": -103.5142
},{
"label": "San Carlos", "lat": 25.477868, "lng": -103.669838
},{
"label": "Vacas Flacas", "lat": 25.517559, "lng": -103.560543
},{
"label": "Ganadera el Temazcal de Durango", "lat": 25.506149, "lng": -103.549607
},{
"label": "Cárcamo Patrón", "lat": 25.268657, "lng": -103.748559
},{
"label": "Noria San Francisco de Asís Dos", "lat": 25.487036, "lng": -103.558539
},{
"label": "Vicente Suárez", "lat": 25.731756, "lng": -103.873165
},{
"label": "La Represa", "lat": 25.487093, "lng": -103.645365
},{
"label": "Ninguno [David Castillo]", "lat": 25.466192, "lng": -103.697334
},{
"label": "Anselmo Sifuentes", "lat": 25.464796, "lng": -103.684293
},{
"label": "Nazareno II (Nazareno de Arriba)", "lat": 25.384645, "lng": -103.480821
},{
"label": "El Cañón (Eduardo Salinas)", "lat": 25.31839, "lng": -103.736764
},{
"label": "Marmolera Rojo Cepeda", "lat": 25.648922, "lng": -103.710629
},{
"label": "Santa Anita", "lat": 25.399073, "lng": -103.751368
},{
"label": "Francisco Villa (Pancho Villa)", "lat": 25.467687, "lng": -103.450632
},{
"label": "Hermanos Vidal", "lat": 25.501341, "lng": -103.614523
},{
"label": "El Cielo", "lat": 25.509185, "lng": -103.591655
},{
"label": "Las Cuevas", "lat": 25.49821, "lng": -103.549458
},{
"label": "Quinta Lirios", "lat": 25.531155, "lng": -103.498532
},{
"label": "Noria San Isidro Tres", "lat": 25.484001, "lng": -103.557174
},{
"label": "La Granjita", "lat": 25.507378, "lng": -103.567023
},{
"label": "Noria San Juan de la Cruz", "lat": 25.49171, "lng": -103.556453
},{
"label": "Don Sabino", "lat": 25.459804, "lng": -103.714765
},{
"label": "Los Gemelos", "lat": 25.518697, "lng": -103.506735
},{
"label": "Noria la Tres", "lat": 25.554744, "lng": -103.712445
},{
"label": "Rancho San Pedro", "lat": 25.510214, "lng": -103.564836
},{
"label": "Sector Seis [Noria]", "lat": 25.438787, "lng": -103.6783
},{
"label": "La Loma (El Cefle)", "lat": 25.454991, "lng": -103.679624
},{
"label": "Estación Río Nazas", "lat": 25.503496, "lng": -103.53677
},{
"label": "La Mina (El Sarnoso)", "lat": 25.659572, "lng": -103.648588
},{
"label": "El Seis", "lat": 25.508434, "lng": -103.597037
},{
"label": "Guadalupe Martínez Espino", "lat": 25.51862, "lng": -103.50104
},{
"label": "Rancho Cascanueces", "lat": 25.50328, "lng": -103.627663
},{
"label": "Baro Hernández", "lat": 25.457566, "lng": -103.659165
},{
"label": "El Salto (El Alamito)", "lat": 25.727471, "lng": -103.68761
},{
"label": "El Cerrito de la Cruz", "lat": 25.525126, "lng": -103.595313
},{
"label": "Rancho de Don Mati", "lat": 25.570535, "lng": -103.562079
},{
"label": "Noria de la Campana 2718", "lat": 25.368997, "lng": -103.471833
},{
"label": "Las Lilas", "lat": 25.466914, "lng": -103.74919
},{
"label": "José Martínez Espino", "lat": 25.519173, "lng": -103.502284
},{
"label": "El Polvorín", "lat": 25.531385, "lng": -103.495076
},{
"label": "Natura Nazas [Rancho]", "lat": 25.415834, "lng": -103.748198
},{
"label": "Joaquín Vázquez Gómez", "lat": 25.497518, "lng": -103.602396
},{
"label": "José Ángel García", "lat": 25.520314, "lng": -103.504116
},{
"label": "Rancho Tuchaco", "lat": 25.511301, "lng": -103.558108
},{
"label": "La Pitaya [Granja]", "lat": 25.507365, "lng": -103.621593
},{
"label": "Noria el Cuatro", "lat": 25.405947, "lng": -103.395077
},{
"label": "Las Carmelitas", "lat": 25.387505, "lng": -103.740337
},{
"label": "Víctor Ortega (El Torrejo)", "lat": 25.420571, "lng": -103.427644
},{
"label": "La Noria de Álvaro Obregón", "lat": 25.506662, "lng": -103.532323
},{
"label": "Las Palomas", "lat": 25.48856, "lng": -103.687015
},{
"label": "La Noria de los Tubos", "lat": 25.486587, "lng": -103.639645
},{
"label": "El Amor", "lat": 25.5201, "lng": -103.590117
},{
"label": "Nuevo Graseros", "lat": 25.258013, "lng": -103.742177
},{
"label": "Cerro Blanco", "lat": 25.656884, "lng": -103.729758
},{
"label": "Ninguno [Santos de la Rosa]", "lat": 25.471076, "lng": -103.69835
},{
"label": "El Sacrificio", "lat": 25.501217, "lng": -103.544188
},{
"label": "Roberto Hingler", "lat": 25.509628, "lng": -103.580363
},{
"label": "Ninguno [Miguel Ángel Vargas]", "lat": 25.470528, "lng": -103.690149
},{
"label": "Las Petronilas", "lat": 25.475159, "lng": -103.717987
},{
"label": "El Salitrillo", "lat": 25.700964, "lng": -103.705284
},{
"label": "El Álamo [Rancho]", "lat": 25.450308, "lng": -103.698596
},{
"label": "El Oasis", "lat": 25.428644, "lng": -103.743365
},{
"label": "El Chaparral", "lat": 25.433723, "lng": -103.738003
},{
"label": "Rancho la Engorda", "lat": 25.511002, "lng": -103.599883
},{
"label": "Carlos Real (San Carlos)", "lat": 25.507422, "lng": -103.518699
},{
"label": "Los Sabinos", "lat": 25.488611, "lng": -103.67141
},{
"label": "Los Zamudios [Granja]", "lat": 25.436204, "lng": -103.749943
},{
"label": "Los Laureles (San Francisco de Asís)", "lat": 25.467526, "lng": -103.686777
},{
"label": "La Chiripa", "lat": 25.513793, "lng": -103.595582
},{
"label": "Puente de la Torreña (El Capricho)", "lat": 25.611461, "lng": -103.601811
},{
"label": "Ninguno [Anastacio Reyes]", "lat": 25.472381, "lng": -103.68532
},{
"label": "Noria Picardías 7 Libres (La Fortuna)", "lat": 25.369331, "lng": -103.480458
},{
"label": "Pedro Flores", "lat": 25.509381, "lng": -103.568904
},{
"label": "Establo Rosa Adela (Adelita)", "lat": 25.510996, "lng": -103.567459
},{
"label": "La Ponderosa (San José de la Loma) [Rancho]", "lat": 25.413337, "lng": -103.737501
},{
"label": "El Rosetal", "lat": 25.3137, "lng": -103.737936
},{
"label": "Establo la Herradura", "lat": 25.510639, "lng": -103.559629
},{
"label": "José Sixto Delgado Estrella", "lat": 25.520878, "lng": -103.503704
},{
"label": "El Valle del Najar", "lat": 25.470118, "lng": -103.708621
},{
"label": "Monterrey", "lat": 25.492624, "lng": -103.625796
},{
"label": "Costa Azul (La Vega)", "lat": 25.413464, "lng": -103.740996
},{
"label": "Eliseo Torres Torres", "lat": 25.510198, "lng": -103.562941
},{
"label": "Raymundo Viejo", "lat": 25.511753, "lng": -103.548946
},{
"label": "Florencia Ortíz Moreno", "lat": 25.5269, "lng": -103.501891
},{
"label": "El Moro (Petra Luna)", "lat": 25.492913, "lng": -103.679259
},{
"label": "Camino al Río", "lat": 25.466334, "lng": -103.680483
},{
"label": "El Rayito Dos", "lat": 25.518589, "lng": -103.557666
},{
"label": "Colonia Santa Cruz", "lat": 25.522657, "lng": -103.704466
},{
"label": "Tomás Castillo Medina", "lat": 25.44145, "lng": -103.654226
},{
"label": "Alberto Fernández Murillo [Propiedad Privada]", "lat": 25.385248, "lng": -103.441748
},{
"label": "Corrales el Seis (El Pelecho)", "lat": 25.516569, "lng": -103.598265
},{
"label": "Saúl Calvillo Román", "lat": 25.497858, "lng": -103.603286
},{
"label": "Noria Jazmín (Noria Sapioris I)", "lat": 25.417853, "lng": -103.677649
},{
"label": "El Coruco", "lat": 25.562775, "lng": -103.571666
},{
"label": "Sector Francisco Zarco", "lat": 25.211544, "lng": -103.732923
},{
"label": "Perfecto Carrillo", "lat": 25.422275, "lng": -103.648073
},{
"label": "Escajeda", "lat": 25.459173, "lng": -103.717009
},{
"label": "La Frontera (Cañón del Indio)", "lat": 25.446008, "lng": -103.407149
},{
"label": "El Picacho", "lat": 25.509057, "lng": -103.690456
},{
"label": "El Huarache (El Guarache)", "lat": 25.520763, "lng": -103.487549
},{
"label": "Noria la Campana (Agua Potable)", "lat": 25.383752, "lng": -103.457626
},{
"label": "Grupo Solidario 1ra. el Potrero (El Potrero)", "lat": 25.420045, "lng": -103.651108
},{
"label": "Colonia Rosales", "lat": 25.485686, "lng": -103.706734
},{
"label": "Noria Sector Siete", "lat": 25.385208, "lng": -103.45465
},{
"label": "Rancho los Jacales", "lat": 25.508361, "lng": -103.585524
},{
"label": "La Parrita (Rancho Alegre)", "lat": 25.758494, "lng": -103.873988
},{
"label": "Marmolera Rojo Valdez", "lat": 25.651381, "lng": -103.71252
},{
"label": "El Rayito Uno", "lat": 25.514261, "lng": -103.550404
},{
"label": "Silverio Carrillo", "lat": 25.47668, "lng": -103.693911
},{
"label": "Enrique García Esparza (El Chivo)", "lat": 25.52516, "lng": -103.505159
},{
"label": "Los Dorado [Granja]", "lat": 25.516987, "lng": -103.560673
},{
"label": "Canal del Cinco", "lat": 25.581066, "lng": -103.536268
},{
"label": "Rancho Santa Perica", "lat": 25.513472, "lng": -103.571594
},{
"label": "El Cortijo de los Ruiz", "lat": 25.500358, "lng": -103.618891
},{
"label": "El Ranchito", "lat": 25.468026, "lng": -103.720965
},{
"label": "Santo Niño", "lat": 25.395102, "lng": -103.74859
},{
"label": "La Lupita [Granja]", "lat": 25.506926, "lng": -103.550666
},{
"label": "Los Reyes", "lat": 25.493781, "lng": -103.698451
},{
"label": "El Huizachal", "lat": 25.508216, "lng": -103.579358
},{
"label": "El Refugio", "lat": 25.433527, "lng": -103.753418
},{
"label": "Las Piedras", "lat": 25.502744, "lng": -103.581129
},{
"label": "Arturo Frayre Torres", "lat": 25.505292, "lng": -103.512378
},{
"label": "Las Águilas", "lat": 25.46618, "lng": -103.696711
},{
"label": "La Blockera", "lat": 25.503633, "lng": -103.539618
},{
"label": "La Goleta", "lat": 25.618063, "lng": -103.597348
},{
"label": "El Guaje", "lat": 25.514945, "lng": -103.515416
},{
"label": "Ponciano Vázquez", "lat": 25.509053, "lng": -103.579719
},{
"label": "San Gerardo", "lat": 25.59056, "lng": -103.574232
},{
"label": "José Luis Castillo", "lat": 25.449705, "lng": -103.661305
},{
"label": "La Goma", "lat": 25.485158, "lng": -103.688671
},{
"label": "La Borrega [Granja]", "lat": 25.592945, "lng": -103.547477
},{
"label": "Rancho las Margaritas", "lat": 25.511375, "lng": -103.582086
},{
"label": "La Báscula (Kilómetro 222) [Rancho]", "lat": 25.448533, "lng": -103.689819
},{
"label": "Establo el Cumplido", "lat": 25.507117, "lng": -103.547429
},{
"label": "Enedelia", "lat": 25.474871, "lng": -103.70518
},{
"label": "Sociedad Catorce", "lat": 25.319519, "lng": -103.489652
},{
"label": "Las Margaritas", "lat": 25.542966, "lng": -103.712985
},{
"label": "Ciudad Rústica Salud (Cab. de Marco Daccarett)", "lat": 25.278204, "lng": -103.756522
},{
"label": "Rancho los Cazares", "lat": 25.50798, "lng": -103.585524
},{
"label": "Establo el Potrero", "lat": 25.505183, "lng": -103.538826
},{
"label": "Establo Dos (1850)", "lat": 25.411671, "lng": -103.394148
},{
"label": "Carlos Aguilera", "lat": 25.467738, "lng": -103.699615
},{
"label": "El Taller (González Mora)", "lat": 25.52159, "lng": -103.580526
},{
"label": "El Pilar [Granja]", "lat": 25.457418, "lng": -103.702272
},{
"label": "Rancho Grande", "lat": 25.479441, "lng": -103.598611
},{
"label": "Perfecto Candela", "lat": 25.451393, "lng": -103.663353
},{
"label": "Rancho Grande (3 Hermanas) [Propiedad Privada]", "lat": 25.75037, "lng": -103.869749
},{
"label": "Villa de Guadalupe", "lat": 25.515558, "lng": -103.487911
},{
"label": "Noria 133", "lat": 25.439554, "lng": -103.664847
},{
"label": "Melitón Sifuentes D.", "lat": 25.516311, "lng": -103.578807
},{
"label": "Ninguno [Felipe Rodríguez B.]", "lat": 25.480194, "lng": -103.693386
},{
"label": "La Rivera", "lat": 25.509745, "lng": -103.601145
},{
"label": "El Nogalito [Granja]", "lat": 25.460404, "lng": -103.706672
},{
"label": "El Moyotal", "lat": 25.437381, "lng": -103.737546
},{
"label": "El Peñón", "lat": 25.490293, "lng": -103.740776
},{
"label": "La Noria (El Álamo)", "lat": 25.451863, "lng": -103.710584
},{
"label": "Las Teresitas", "lat": 25.469712, "lng": -103.705525
},{
"label": "Establo el Álamo", "lat": 25.518869, "lng": -103.56136
},{
"label": "Rancho Bemibe", "lat": 25.511913, "lng": -103.576547
},{
"label": "La Pitahaya", "lat": 25.509196, "lng": -103.622501
},{
"label": "Establo Picardías (Establo Sector Cuatro)", "lat": 25.343681, "lng": -103.475879
},{
"label": "Roberto Hernández", "lat": 25.457764, "lng": -103.659558
},{
"label": "Vallecillos", "lat": 25.602906, "lng": -103.755291
},{
"label": "Juan José Rojas", "lat": 25.512978, "lng": -103.650014
},{
"label": "El Rosario (El Quinto)", "lat": 25.740944, "lng": -103.88638
},{
"label": "Rancho San Isidro", "lat": 25.511978, "lng": -103.569245
},{
"label": "Noria Grupo Siete (La Brisa)", "lat": 25.360502, "lng": -103.466449
},{
"label": "Puentes Cuates", "lat": 25.466616, "lng": -103.69289
},{
"label": "Las Isabeles", "lat": 25.495865, "lng": -103.558061
},{
"label": "Carlos Esparza", "lat": 25.511625, "lng": -103.499963
},{
"label": "Javier Castañeda Núñez", "lat": 25.501124, "lng": -103.605728
},{
"label": "La Campana", "lat": 25.38857, "lng": -103.474422
},{
"label": "La Palapa", "lat": 25.514505, "lng": -103.594568
},{
"label": "Jacobo Aguilera", "lat": 25.512727, "lng": -103.499893
},{
"label": "Margarito Machado (Palomas)", "lat": 25.199553, "lng": -103.693715
},{
"label": "Seis de Enero (El Establo)", "lat": 25.526232, "lng": -103.621981
},{
"label": "Los Ángeles [Granja Porcina]", "lat": 25.523433, "lng": -103.577844
},{
"label": "Salamanca", "lat": 25.515783, "lng": -103.698212
},{
"label": "Javier Rojo Gómez (La Esperanza)", "lat": 25.22482, "lng": -103.629697
},{
"label": "Establo Monterrey", "lat": 25.512007, "lng": -103.568628
},{
"label": "Lourdes [Granja]", "lat": 25.507521, "lng": -103.565034
},{
"label": "Rancho los Pinabetes", "lat": 25.511498, "lng": -103.561055
},{
"label": "Antonio Hernández", "lat": 25.376396, "lng": -103.636446
},{
"label": "La Brecha", "lat": 25.379669, "lng": -103.472442
},{
"label": "Valentín Viesca", "lat": 25.471823, "lng": -103.678963
},{
"label": "El Jeroglífico", "lat": 25.56133, "lng": -103.710544
},{
"label": "Noria el Quince", "lat": 25.388214, "lng": -103.443981
},{
"label": "Ganadera Mi Sueño", "lat": 25.515545, "lng": -103.545924
},{
"label": "Rancho Santa Clara (Los Cerritos)", "lat": 25.50204, "lng": -103.613107
}]