[{
"label": "Ceja de la Mesa", "lat": 22.638284, "lng": -104.705836
},{
"label": "Mesa del Pata de Gallo", "lat": 22.973788, "lng": -104.682734
},{
"label": "Zacatecas (Chalchihuitillo)", "lat": 23.070079, "lng": -104.610277
},{
"label": "Ojitos de Orizaba", "lat": 23.611531, "lng": -104.305104
},{
"label": "Masparillos", "lat": 22.504706, "lng": -104.439157
},{
"label": "Tierra Blanca", "lat": 23.008164, "lng": -104.628006
},{
"label": "Junes", "lat": 22.834845, "lng": -104.918721
},{
"label": "San Miguel de las Mesas", "lat": 23.129157, "lng": -104.743465
},{
"label": "Victoriano Santana", "lat": 22.832281, "lng": -104.830677
},{
"label": "Mesa de los Diablos", "lat": 22.866363, "lng": -104.339403
},{
"label": "Banco de Pinos Altos", "lat": 23.021783, "lng": -104.313013
},{
"label": "La Zorrita", "lat": 23.258405, "lng": -104.522968
},{
"label": "Llanitos", "lat": 23.066524, "lng": -104.480435
},{
"label": "Mesa de las Joyas", "lat": 23.078007, "lng": -104.593753
},{
"label": "Ninguno", "lat": 22.858103, "lng": -104.860408
},{
"label": "San Pedro de Xícora", "lat": 22.70288, "lng": -104.613573
},{
"label": "Arroyo de las Papas", "lat": 22.710863, "lng": -104.536223
},{
"label": "Mimbres", "lat": 22.618093, "lng": -104.533561
},{
"label": "Mesa de Tierra Blanca", "lat": 22.815979, "lng": -104.382225
},{
"label": "Ciénega de la Mesa", "lat": 22.692334, "lng": -104.423653
},{
"label": "El Huizache", "lat": 23.183466, "lng": -104.484772
},{
"label": "Pino Alto", "lat": 22.72637, "lng": -104.80917
},{
"label": "El Izote", "lat": 22.473837, "lng": -104.65411
},{
"label": "Magueycito", "lat": 22.438671, "lng": -104.404913
},{
"label": "La Laguna (La Joya)", "lat": 22.927006, "lng": -104.680261
},{
"label": "La Palma", "lat": 23.566584, "lng": -104.415105
},{
"label": "Gavilanes", "lat": 22.776506, "lng": -104.255434
},{
"label": "Pinos Enterrados", "lat": 23.07661, "lng": -104.718093
},{
"label": "Agua Zarca", "lat": 23.520224, "lng": -104.419027
},{
"label": "Las Sillas", "lat": 22.713051, "lng": -104.330565
},{
"label": "Sardinas", "lat": 23.619872, "lng": -104.259717
},{
"label": "San José de García (La Quemada)", "lat": 23.556169, "lng": -104.470872
},{
"label": "Ceja de Cebolleta", "lat": 22.652291, "lng": -104.368272
},{
"label": "La Manga", "lat": 22.78476, "lng": -104.201618
},{
"label": "El Patio", "lat": 22.920185, "lng": -104.613571
},{
"label": "Estafiate", "lat": 22.570039, "lng": -104.42578
},{
"label": "Margarito Mendoza Santana", "lat": 22.592657, "lng": -104.292926
},{
"label": "Julia Ortiz", "lat": 22.481275, "lng": -104.542456
},{
"label": "Chinacates", "lat": 22.734803, "lng": -104.637973
},{
"label": "Cieneguita", "lat": 22.629022, "lng": -104.285624
},{
"label": "Las Mesas de Xoconoxtle", "lat": 23.22217, "lng": -104.419713
},{
"label": "El Puerto", "lat": 22.48733, "lng": -104.400818
},{
"label": "Jabalíes", "lat": 22.809669, "lng": -104.673501
},{
"label": "La Avispa", "lat": 22.819302, "lng": -104.470628
},{
"label": "Piedra Ceniza", "lat": 22.982813, "lng": -104.230238
},{
"label": "Las Parras", "lat": 23.082504, "lng": -104.423815
},{
"label": "Los Lazos", "lat": 22.633331, "lng": -104.284094
},{
"label": "Puerto del Durazno", "lat": 23.154819, "lng": -104.346321
},{
"label": "Mesa de Conejos", "lat": 22.790804, "lng": -104.406923
},{
"label": "El Maguey", "lat": 22.65145, "lng": -104.438547
},{
"label": "Chalatita", "lat": 22.6969, "lng": -104.959923
},{
"label": "La Joyas", "lat": 23.068177, "lng": -104.733354
},{
"label": "Ameca", "lat": 22.922478, "lng": -104.440803
},{
"label": "La Cofradía", "lat": 23.109631, "lng": -104.732884
},{
"label": "El Ranchito de la Mesa", "lat": 23.330583, "lng": -104.492479
},{
"label": "La Mesa de la Gloria", "lat": 23.133514, "lng": -104.283784
},{
"label": "Acatita", "lat": 23.654853, "lng": -104.330668
},{
"label": "Los Caballos", "lat": 22.756793, "lng": -104.652636
},{
"label": "Chicaltita", "lat": 22.617322, "lng": -104.428426
},{
"label": "Las Palomas (El Saltito)", "lat": 22.834806, "lng": -104.451312
},{
"label": "Chametla", "lat": 22.68281, "lng": -104.908571
},{
"label": "Los Ciruelos", "lat": 22.534454, "lng": -104.498274
},{
"label": "Las Chichis", "lat": 22.831335, "lng": -104.659887
},{
"label": "Chomatita", "lat": 22.539205, "lng": -104.556336
},{
"label": "Piedra Verde", "lat": 22.50532, "lng": -104.430168
},{
"label": "Los Mimbres", "lat": 22.890839, "lng": -104.855798
},{
"label": "Los Charcos", "lat": 23.010524, "lng": -104.301586
},{
"label": "La Angostura", "lat": 22.469136, "lng": -104.507966
},{
"label": "La Mesa del Águila", "lat": 22.853699, "lng": -104.514711
},{
"label": "La Presa", "lat": 23.457071, "lng": -104.416937
},{
"label": "Flores China", "lat": 23.080706, "lng": -104.646589
},{
"label": "Llano de Tejónes", "lat": 23.108673, "lng": -104.613002
},{
"label": "Caligüey", "lat": 22.416891, "lng": -104.396319
},{
"label": "La Mesa de Tierra Blanca (La Mesita del Diablo)", "lat": 22.851201, "lng": -104.636797
},{
"label": "Corralitos", "lat": 22.781218, "lng": -104.346453
},{
"label": "Chapotán", "lat": 22.818367, "lng": -104.603015
},{
"label": "El Gallo", "lat": 22.991561, "lng": -104.672167
},{
"label": "La Cocona", "lat": 23.379135, "lng": -104.395611
},{
"label": "El Espíritu Santo", "lat": 22.693542, "lng": -104.495824
},{
"label": "Los Barrancos", "lat": 22.817803, "lng": -104.646714
},{
"label": "Jorge Alvarado", "lat": 22.845061, "lng": -104.778874
},{
"label": "Carricillos", "lat": 22.917864, "lng": -104.624441
},{
"label": "El Limón del Río", "lat": 22.891994, "lng": -104.968402
},{
"label": "Góngora", "lat": 23.594921, "lng": -104.364086
},{
"label": "La Ciénega", "lat": 23.030401, "lng": -104.624425
},{
"label": "Las Laderas", "lat": 22.863222, "lng": -104.782281
},{
"label": "El Chapote", "lat": 22.93189, "lng": -104.571699
},{
"label": "Tabernáculo de Emanuel", "lat": 22.554285, "lng": -104.333417
},{
"label": "Zopilotes", "lat": 22.796233, "lng": -104.654049
},{
"label": "Ceja del Nido", "lat": 22.886146, "lng": -104.931692
},{
"label": "Rafael Cumplido", "lat": 23.158022, "lng": -104.487424
},{
"label": "El Manzano", "lat": 23.036744, "lng": -104.598376
},{
"label": "Las Flores", "lat": 22.849481, "lng": -104.2944
},{
"label": "La Mora", "lat": 22.441151, "lng": -104.559388
},{
"label": "Agua Puerca", "lat": 23.227112, "lng": -104.627425
},{
"label": "El Juego de Hule", "lat": 22.435299, "lng": -104.588676
},{
"label": "La Cruz", "lat": 22.720077, "lng": -104.337004
},{
"label": "La Mesa de San Antonio", "lat": 22.786213, "lng": -104.580304
},{
"label": "El Carrizalillo", "lat": 22.731128, "lng": -104.515687
},{
"label": "Mesa de las Pipas", "lat": 22.73052, "lng": -104.563048
},{
"label": "Tampico", "lat": 23.21384, "lng": -104.423237
},{
"label": "La Mesa de los Aguacates", "lat": 22.925038, "lng": -104.592504
},{
"label": "Mesa de Alamitos", "lat": 22.825327, "lng": -104.406088
},{
"label": "La Arena", "lat": 22.450698, "lng": -104.496073
},{
"label": "Yerbanices", "lat": 22.78142, "lng": -104.871352
},{
"label": "San José del Llano", "lat": 23.122484, "lng": -104.662776
},{
"label": "Las Guitarras", "lat": 23.145559, "lng": -104.688029
},{
"label": "Las Cabrillas", "lat": 22.63126, "lng": -104.925017
},{
"label": "La Montoya", "lat": 23.293053, "lng": -104.375833
},{
"label": "Nopalera", "lat": 22.475039, "lng": -104.548278
},{
"label": "Canoas", "lat": 22.895589, "lng": -104.734001
},{
"label": "La Culebra", "lat": 22.424206, "lng": -104.57661
},{
"label": "Candelarita", "lat": 22.777548, "lng": -104.607449
},{
"label": "Maypura de Jalpa", "lat": 22.408255, "lng": -104.474251
},{
"label": "La Soledad", "lat": 22.80008, "lng": -104.230498
},{
"label": "Mesa la Bayona (Mesa del Cacayón)", "lat": 23.106424, "lng": -104.526805
},{
"label": "Rancho la Peña", "lat": 22.770553, "lng": -104.441667
},{
"label": "Agua Prieta Chico", "lat": 22.915403, "lng": -104.415919
},{
"label": "Las Norias", "lat": 22.645131, "lng": -105.014274
},{
"label": "Los Altos", "lat": 22.84467, "lng": -104.820846
},{
"label": "El Venado", "lat": 22.786828, "lng": -104.680632
},{
"label": "Las Zamoras", "lat": 23.093284, "lng": -104.624268
},{
"label": "Tierra Sonando", "lat": 22.899393, "lng": -104.837398
},{
"label": "Navíos", "lat": 22.707607, "lng": -104.410818
},{
"label": "Los Arrayanes", "lat": 23.55169, "lng": -104.491933
},{
"label": "Cerro Pelón", "lat": 23.121584, "lng": -104.806583
},{
"label": "Los Quesos", "lat": 22.957683, "lng": -104.606448
},{
"label": "Las Golondrinas", "lat": 23.235876, "lng": -104.596017
},{
"label": "Palmas", "lat": 22.579157, "lng": -104.413159
},{
"label": "Cordón de Buenavista (El Cordón)", "lat": 23.009419, "lng": -104.620701
},{
"label": "Tres Colores", "lat": 22.635521, "lng": -104.590237
},{
"label": "El Machón", "lat": 23.41468, "lng": -104.566817
},{
"label": "Los Corpos", "lat": 22.53476, "lng": -104.61606
},{
"label": "La Joyita de Tierras Coloradas", "lat": 22.811449, "lng": -104.369613
},{
"label": "Ciénega de Mirasoles", "lat": 22.563954, "lng": -104.325087
},{
"label": "La Ventanita", "lat": 22.472819, "lng": -104.374108
},{
"label": "Las Mesas", "lat": 22.765351, "lng": -104.394844
},{
"label": "Santa Lucía", "lat": 22.597806, "lng": -104.272743
},{
"label": "Techalote (Buenavista)", "lat": 22.657255, "lng": -105.016874
},{
"label": "Plátano Enterrado", "lat": 22.98167, "lng": -104.68777
},{
"label": "Los Veranos", "lat": 22.827856, "lng": -104.785046
},{
"label": "Comales", "lat": 22.873642, "lng": -104.425497
},{
"label": "Santa Teresa", "lat": 22.809715, "lng": -104.639239
},{
"label": "Paura", "lat": 23.610385, "lng": -104.363486
},{
"label": "Los Chocotes", "lat": 22.480543, "lng": -104.435052
},{
"label": "Joyas de Guamúchil", "lat": 23.210848, "lng": -104.529036
},{
"label": "El Consuelo", "lat": 22.765053, "lng": -104.244347
},{
"label": "Los Crucitos", "lat": 22.613969, "lng": -104.895974
},{
"label": "Buenos Aires (Mesa de la Bandera)", "lat": 22.774555, "lng": -104.372561
},{
"label": "Bancos de Calitique", "lat": 22.444819, "lng": -104.394148
},{
"label": "El Gavilancillo", "lat": 23.010432, "lng": -104.37991
},{
"label": "Puerto del Guamúchil", "lat": 22.500291, "lng": -104.412454
},{
"label": "Cerro de la Silla", "lat": 22.625634, "lng": -104.375704
},{
"label": "Mesa de las Cruces", "lat": 22.924116, "lng": -104.759376
},{
"label": "Piedra Volteada", "lat": 22.989956, "lng": -104.719541
},{
"label": "Cerro de la Flecha", "lat": 22.780902, "lng": -104.669425
},{
"label": "Los Alisos", "lat": 23.335725, "lng": -104.365136
},{
"label": "Texcalame", "lat": 22.504793, "lng": -104.622414
},{
"label": "Las Rosas (Mazata)", "lat": 22.490673, "lng": -104.509532
},{
"label": "Toro Parado", "lat": 22.915837, "lng": -104.521989
},{
"label": "Los Alacranes", "lat": 22.894278, "lng": -104.847276
},{
"label": "Paso de los Arrieros", "lat": 22.481045, "lng": -104.511747
},{
"label": "La Boquilla", "lat": 22.469208, "lng": -104.36633
},{
"label": "Las Cabezas", "lat": 22.875405, "lng": -104.622383
},{
"label": "Cerro del Águila Real", "lat": 22.907519, "lng": -104.599566
},{
"label": "Isquelta", "lat": 22.629477, "lng": -104.437197
},{
"label": "Tierra Colorada", "lat": 23.080135, "lng": -104.785456
},{
"label": "San Juan de Morga", "lat": 23.336879, "lng": -104.29453
},{
"label": "El Roble", "lat": 23.532051, "lng": -104.370316
},{
"label": "Los Cuchillos", "lat": 22.868363, "lng": -104.869133
},{
"label": "La Cumbre", "lat": 22.791104, "lng": -104.621223
},{
"label": "Las Esquinas", "lat": 23.073188, "lng": -104.490632
},{
"label": "La Cieneguita", "lat": 22.843712, "lng": -104.418038
},{
"label": "Los Arquitos", "lat": 22.676713, "lng": -104.952053
},{
"label": "La Hacienda", "lat": 22.661066, "lng": -104.464901
},{
"label": "El Alacrán", "lat": 22.846408, "lng": -104.363427
},{
"label": "Mesa del Durazno", "lat": 23.067795, "lng": -104.600205
},{
"label": "Las Rejas de Cerro Blanco", "lat": 22.671354, "lng": -104.367391
},{
"label": "El Ranchito de San Miguel", "lat": 23.38404, "lng": -104.675748
},{
"label": "Jaripa de Arriba", "lat": 23.422208, "lng": -104.398458
},{
"label": "La Mesa de los Caballos", "lat": 23.523232, "lng": -104.494933
},{
"label": "Los Capulines", "lat": 23.100832, "lng": -104.691699
},{
"label": "Las Gallinas", "lat": 22.639761, "lng": -104.378004
},{
"label": "Zacatecas", "lat": 22.898158, "lng": -104.370204
},{
"label": "Cerro Amarillo", "lat": 22.847373, "lng": -104.40001
},{
"label": "Las Pitayitas", "lat": 22.711526, "lng": -104.408853
},{
"label": "Joya de los Pinos Altos", "lat": 22.831306, "lng": -104.571222
},{
"label": "Hojas Anchas", "lat": 23.091417, "lng": -104.728029
},{
"label": "La Punta", "lat": 22.67976, "lng": -104.368561
},{
"label": "Cerro Prieto", "lat": 22.476984, "lng": -104.461888
},{
"label": "Agua Salada", "lat": 22.881733, "lng": -104.71251
},{
"label": "Flor de Mayo", "lat": 22.998641, "lng": -104.667468
},{
"label": "El Ángel", "lat": 23.297248, "lng": -104.653314
},{
"label": "Puerto Blanco", "lat": 23.063813, "lng": -104.19272
},{
"label": "Los Sapos", "lat": 22.428652, "lng": -104.436885
},{
"label": "Salatita", "lat": 22.493045, "lng": -104.424135
},{
"label": "Cueva Molida (La Cueva)", "lat": 22.865621, "lng": -104.466458
},{
"label": "Las Vigas", "lat": 22.649063, "lng": -104.291125
},{
"label": "Laguna del Chivo", "lat": 23.153071, "lng": -104.263202
},{
"label": "La Mesa de las Escobas", "lat": 23.519437, "lng": -104.31816
},{
"label": "Aguasal", "lat": 22.969196, "lng": -104.810247
},{
"label": "Cuc Tam", "lat": 23.12475, "lng": -104.713585
},{
"label": "Tescalame", "lat": 22.848235, "lng": -104.45284
},{
"label": "Puerto Colorado", "lat": 22.535595, "lng": -104.415223
},{
"label": "Mojolotita", "lat": 22.514371, "lng": -104.506043
},{
"label": "Las Escobitas", "lat": 23.048087, "lng": -104.484967
},{
"label": "Puerto México", "lat": 22.965424, "lng": -104.237679
},{
"label": "Oaxaca", "lat": 22.907506, "lng": -104.622596
},{
"label": "El Bajo", "lat": 22.824969, "lng": -104.547232
},{
"label": "Pino Parado", "lat": 22.782647, "lng": -104.734661
},{
"label": "La Joyanca de los Poblanos", "lat": 22.57853, "lng": -104.312958
},{
"label": "El Pintonte", "lat": 23.725298, "lng": -104.401625
},{
"label": "El Duraznito", "lat": 23.265508, "lng": -104.484473
},{
"label": "San Lucas de Jalpa", "lat": 22.432069, "lng": -104.499464
},{
"label": "Laureles", "lat": 22.590863, "lng": -104.578786
},{
"label": "Nopalitos", "lat": 22.530849, "lng": -104.638008
},{
"label": "Higo Parado", "lat": 23.133053, "lng": -104.683056
},{
"label": "Los Cerritos", "lat": 22.923269, "lng": -104.869285
},{
"label": "La Reja", "lat": 22.753725, "lng": -104.304081
},{
"label": "Ojo de Agua", "lat": 23.013164, "lng": -104.953247
},{
"label": "Mesa de la Torrecilla", "lat": 22.443029, "lng": -104.325836
},{
"label": "Pino Triste", "lat": 22.867602, "lng": -104.812909
},{
"label": "Yonora", "lat": 23.22064, "lng": -104.583523
},{
"label": "Zancudo Dos", "lat": 23.082541, "lng": -104.808579
},{
"label": "Cuevitas", "lat": 23.055649, "lng": -104.601906
},{
"label": "Picudos", "lat": 23.110824, "lng": -104.687382
},{
"label": "Arroyo de Zapotes", "lat": 22.854923, "lng": -104.692401
},{
"label": "El Pírame (Peña Alto)", "lat": 22.714205, "lng": -104.293284
},{
"label": "Los Papeles", "lat": 22.949754, "lng": -104.539131
},{
"label": "La Peña", "lat": 22.499949, "lng": -104.418754
},{
"label": "Los Robles (Rancho la Ciénega)", "lat": 23.12753, "lng": -104.474415
},{
"label": "El Zacate", "lat": 22.908704, "lng": -104.890749
},{
"label": "El Zancudo Uno", "lat": 22.985106, "lng": -104.800388
},{
"label": "Se Uan Tio", "lat": 23.106893, "lng": -104.717801
},{
"label": "Los Robles", "lat": 23.102803, "lng": -104.626457
},{
"label": "Los Tábanos", "lat": 22.646883, "lng": -104.894915
},{
"label": "Las Guásimas", "lat": 23.079574, "lng": -104.740715
},{
"label": "Las Joyas de los Limones", "lat": 22.83927, "lng": -104.730349
},{
"label": "Metate Tirado", "lat": 22.904699, "lng": -104.83063
},{
"label": "El Aguacate", "lat": 22.506729, "lng": -104.41492
},{
"label": "La Cañada", "lat": 22.644584, "lng": -104.953302
},{
"label": "Ciénega de los Carrizos", "lat": 22.858112, "lng": -104.339377
},{
"label": "San Antonio de los Órganos (Las Atargeas)", "lat": 23.587125, "lng": -104.49239
},{
"label": "Las Escobas", "lat": 23.108024, "lng": -104.508763
},{
"label": "Pinitos Altos", "lat": 22.836233, "lng": -104.475335
},{
"label": "Cerro de la Vaca", "lat": 22.87763, "lng": -104.243441
},{
"label": "El Sauce", "lat": 22.520972, "lng": -104.441671
},{
"label": "Los Hornitos", "lat": 22.44205, "lng": -104.586378
},{
"label": "Tezcalame", "lat": 22.823104, "lng": -104.80037
},{
"label": "Zapotes", "lat": 22.730632, "lng": -104.399104
},{
"label": "Los Frijoles", "lat": 23.008904, "lng": -104.66317
},{
"label": "Carambas", "lat": 22.544284, "lng": -104.596248
},{
"label": "El Cedro", "lat": 22.569191, "lng": -104.598674
},{
"label": "Duranguito", "lat": 23.112373, "lng": -104.528472
},{
"label": "El Salto", "lat": 23.223248, "lng": -104.43006
},{
"label": "José Cumplido", "lat": 22.783649, "lng": -104.223563
},{
"label": "La Joya de Atotonilco (Atotonilco)", "lat": 23.613786, "lng": -104.357299
},{
"label": "Mesa de Platanitos", "lat": 23.153511, "lng": -104.579873
},{
"label": "San Francisco de Ocotán", "lat": 22.881579, "lng": -104.729313
},{
"label": "Las Manzanillas", "lat": 23.063588, "lng": -104.716014
},{
"label": "El Carrizo", "lat": 22.759692, "lng": -104.706601
},{
"label": "Tortillas", "lat": 22.675313, "lng": -104.616899
},{
"label": "Tepalcates", "lat": 22.654749, "lng": -104.951147
},{
"label": "Las Hormigueras", "lat": 22.904585, "lng": -104.84539
},{
"label": "La Huella del Niño", "lat": 23.044691, "lng": -104.601812
},{
"label": "Peñasco Cenizo", "lat": 23.066079, "lng": -104.778594
},{
"label": "Los Trigos", "lat": 23.040212, "lng": -104.680016
},{
"label": "Los Copales", "lat": 22.526878, "lng": -104.521862
},{
"label": "Nopalitos (La Nopalera)", "lat": 22.975829, "lng": -104.629769
},{
"label": "Epifanio Santana Cervantes", "lat": 22.77456, "lng": -104.233998
},{
"label": "Las Pilitas", "lat": 22.680843, "lng": -104.962152
},{
"label": "Los Aguacates", "lat": 23.235485, "lng": -104.437474
},{
"label": "El Magueyal", "lat": 23.224806, "lng": -104.608155
},{
"label": "Pinos Tristes", "lat": 22.98031, "lng": -104.450797
},{
"label": "La Mesa de la Ventana", "lat": 23.111728, "lng": -104.745294
},{
"label": "Los Maniados", "lat": 22.836586, "lng": -104.288577
},{
"label": "Los Magueyes", "lat": 22.923367, "lng": -104.473295
},{
"label": "La Silla Quemada", "lat": 23.039023, "lng": -104.526175
},{
"label": "Mesa de la Redonda", "lat": 22.811659, "lng": -104.681264
},{
"label": "Metatita", "lat": 22.658219, "lng": -104.60454
},{
"label": "El Capullo", "lat": 22.851943, "lng": -104.603216
},{
"label": "Los Padres", "lat": 22.719427, "lng": -104.477158
},{
"label": "Las Joyas de Arriba", "lat": 22.803193, "lng": -104.289371
},{
"label": "Las Aguas", "lat": 22.865306, "lng": -104.945461
},{
"label": "Los Guaises", "lat": 22.426151, "lng": -104.572443
},{
"label": "Peñascos Colorados (Barrancos Colorados)", "lat": 23.050494, "lng": -104.473533
},{
"label": "Borrados (Casa del Ejido)", "lat": 23.489453, "lng": -104.56022
},{
"label": "Santa María de Ocotán", "lat": 22.916333, "lng": -104.599662
},{
"label": "La Barranca", "lat": 22.686386, "lng": -104.497767
},{
"label": "Santa María Magdalena de Taxicaringa", "lat": 23.221729, "lng": -104.765877
},{
"label": "Reynaldo Solís Soto", "lat": 22.840591, "lng": -104.361901
},{
"label": "Los Saltos", "lat": 22.832868, "lng": -104.69809
},{
"label": "Chalate", "lat": 22.799116, "lng": -104.469583
},{
"label": "Los Hongos", "lat": 22.631815, "lng": -104.471723
},{
"label": "Pinos Rodeados", "lat": 23.059669, "lng": -104.431636
},{
"label": "Los Arcos", "lat": 22.901378, "lng": -104.703002
},{
"label": "Las Aguilillas (El Venado)", "lat": 22.927607, "lng": -104.639892
},{
"label": "La Venadita", "lat": 22.686815, "lng": -104.279037
},{
"label": "Mesa de la Madera", "lat": 23.404014, "lng": -104.331795
},{
"label": "Las Minitas", "lat": 22.773289, "lng": -104.366532
},{
"label": "Sotoles", "lat": 23.344322, "lng": -104.357157
},{
"label": "El Guayabito", "lat": 22.720759, "lng": -104.696626
},{
"label": "Mesa de Tierras Coloradas", "lat": 22.827306, "lng": -104.376891
},{
"label": "Llanito los Arroyitos", "lat": 22.946418, "lng": -104.630079
},{
"label": "Los Arenales", "lat": 22.707795, "lng": -104.709156
},{
"label": "Pino Real", "lat": 22.652697, "lng": -104.62199
},{
"label": "Toyana", "lat": 22.91722, "lng": -104.227019
},{
"label": "La China", "lat": 23.341051, "lng": -104.699559
},{
"label": "Los Lirios", "lat": 22.711983, "lng": -104.298561
},{
"label": "San Gerónimo", "lat": 23.592316, "lng": -104.36432
},{
"label": "El Rincón", "lat": 23.075986, "lng": -104.665434
},{
"label": "Picachos", "lat": 22.541254, "lng": -104.502374
},{
"label": "La Ventana", "lat": 23.089281, "lng": -104.649407
},{
"label": "El Yaqui", "lat": 23.403056, "lng": -104.498953
},{
"label": "Órganos Uno", "lat": 22.966966, "lng": -104.435704
},{
"label": "Las Astas", "lat": 22.954414, "lng": -104.197708
},{
"label": "Tierras Azules", "lat": 22.736692, "lng": -104.661298
},{
"label": "El Charco Verde", "lat": 23.29133, "lng": -104.727679
},{
"label": "El Pescado", "lat": 22.973364, "lng": -104.622685
},{
"label": "El Gavilán", "lat": 22.773087, "lng": -104.868851
},{
"label": "Joya de Matar", "lat": 22.905812, "lng": -104.579603
},{
"label": "Tierras Coloradas", "lat": 22.516336, "lng": -104.343984
},{
"label": "Los Encinos", "lat": 22.617534, "lng": -104.917457
},{
"label": "Mesa de Navíos", "lat": 22.696217, "lng": -104.420268
},{
"label": "Bajío la Cofradía", "lat": 22.930178, "lng": -104.592065
},{
"label": "Cerrito de Llano", "lat": 23.106108, "lng": -104.620556
},{
"label": "Los Aires", "lat": 22.787951, "lng": -104.313126
},{
"label": "El Capulín", "lat": 23.251774, "lng": -104.55836
},{
"label": "Arrieros", "lat": 23.620819, "lng": -104.274276
},{
"label": "La Colita de Celestino", "lat": 23.246608, "lng": -104.603476
},{
"label": "Mesa de las Vacas", "lat": 23.098895, "lng": -104.579821
},{
"label": "Otilio Soto Soto", "lat": 22.883302, "lng": -104.346239
},{
"label": "La Gotera", "lat": 22.465316, "lng": -104.61939
},{
"label": "El Polvorín", "lat": 23.448686, "lng": -104.363569
},{
"label": "Cerros Juntos", "lat": 22.865606, "lng": -104.643867
},{
"label": "Tepocatita", "lat": 22.595659, "lng": -104.767382
},{
"label": "Algodones", "lat": 22.863395, "lng": -104.691886
},{
"label": "Agua Prieta", "lat": 22.832643, "lng": -104.433365
},{
"label": "Las Presas", "lat": 23.720301, "lng": -104.30916
},{
"label": "Las Joyitas", "lat": 23.118099, "lng": -104.609107
},{
"label": "La Muralla", "lat": 22.76622, "lng": -104.368782
},{
"label": "Cordón del Encino", "lat": 22.510449, "lng": -104.537239
},{
"label": "Gualamas", "lat": 22.430939, "lng": -104.538939
},{
"label": "Zacatecas Chalchihuitillo", "lat": 23.062641, "lng": -104.790774
},{
"label": "Rancho Viejo", "lat": 22.781956, "lng": -104.273409
},{
"label": "Charco Chiquito", "lat": 22.905723, "lng": -104.290617
},{
"label": "El Catorce", "lat": 22.611617, "lng": -104.544019
},{
"label": "Chalate 2", "lat": 22.66807, "lng": -104.470102
},{
"label": "Mesa del Gavilán", "lat": 22.995722, "lng": -104.376389
},{
"label": "El Cerro de la Flor", "lat": 23.228207, "lng": -104.793331
},{
"label": "Las Peñas", "lat": 22.629621, "lng": -104.670671
},{
"label": "Las Palomas", "lat": 22.712121, "lng": -104.45137
},{
"label": "Gualdrias", "lat": 23.479217, "lng": -104.533746
},{
"label": "Las Anonas", "lat": 22.851419, "lng": -104.948023
},{
"label": "Rancho el Mezquite", "lat": 22.440837, "lng": -104.410945
},{
"label": "Cerro Blanco", "lat": 22.904844, "lng": -104.758488
},{
"label": "El Chalate", "lat": 22.824447, "lng": -104.675909
},{
"label": "La Torre", "lat": 22.836078, "lng": -104.854269
},{
"label": "La Amapola", "lat": 23.452227, "lng": -104.690128
},{
"label": "Huastita", "lat": 22.609945, "lng": -104.514229
},{
"label": "La Joya del Agostadero", "lat": 22.840388, "lng": -104.210915
},{
"label": "Atotonilco", "lat": 22.669202, "lng": -104.618009
},{
"label": "Tinajas", "lat": 22.427488, "lng": -104.477174
},{
"label": "Las Panchas", "lat": 23.03632, "lng": -104.309511
},{
"label": "Xoconoxtle", "lat": 23.228577, "lng": -104.447482
},{
"label": "Tepetatitos (La Reja)", "lat": 22.664139, "lng": -104.369437
},{
"label": "Mesas de Xoconoxtle", "lat": 23.207556, "lng": -104.419964
},{
"label": "La Torrecilla", "lat": 22.427305, "lng": -104.337659
},{
"label": "Mesa del Llano", "lat": 22.864651, "lng": -104.510763
},{
"label": "Los Mezquititos", "lat": 23.108084, "lng": -104.700251
},{
"label": "El Coyote", "lat": 23.20711, "lng": -104.447494
},{
"label": "Puerto el Colorado", "lat": 23.206983, "lng": -104.637198
},{
"label": "Agua Caliente", "lat": 22.821614, "lng": -104.80991
},{
"label": "Llano Delgado", "lat": 22.840503, "lng": -104.543198
},{
"label": "La Laja", "lat": 23.423569, "lng": -104.424674
},{
"label": "Puerto la Cantera", "lat": 23.219289, "lng": -104.631424
},{
"label": "Laguna del Burro", "lat": 22.799877, "lng": -104.458192
},{
"label": "Mesa de las Varas", "lat": 22.469699, "lng": -104.476167
},{
"label": "El Paraje", "lat": 22.83626, "lng": -104.932509
},{
"label": "Cachantita", "lat": 22.708776, "lng": -104.466619
},{
"label": "Puerta de Mazata", "lat": 22.482539, "lng": -104.523278
},{
"label": "Los Amoles", "lat": 22.800196, "lng": -104.84238
},{
"label": "La Esquina", "lat": 22.881247, "lng": -104.454838
},{
"label": "La Palmita", "lat": 22.791699, "lng": -104.197151
},{
"label": "Pinos Altos", "lat": 22.769773, "lng": -104.539924
},{
"label": "Los Cordones", "lat": 23.141155, "lng": -104.577173
},{
"label": "El Chapotito", "lat": 23.352318, "lng": -104.464993
},{
"label": "El Rosario", "lat": 23.381283, "lng": -104.691492
},{
"label": "Tonalampa", "lat": 22.638494, "lng": -104.429187
},{
"label": "San Diego", "lat": 22.658607, "lng": -104.924606
},{
"label": "Huazamota", "lat": 22.524652, "lng": -104.493128
},{
"label": "Buenavista", "lat": 22.447823, "lng": -104.43273
},{
"label": "Buena Vista", "lat": 22.992421, "lng": -104.587296
},{
"label": "Los Cedros", "lat": 22.799764, "lng": -104.364631
},{
"label": "Las Carreras", "lat": 22.450078, "lng": -104.312579
},{
"label": "La Ceja", "lat": 22.867418, "lng": -104.3686
},{
"label": "Arroyo de Toros", "lat": 22.493239, "lng": -104.574661
},{
"label": "La Cascada", "lat": 23.028947, "lng": -104.654843
},{
"label": "El Cerrito", "lat": 23.103301, "lng": -104.669551
},{
"label": "El Borrego", "lat": 23.307996, "lng": -104.651861
},{
"label": "Potreros", "lat": 22.771488, "lng": -104.9002
},{
"label": "La Escondida", "lat": 22.817442, "lng": -104.840537
},{
"label": "Rancho de las Manzanillas", "lat": 22.954229, "lng": -104.638009
},{
"label": "Tortugas", "lat": 22.733211, "lng": -104.820251
},{
"label": "Los Duraznos", "lat": 22.969388, "lng": -104.632997
},{
"label": "El Pazote", "lat": 23.046762, "lng": -104.497741
},{
"label": "Cerro Verde", "lat": 22.938089, "lng": -104.376906
},{
"label": "Las Mariposas", "lat": 23.287465, "lng": -104.724611
},{
"label": "Pila del Macho", "lat": 22.555875, "lng": -104.495619
},{
"label": "El Cortador", "lat": 23.418852, "lng": -104.354514
},{
"label": "Mesa Alteña", "lat": 22.490819, "lng": -104.303182
},{
"label": "Las Palmas", "lat": 23.100844, "lng": -104.638092
},{
"label": "Mesa de Azafranes", "lat": 22.918821, "lng": -104.438189
},{
"label": "Lirio Blanco", "lat": 22.506044, "lng": -104.389783
},{
"label": "La Candelaria", "lat": 23.355508, "lng": -104.481806
},{
"label": "Los Gallos", "lat": 22.685166, "lng": -104.862331
},{
"label": "Cordón el Carrizal", "lat": 22.591746, "lng": -104.367182
},{
"label": "Puerto de Milpas", "lat": 23.075224, "lng": -104.676723
},{
"label": "Los Cordones (Rincones)", "lat": 22.783088, "lng": -104.390376
},{
"label": "Bajío de la Laguna", "lat": 23.087277, "lng": -104.522742
},{
"label": "Santo Niño", "lat": 23.587826, "lng": -104.492177
},{
"label": "Saucito", "lat": 22.855344, "lng": -104.973008
},{
"label": "Luis Cardenas", "lat": 22.49886, "lng": -104.581448
},{
"label": "El Quitapeiste", "lat": 22.856554, "lng": -104.905352
},{
"label": "Las Crucitas", "lat": 22.567006, "lng": -104.614432
},{
"label": "Santiaguillo", "lat": 23.080174, "lng": -104.487799
},{
"label": "Las Piedras", "lat": 23.073674, "lng": -104.751994
},{
"label": "Piedras Blancas (Los Zarabiques)", "lat": 23.012939, "lng": -104.653013
},{
"label": "La Leonera (Ismael Hernández) [Rancho]", "lat": 23.475923, "lng": -104.400034
},{
"label": "Tepetate", "lat": 22.809134, "lng": -104.847078
},{
"label": "Rancho Nuevo", "lat": 22.703565, "lng": -104.537654
},{
"label": "Santa María de las Flores", "lat": 22.862165, "lng": -104.307643
},{
"label": "Los Sauces", "lat": 22.672538, "lng": -104.486651
},{
"label": "Alamitos", "lat": 22.563373, "lng": -104.318
},{
"label": "La Brillera", "lat": 22.677141, "lng": -104.285176
},{
"label": "Calitique", "lat": 22.439614, "lng": -104.418919
},{
"label": "Los Amoles (La Reja)", "lat": 22.753093, "lng": -104.288563
},{
"label": "El Tecolote", "lat": 23.151022, "lng": -104.481752
},{
"label": "Petacas", "lat": 22.529523, "lng": -104.447406
},{
"label": "Las Mojoneras", "lat": 22.872775, "lng": -104.693081
},{
"label": "Leña Amontonada", "lat": 23.025584, "lng": -104.755526
},{
"label": "Cuesta Blanca (Agüita Escondida)", "lat": 23.290069, "lng": -104.342229
},{
"label": "Azucena", "lat": 22.823086, "lng": -104.903854
},{
"label": "El Tejaban", "lat": 23.051797, "lng": -104.330954
},{
"label": "El Purgatorio", "lat": 22.538649, "lng": -104.544114
},{
"label": "Tecomates", "lat": 23.280406, "lng": -104.442145
},{
"label": "Las Coloradas", "lat": 23.297309, "lng": -104.781593
},{
"label": "Los Horcones", "lat": 22.963696, "lng": -104.719646
},{
"label": "La Estrella", "lat": 22.644138, "lng": -104.603073
},{
"label": "Jocouixtle (Palo Amarillo)", "lat": 22.545316, "lng": -104.474946
},{
"label": "El Llanito", "lat": 22.784238, "lng": -104.370788
},{
"label": "Tierras Blancas", "lat": 22.592848, "lng": -104.74014
},{
"label": "El Naranjo", "lat": 22.547738, "lng": -104.410439
},{
"label": "Los Borregos", "lat": 23.144583, "lng": -104.693707
},{
"label": "Ciénega del Oso", "lat": 23.071701, "lng": -104.341644
},{
"label": "Combustita", "lat": 22.662644, "lng": -104.606429
},{
"label": "Puerto de Corralitos", "lat": 22.787952, "lng": -104.362828
},{
"label": "Muruata", "lat": 22.734253, "lng": -104.461933
},{
"label": "Cerro de las Mesas", "lat": 22.746543, "lng": -104.500866
},{
"label": "Mesa de los Horcones", "lat": 23.035449, "lng": -104.667155
},{
"label": "Mesa de la Bandera", "lat": 22.696852, "lng": -104.283703
},{
"label": "El Yeguate", "lat": 22.779653, "lng": -104.630918
},{
"label": "Campamento Canoas", "lat": 22.621562, "lng": -104.295175
},{
"label": "Los Lamentos", "lat": 22.421986, "lng": -104.410218
},{
"label": "Pelillos", "lat": 23.421135, "lng": -104.695542
},{
"label": "El Oso", "lat": 23.413239, "lng": -104.429194
},{
"label": "Los Corralitos", "lat": 22.857235, "lng": -104.915061
},{
"label": "Los Duraznitos", "lat": 22.986859, "lng": -104.630046
},{
"label": "Tomasa Solís", "lat": 22.764997, "lng": -104.35
},{
"label": "Picachos Dos", "lat": 22.754694, "lng": -104.641158
},{
"label": "Tepetates Blancos", "lat": 23.09348, "lng": -104.44364
},{
"label": "Las Minas", "lat": 22.976053, "lng": -104.656689
},{
"label": "Tepetates", "lat": 22.381906, "lng": -104.489488
},{
"label": "Cerro Agujerado", "lat": 22.64649, "lng": -104.52292
},{
"label": "Cuernavaca", "lat": 23.278975, "lng": -104.428477
},{
"label": "El Arrayán (El Guayabo)", "lat": 22.38263, "lng": -104.534216
},{
"label": "Los Zancudos", "lat": 22.869378, "lng": -104.727033
},{
"label": "Cantaros", "lat": 23.030109, "lng": -104.780365
},{
"label": "Mezquite Gacho", "lat": 23.127382, "lng": -104.61909
},{
"label": "Minas Negras", "lat": 23.399917, "lng": -104.505067
},{
"label": "La Mesita del Rincón", "lat": 22.832714, "lng": -104.807885
},{
"label": "El Limoncito", "lat": 22.967542, "lng": -104.626037
},{
"label": "Arroyo de Agua", "lat": 23.470917, "lng": -104.570434
},{
"label": "Metates", "lat": 22.914763, "lng": -104.487834
},{
"label": "Tierras Amarillas", "lat": 23.020331, "lng": -104.452658
},{
"label": "Las Chiches", "lat": 22.676706, "lng": -104.412728
},{
"label": "La Chira", "lat": 22.606876, "lng": -104.57211
},{
"label": "El Pinole Quemado (El Pinole)", "lat": 22.983629, "lng": -104.371975
},{
"label": "San Bernabé", "lat": 22.616899, "lng": -104.548358
},{
"label": "Las Ramadas", "lat": 23.028163, "lng": -104.683839
},{
"label": "El Agostadero", "lat": 22.857866, "lng": -104.20016
},{
"label": "Los Arbolitos", "lat": 22.851983, "lng": -104.352956
},{
"label": "Los Picachos", "lat": 22.662052, "lng": -104.500178
},{
"label": "Arroyo el Limón", "lat": 22.472333, "lng": -104.555487
},{
"label": "El Pata de Gallo", "lat": 22.984078, "lng": -104.673263
},{
"label": "Chichocta", "lat": 22.94363, "lng": -104.633803
},{
"label": "La Silleta", "lat": 22.818823, "lng": -104.238308
},{
"label": "Altamira", "lat": 22.679235, "lng": -104.30751
},{
"label": "La Noria", "lat": 22.767242, "lng": -104.600816
},{
"label": "Los Chalates", "lat": 22.517724, "lng": -104.557198
},{
"label": "Saucito (Los Monos)", "lat": 22.685314, "lng": -104.503841
},{
"label": "Clavellina", "lat": 22.81892, "lng": -104.414025
},{
"label": "Los Limones", "lat": 22.483556, "lng": -104.428763
},{
"label": "Los Cerros", "lat": 22.90398, "lng": -104.839914
},{
"label": "La Guajolota", "lat": 22.961742, "lng": -104.629202
},{
"label": "La Semilla", "lat": 22.682775, "lng": -104.603333
},{
"label": "Chapotán (Pino Real)", "lat": 22.81367, "lng": -104.620714
},{
"label": "Banco del Nopal (Los Pinoles)", "lat": 22.430991, "lng": -104.441221
},{
"label": "Mesa del Pájaro", "lat": 22.902599, "lng": -104.327983
},{
"label": "Mesa de Bajío", "lat": 22.448513, "lng": -104.348518
},{
"label": "El Salitre", "lat": 23.429581, "lng": -104.41483
},{
"label": "Torrecillas", "lat": 22.69476, "lng": -104.351895
},{
"label": "Rodeo", "lat": 22.840611, "lng": -104.721667
},{
"label": "Los Metates", "lat": 22.752246, "lng": -104.393996
},{
"label": "Agua Verde", "lat": 22.743006, "lng": -104.621308
},{
"label": "Los Coyautes", "lat": 22.691257, "lng": -104.348144
},{
"label": "El Chapulín", "lat": 22.9596, "lng": -104.521171
},{
"label": "El Alamito", "lat": 22.99852, "lng": -104.358871
},{
"label": "La Guacamaya", "lat": 22.752726, "lng": -104.898946
},{
"label": "Capultita", "lat": 22.599735, "lng": -104.600501
},{
"label": "Banco Colorado", "lat": 22.433097, "lng": -104.349662
},{
"label": "Las Ciruelas", "lat": 22.828081, "lng": -104.309503
},{
"label": "La Joyita Escondida", "lat": 22.831858, "lng": -104.778312
},{
"label": "Los Escalones", "lat": 23.297765, "lng": -104.405298
},{
"label": "El Carpintero", "lat": 23.26475, "lng": -104.546644
},{
"label": "Barriles", "lat": 22.584022, "lng": -104.422645
},{
"label": "El Troncón", "lat": 23.491921, "lng": -104.388985
},{
"label": "La Haciendita", "lat": 22.500662, "lng": -104.423303
},{
"label": "El Pinito", "lat": 22.458191, "lng": -104.39645
},{
"label": "Las Tres Cruces", "lat": 22.985124, "lng": -104.560859
},{
"label": "Sombrero Quemado", "lat": 22.965089, "lng": -104.707735
},{
"label": "Las Lajas", "lat": 22.663789, "lng": -104.399502
},{
"label": "Pino Rodeado", "lat": 23.053789, "lng": -104.592711
},{
"label": "Las Esperanzas", "lat": 22.631384, "lng": -104.290284
},{
"label": "Pénjamo", "lat": 23.361743, "lng": -104.690431
},{
"label": "Peñas Coloradas", "lat": 22.756146, "lng": -104.392227
},{
"label": "Cebolleta", "lat": 22.806277, "lng": -104.497497
},{
"label": "La Ventanilla", "lat": 22.812309, "lng": -104.468876
},{
"label": "El Puerto del Carrizal", "lat": 22.629612, "lng": -104.336214
},{
"label": "Las Palmitas", "lat": 23.08936, "lng": -104.604098
},{
"label": "Candelaria del Alto", "lat": 23.08, "lng": -104.545556
},{
"label": "Entronque de Llano Grande", "lat": 22.958502, "lng": -104.501872
},{
"label": "Carretones", "lat": 22.516838, "lng": -104.421755
},{
"label": "El Encino", "lat": 22.906258, "lng": -104.425165
},{
"label": "La Gloria (Canoas)", "lat": 22.61327, "lng": -104.296706
},{
"label": "Agua Hedionda", "lat": 23.28635, "lng": -104.490764
},{
"label": "Loma Alta", "lat": 22.508649, "lng": -104.592169
},{
"label": "Chachacuaxtle", "lat": 23.680036, "lng": -104.298135
},{
"label": "Senaido Soto", "lat": 22.817128, "lng": -104.268716
},{
"label": "El Llano", "lat": 22.903386, "lng": -104.785383
},{
"label": "Pino Redondo", "lat": 23.117845, "lng": -104.635763
},{
"label": "Puerta de Pericos", "lat": 22.630781, "lng": -104.478652
},{
"label": "Minillas", "lat": 22.546721, "lng": -104.387529
},{
"label": "Amatán", "lat": 22.533649, "lng": -104.556336
},{
"label": "Durango", "lat": 23.100189, "lng": -104.738409
},{
"label": "Los Coyotes", "lat": 22.610407, "lng": -104.888001
},{
"label": "Rancho de los Encinos Colorados", "lat": 22.916145, "lng": -104.395794
},{
"label": "El Limón", "lat": 23.49676, "lng": -104.378167
},{
"label": "Las Pilas", "lat": 22.401771, "lng": -104.488865
},{
"label": "Cerro de la Rodilla", "lat": 22.909446, "lng": -104.603081
},{
"label": "Piedras Planas", "lat": 22.888368, "lng": -104.344681
},{
"label": "Cuamyam (La Joyita)", "lat": 23.092369, "lng": -104.595654
},{
"label": "Escalera", "lat": 22.661811, "lng": -104.641966
},{
"label": "Las Mesitas", "lat": 23.139617, "lng": -104.584997
},{
"label": "Tempisque", "lat": 22.665119, "lng": -104.440306
},{
"label": "Las Quebradas", "lat": 22.886474, "lng": -104.385871
},{
"label": "Agua Fría", "lat": 22.653163, "lng": -104.563273
},{
"label": "Las Espinas", "lat": 22.640557, "lng": -104.485153
},{
"label": "Puerto el Gatuño", "lat": 22.449799, "lng": -104.405643
},{
"label": "Canoítas (Canoas Dos)", "lat": 22.721057, "lng": -104.569218
},{
"label": "Piedra Ancha", "lat": 23.018916, "lng": -104.937196
},{
"label": "Mesa de la Laguna", "lat": 23.149398, "lng": -104.44719
},{
"label": "Tabla Parada", "lat": 22.809033, "lng": -104.603826
},{
"label": "Las Colmenas", "lat": 22.780609, "lng": -104.645778
},{
"label": "El Tambor", "lat": 22.948521, "lng": -104.617814
},{
"label": "Enramadas", "lat": 22.584206, "lng": -104.330501
},{
"label": "El Zapote", "lat": 22.518589, "lng": -104.403359
},{
"label": "La Gatuña", "lat": 23.366531, "lng": -104.522944
},{
"label": "La Redonda", "lat": 22.899274, "lng": -104.465512
},{
"label": "Cihuacora", "lat": 22.817771, "lng": -104.915564
},{
"label": "Las Cuevitas (Entronque Alamitos)", "lat": 23.052619, "lng": -104.256637
},{
"label": "Las Lomas", "lat": 22.764471, "lng": -104.642604
},{
"label": "Los Pinos", "lat": 22.989971, "lng": -104.823788
},{
"label": "La Buñiga", "lat": 22.682307, "lng": -104.581598
},{
"label": "Llano del Bajío", "lat": 22.942934, "lng": -104.72307
},{
"label": "Rancho de Beto", "lat": 23.300026, "lng": -104.644703
},{
"label": "Tres Cerritos", "lat": 22.779158, "lng": -104.300397
},{
"label": "Mesa de las Milpas", "lat": 22.755704, "lng": -104.513647
},{
"label": "Los Limoncitos", "lat": 22.82011, "lng": -104.201901
},{
"label": "Las Higuerillas", "lat": 22.448776, "lng": -104.561401
},{
"label": "Coyotes", "lat": 22.556139, "lng": -104.622624
},{
"label": "Peñascos Blancos", "lat": 22.850616, "lng": -104.387296
},{
"label": "La Tinajita", "lat": 23.747903, "lng": -104.383711
},{
"label": "Piedra de Amolar", "lat": 22.720821, "lng": -104.533784
},{
"label": "Las Lagunitas", "lat": 22.513401, "lng": -104.518093
},{
"label": "Los Nopales", "lat": 22.887862, "lng": -104.703258
},{
"label": "El Peñasco (Relices)", "lat": 22.853982, "lng": -104.830812
},{
"label": "El Saucito", "lat": 23.168318, "lng": -104.351687
},{
"label": "Cordón de Joyancas", "lat": 22.476947, "lng": -104.605004
},{
"label": "Las Minas (Las Minitas)", "lat": 22.819051, "lng": -104.325923
},{
"label": "La Mesa del Cordón", "lat": 22.894329, "lng": -104.718513
},{
"label": "Las Joyas de Abajo", "lat": 22.730317, "lng": -104.330224
},{
"label": "Santa Elena del Río", "lat": 23.521834, "lng": -104.381989
},{
"label": "Sudai Sabar Mir", "lat": 22.821735, "lng": -104.511718
},{
"label": "La Pinuda", "lat": 23.44836, "lng": -104.338593
},{
"label": "Santo Domingo", "lat": 22.374468, "lng": -104.531236
},{
"label": "La Puerta", "lat": 22.640358, "lng": -104.336616
},{
"label": "Los Corrales", "lat": 22.636824, "lng": -104.568288
},{
"label": "El Sapo", "lat": 22.709928, "lng": -104.640323
},{
"label": "Los Fresnos", "lat": 23.14642, "lng": -104.467655
},{
"label": "Los Órganos", "lat": 23.062116, "lng": -104.805143
},{
"label": "Santa Gertrudis", "lat": 23.548064, "lng": -104.37638
},{
"label": "La Peña (Las Bolsas)", "lat": 22.631622, "lng": -104.395625
},{
"label": "Los Mezquites", "lat": 22.486377, "lng": -104.546757
},{
"label": "Bajío San Lucas", "lat": 23.068922, "lng": -104.305243
},{
"label": "El Descanso", "lat": 23.536475, "lng": -104.299223
},{
"label": "Los Asqueles", "lat": 23.13913, "lng": -104.486142
},{
"label": "La Mesa de San Bernabe", "lat": 22.631395, "lng": -104.539791
},{
"label": "Vainillas", "lat": 23.062057, "lng": -104.743158
},{
"label": "Ceja de los Cuervos", "lat": 22.751946, "lng": -104.48403
},{
"label": "Ceja de Toyana", "lat": 22.923658, "lng": -104.243529
},{
"label": "Llano de Jerusalén", "lat": 22.997219, "lng": -104.879167
},{
"label": "Las Sillas (Los Justes)", "lat": 22.862034, "lng": -104.941374
},{
"label": "Mesilla de Maguey", "lat": 23.141811, "lng": -104.591379
},{
"label": "Los Lobos", "lat": 22.980137, "lng": -104.717128
},{
"label": "Vigilia", "lat": 22.494541, "lng": -104.512993
},{
"label": "Ceja de los Encinos", "lat": 22.918719, "lng": -104.423714
},{
"label": "El Pino", "lat": 23.578081, "lng": -104.330821
},{
"label": "Bancos", "lat": 22.715529, "lng": -104.308312
},{
"label": "Mesilla Huizache", "lat": 23.155428, "lng": -104.562164
},{
"label": "Rancho del Bajío", "lat": 23.061418, "lng": -104.518858
},{
"label": "Los Coconos", "lat": 22.930034, "lng": -104.337182
},{
"label": "Crucero del Carrizo", "lat": 22.457781, "lng": -104.303609
},{
"label": "San Isidro", "lat": 23.214969, "lng": -104.440803
},{
"label": "La Joya", "lat": 23.238017, "lng": -104.434241
},{
"label": "Zapotes (Rancho Viejo)", "lat": 22.731866, "lng": -104.543495
},{
"label": "Tortuguillas", "lat": 23.670497, "lng": -104.285229
},{
"label": "La Angostura (El Aguacate)", "lat": 22.710171, "lng": -104.83513
},{
"label": "Mesa de Soyates", "lat": 22.667291, "lng": -104.29437
},{
"label": "La Cueva", "lat": 23.279171, "lng": -104.594532
},{
"label": "El Tescalame", "lat": 22.677242, "lng": -104.429073
},{
"label": "El Entronque", "lat": 23.338608, "lng": -104.689444
},{
"label": "El Sotolito", "lat": 22.801481, "lng": -104.449053
},{
"label": "Galilea", "lat": 22.942688, "lng": -104.547616
},{
"label": "El Saltito", "lat": 22.971347, "lng": -104.485263
},{
"label": "Sotolita", "lat": 22.613841, "lng": -104.373288
},{
"label": "La Mesa del Jabalí (Marrano Parado)", "lat": 22.962779, "lng": -104.341634
},{
"label": "Los Berros", "lat": 22.700832, "lng": -104.301552
},{
"label": "El Pino Ligado", "lat": 23.115586, "lng": -104.448025
},{
"label": "Bajío del Comal", "lat": 22.890866, "lng": -104.606074
},{
"label": "San Antonio de Padua", "lat": 22.550681, "lng": -104.502904
},{
"label": "El Rincón (Los Horcones)", "lat": 22.858829, "lng": -104.765143
},{
"label": "Los Mesteños", "lat": 22.936686, "lng": -104.425908
},{
"label": "Piedras Negras", "lat": 22.925263, "lng": -104.605022
},{
"label": "El Cordón", "lat": 22.541467, "lng": -104.538675
},{
"label": "La Meza", "lat": 22.658903, "lng": -104.588916
},{
"label": "Pirame de Arriba", "lat": 22.712913, "lng": -104.287308
},{
"label": "Maguey Enterrado (La Ventanita)", "lat": 22.697886, "lng": -104.505609
},{
"label": "Horcones (Barbechos)", "lat": 22.899622, "lng": -104.53222
},{
"label": "San Nicolás", "lat": 22.598276, "lng": -104.877533
},{
"label": "San Lucas", "lat": 22.817422, "lng": -104.256857
},{
"label": "Las Milpas", "lat": 23.092709, "lng": -104.434163
},{
"label": "Magueyes", "lat": 22.722011, "lng": -104.290441
},{
"label": "El Orégano", "lat": 23.712522, "lng": -104.435828
},{
"label": "Juan Pablo Cardenas", "lat": 22.486179, "lng": -104.57148
},{
"label": "El Escorpión", "lat": 22.739961, "lng": -104.2771
},{
"label": "Minitas", "lat": 22.796767, "lng": -104.57589
},{
"label": "Capulines", "lat": 22.493279, "lng": -104.560491
},{
"label": "Pinos Secos", "lat": 22.830486, "lng": -104.479795
},{
"label": "La Bolsa", "lat": 22.458199, "lng": -104.427898
},{
"label": "Cueva Delgada", "lat": 22.923547, "lng": -104.620949
},{
"label": "Berenjén (Tepetates Dos)", "lat": 22.563645, "lng": -104.959379
},{
"label": "Arroyo los Arrayanes", "lat": 22.427541, "lng": -104.405774
},{
"label": "Tepetates de la Sierra", "lat": 22.511205, "lng": -104.320031
},{
"label": "Abelino Castañeda", "lat": 22.750679, "lng": -104.818532
},{
"label": "Lechuguillas [Rancho]", "lat": 23.087968, "lng": -104.579608
},{
"label": "La Nopalera", "lat": 22.803976, "lng": -104.46758
},{
"label": "Lecherías", "lat": 23.62058, "lng": -104.341101
},{
"label": "El Puertecito", "lat": 22.431152, "lng": -104.403552
},{
"label": "Copales", "lat": 23.358131, "lng": -104.685431
},{
"label": "Las Estrellas", "lat": 22.888821, "lng": -104.720985
},{
"label": "Los Hoyos", "lat": 22.771753, "lng": -104.352597
},{
"label": "Las Manzanas", "lat": 22.848858, "lng": -104.505895
},{
"label": "Cebollitas", "lat": 23.063666, "lng": -104.586189
},{
"label": "Bajío del Llano", "lat": 22.845948, "lng": -104.529762
},{
"label": "Las Pipas", "lat": 22.731837, "lng": -104.667746
},{
"label": "Los Gavilanes", "lat": 22.82783, "lng": -104.913643
},{
"label": "Peñasco Blanco", "lat": 22.944125, "lng": -104.94517
},{
"label": "Los Cordones (La Ciénega)", "lat": 22.76637, "lng": -104.627365
},{
"label": "Las Montañas", "lat": 22.695074, "lng": -104.47836
},{
"label": "Las Tortugas", "lat": 22.590028, "lng": -104.950134
},{
"label": "Mesa de la Cebolleta", "lat": 22.653567, "lng": -104.349882
},{
"label": "La Mesa de San José", "lat": 23.218098, "lng": -104.548911
},{
"label": "Los Álamos", "lat": 22.956301, "lng": -104.685728
},{
"label": "El Toro", "lat": 22.71378, "lng": -104.62244
},{
"label": "La Tinaja", "lat": 22.627268, "lng": -104.572881
},{
"label": "El Peyote", "lat": 23.274544, "lng": -104.499635
},{
"label": "Los Pedernales", "lat": 23.236723, "lng": -104.610296
},{
"label": "La Mesa de San Buena (San Buena)", "lat": 22.727924, "lng": -104.42299
},{
"label": "Los Lobos (El Rincón)", "lat": 23.192802, "lng": -104.408356
},{
"label": "Bagres", "lat": 22.937159, "lng": -104.759295
},{
"label": "Bajío de Carrizales", "lat": 22.841556, "lng": -104.408977
},{
"label": "Las Boticas", "lat": 23.37659, "lng": -104.284559
},{
"label": "La Herradura", "lat": 23.088919, "lng": -104.500247
},{
"label": "La Mesa del Jacal", "lat": 23.230145, "lng": -104.600416
},{
"label": "Cumbre de la Laguna", "lat": 23.151522, "lng": -104.452196
},{
"label": "Cerro Viejo", "lat": 22.802867, "lng": -104.529814
},{
"label": "Los Pinitos", "lat": 23.623913, "lng": -104.33749
},{
"label": "Los Huaises", "lat": 22.640178, "lng": -104.543295
},{
"label": "Mesa de las Nieves", "lat": 22.86882, "lng": -104.281871
},{
"label": "Macho Parado", "lat": 22.795853, "lng": -104.561038
},{
"label": "Chilacayotes", "lat": 22.638381, "lng": -104.303403
},{
"label": "Las Guacamayas", "lat": 22.741866, "lng": -104.301268
},{
"label": "El Potrero", "lat": 22.588193, "lng": -104.513584
},{
"label": "Adelaido Santana", "lat": 22.881856, "lng": -104.718278
},{
"label": "El Carrizal", "lat": 22.694546, "lng": -104.595787
},{
"label": "El Cuervito", "lat": 22.453096, "lng": -104.392441
},{
"label": "Los Tejones", "lat": 22.898501, "lng": -104.610151
},{
"label": "La Joyanca", "lat": 22.571793, "lng": -104.300499
},{
"label": "El Reventón", "lat": 23.241022, "lng": -104.625125
},{
"label": "Cerro de las Papas", "lat": 23.030244, "lng": -104.646135
},{
"label": "Cerro Picudo", "lat": 23.111142, "lng": -104.401635
},{
"label": "La Loma", "lat": 22.414769, "lng": -104.568511
},{
"label": "El Laurel", "lat": 23.543708, "lng": -104.320431
},{
"label": "El Huas", "lat": 22.734223, "lng": -104.400016
},{
"label": "El Sombrero", "lat": 22.833219, "lng": -104.416945
},{
"label": "Mesa de los Lobos (Lobitos)", "lat": 23.058313, "lng": -104.566454
},{
"label": "La Esperanza", "lat": 23.580403, "lng": -104.367431
},{
"label": "Arroyo Hondo", "lat": 23.24725, "lng": -104.568866
},{
"label": "Puerto del Bule", "lat": 22.825315, "lng": -104.206342
},{
"label": "Bajío de la China", "lat": 22.775906, "lng": -104.504484
},{
"label": "Cerro Bolillo", "lat": 22.881255, "lng": -104.653817
},{
"label": "Chalchihuitillo", "lat": 22.698821, "lng": -104.48117
},{
"label": "Soyates", "lat": 23.35225, "lng": -104.363867
},{
"label": "Chachalotes", "lat": 22.905691, "lng": -104.635864
},{
"label": "El Rincón de Peyotan", "lat": 22.380319, "lng": -104.504663
},{
"label": "Los Pozos", "lat": 23.3341, "lng": -104.718081
},{
"label": "Los Cajones", "lat": 22.640316, "lng": -104.334114
},{
"label": "Agua Seca", "lat": 22.726463, "lng": -104.628453
},{
"label": "Las Glorias", "lat": 22.661545, "lng": -104.309895
},{
"label": "Los Sombreros", "lat": 23.129969, "lng": -104.594173
},{
"label": "Los Jabones", "lat": 22.755839, "lng": -104.503521
},{
"label": "Santiago Teneraca", "lat": 23.081619, "lng": -104.75764
},{
"label": "Las Hormigas", "lat": 22.614793, "lng": -104.908999
},{
"label": "Hervidero", "lat": 22.647681, "lng": -104.561224
},{
"label": "Puerto del Aguililla", "lat": 22.97536, "lng": -104.5483
},{
"label": "Pino Real de Jabalín", "lat": 22.948029, "lng": -104.344738
},{
"label": "Barbechitos", "lat": 22.988565, "lng": -104.873718
},{
"label": "Tierra Arada", "lat": 22.69073, "lng": -104.289052
},{
"label": "Santa Mónica", "lat": 23.708652, "lng": -104.436409
},{
"label": "La Jabonera", "lat": 22.61113, "lng": -104.528223
},{
"label": "San Buenaventura", "lat": 22.606008, "lng": -104.910035
},{
"label": "Palomas", "lat": 22.919473, "lng": -104.781625
},{
"label": "Los Soyates (El Chapulín)", "lat": 22.866738, "lng": -104.291141
},{
"label": "Cabezas", "lat": 22.581774, "lng": -104.709014
},{
"label": "La Curva", "lat": 23.11484, "lng": -104.419832
},{
"label": "Los Perros", "lat": 22.681634, "lng": -104.624984
},{
"label": "Mesa del Gavilancillo", "lat": 22.941086, "lng": -104.612728
},{
"label": "Los Hornos", "lat": 22.663206, "lng": -104.760655
},{
"label": "San Francisco del Mezquital", "lat": 23.47353, "lng": -104.396744
},{
"label": "El Convento", "lat": 23.428795, "lng": -104.424333
},{
"label": "Alberto Gurrola", "lat": 23.110977, "lng": -104.497731
},{
"label": "Brasiles", "lat": 22.456116, "lng": -104.485681
},{
"label": "Canoas 3", "lat": 22.742544, "lng": -104.674359
},{
"label": "Gavilancillos", "lat": 22.933287, "lng": -104.224117
},{
"label": "Murciélagos", "lat": 22.767467, "lng": -104.387086
},{
"label": "Angostura", "lat": 22.632462, "lng": -104.490147
},{
"label": "El Banquito", "lat": 23.21697, "lng": -104.751923
},{
"label": "Los Barriles (Barrilitos)", "lat": 22.909198, "lng": -104.691909
},{
"label": "Platanitos", "lat": 23.147615, "lng": -104.563487
},{
"label": "Peñasco Blanco (La Vinata)", "lat": 22.718594, "lng": -104.549
},{
"label": "Ciénega Ladera", "lat": 22.822982, "lng": -104.368291
},{
"label": "El Madroño", "lat": 23.063943, "lng": -104.683801
},{
"label": "Catarino Solís Márquez", "lat": 22.840591, "lng": -104.366623
},{
"label": "Conejos", "lat": 22.544206, "lng": -104.434946
},{
"label": "Los Altos de las Quebradas", "lat": 22.894292, "lng": -104.389906
},{
"label": "Buenavista (Los Chapotes)", "lat": 23.120018, "lng": -104.523588
},{
"label": "Lechuguillas", "lat": 22.627332, "lng": -104.382955
},{
"label": "Yerbaníz", "lat": 22.695633, "lng": -104.66985
},{
"label": "Huazamotita", "lat": 22.694462, "lng": -104.626368
},{
"label": "La Pista", "lat": 23.206832, "lng": -104.752347
},{
"label": "Mesa de Duraznitos", "lat": 22.948917, "lng": -104.640219
},{
"label": "Cerritos", "lat": 22.709645, "lng": -104.271851
},{
"label": "Yerbanís", "lat": 22.904532, "lng": -104.727332
},{
"label": "Faustino Galindo", "lat": 22.85864, "lng": -104.756404
},{
"label": "Los Bosques", "lat": 22.614761, "lng": -104.31828
},{
"label": "El Durazno (Duraznitos)", "lat": 22.711866, "lng": -104.499884
},{
"label": "Picachos (Barranca de los Picachos)", "lat": 22.622233, "lng": -104.376649
},{
"label": "Mesa de las Madres", "lat": 22.936948, "lng": -104.749445
},{
"label": "Los Madroños", "lat": 23.142228, "lng": -104.663937
},{
"label": "Arroyo de los Limones", "lat": 22.658675, "lng": -104.465975
},{
"label": "Colomos", "lat": 22.81473, "lng": -104.802117
},{
"label": "Charco Largo", "lat": 23.29912, "lng": -104.379291
},{
"label": "La Mesa", "lat": 23.351066, "lng": -104.491177
},{
"label": "Coscomates", "lat": 22.502301, "lng": -104.553376
},{
"label": "El Coleadero", "lat": 23.43926, "lng": -104.331816
},{
"label": "Chapotán de Arriba", "lat": 23.385823, "lng": -104.563557
},{
"label": "La Cebadilla", "lat": 23.386413, "lng": -104.733041
},{
"label": "Emiliano Mendía", "lat": 22.819478, "lng": -104.553014
},{
"label": "Huerta Santa Cruz", "lat": 22.976386, "lng": -104.886667
},{
"label": "Los Cuervos", "lat": 23.119146, "lng": -104.70038
},{
"label": "El Bajío", "lat": 23.054129, "lng": -104.449835
},{
"label": "Tepetates Colorados", "lat": 22.925919, "lng": -104.299019
},{
"label": "Cofradía", "lat": 22.412487, "lng": -104.427612
},{
"label": "Chalates", "lat": 22.86294, "lng": -104.890084
},{
"label": "La Bajada [Rancho]", "lat": 22.835544, "lng": -104.536384
},{
"label": "Llano de Jacalitos", "lat": 23.026226, "lng": -104.838986
},{
"label": "Los Sotoles", "lat": 23.165194, "lng": -104.617724
},{
"label": "El Cerro", "lat": 22.971251, "lng": -104.49048
},{
"label": "Los Zapotes", "lat": 22.532538, "lng": -104.573003
},{
"label": "Guadalajara", "lat": 22.456986, "lng": -104.356052
},{
"label": "Bajío de Gavilanes", "lat": 22.794188, "lng": -104.251717
},{
"label": "Zalatita", "lat": 22.743154, "lng": -104.384008
},{
"label": "Penillas", "lat": 22.625738, "lng": -104.35995
},{
"label": "Las Trementinas", "lat": 23.259763, "lng": -104.749816
},{
"label": "Tamales", "lat": 22.879234, "lng": -104.438518
},{
"label": "La Higuerita", "lat": 22.83439, "lng": -104.10697
},{
"label": "Los Bancos", "lat": 22.909084, "lng": -104.492461
},{
"label": "La Patilla", "lat": 23.693273, "lng": -104.280799
},{
"label": "Tecomatita", "lat": 22.563837, "lng": -104.505476
},{
"label": "Las Bonitas", "lat": 22.843912, "lng": -104.350481
},{
"label": "El Rincón (Troncones)", "lat": 22.944546, "lng": -104.645477
},{
"label": "Los Barbechos", "lat": 23.006069, "lng": -104.743169
},{
"label": "Los Marranos", "lat": 23.065842, "lng": -104.484779
},{
"label": "La Ladera", "lat": 22.713961, "lng": -104.279578
},{
"label": "Camichiz", "lat": 22.568169, "lng": -104.493178
},{
"label": "Las Cruces", "lat": 22.760829, "lng": -104.68009
},{
"label": "Guayabitos", "lat": 22.660654, "lng": -104.480002
},{
"label": "Guamúchil", "lat": 22.836324, "lng": -104.441552
},{
"label": "La Frontera", "lat": 22.433009, "lng": -104.525949
},{
"label": "San José del Ranchito (El Ranchito)", "lat": 23.569682, "lng": -104.360196
},{
"label": "Mesa de los Hongos", "lat": 22.638582, "lng": -104.474903
},{
"label": "El Muerto Viejo", "lat": 23.604193, "lng": -104.297196
},{
"label": "La Escalera", "lat": 22.830244, "lng": -104.616831
},{
"label": "Las Víboras", "lat": 22.401001, "lng": -104.50165
},{
"label": "Bajío de la Ciénega", "lat": 22.810817, "lng": -104.340256
},{
"label": "San Miguel de las Espinas", "lat": 23.402227, "lng": -104.671508
},{
"label": "Fortines (Los Fortines)", "lat": 22.502728, "lng": -104.509108
},{
"label": "Los Ocotes", "lat": 22.657259, "lng": -104.510785
},{
"label": "Bajío de Milpillas (Tierra Sonando)", "lat": 22.995767, "lng": -104.627484
},{
"label": "Rancho el Olvido", "lat": 23.061591, "lng": -104.478696
},{
"label": "Muruata Chiquito", "lat": 22.643926, "lng": -104.457728
},{
"label": "Palo Moro", "lat": 23.125567, "lng": -104.578804
},{
"label": "Arroyo de Borrados", "lat": 23.482613, "lng": -104.564765
},{
"label": "Los Balones", "lat": 22.768618, "lng": -104.397339
},{
"label": "Ciénega del Zancudo Uno", "lat": 22.986062, "lng": -104.809899
},{
"label": "El Apago", "lat": 23.436678, "lng": -104.406569
},{
"label": "Predio el Burro", "lat": 23.397917, "lng": -104.292132
},{
"label": "Guayabito", "lat": 22.898768, "lng": -104.971087
},{
"label": "Cebollas 3", "lat": 22.886002, "lng": -104.77494
},{
"label": "Las Mariposas (Las Flores)", "lat": 22.888093, "lng": -104.744813
},{
"label": "La Cueva del Diablo", "lat": 22.782219, "lng": -104.682222
},{
"label": "Banco del Ciruelo (Las Adjuntas)", "lat": 22.526705, "lng": -104.567169
},{
"label": "El Tepetatal", "lat": 22.477291, "lng": -104.542109
},{
"label": "Las Avispas", "lat": 22.634339, "lng": -104.645864
},{
"label": "Los Leones", "lat": 22.85758, "lng": -104.877936
},{
"label": "San Miguel de Temohaya", "lat": 23.29981, "lng": -104.509093
},{
"label": "Ceja de Pericos", "lat": 22.862247, "lng": -104.399718
},{
"label": "La Ventanilla del Alto", "lat": 22.965213, "lng": -104.546907
},{
"label": "La Tijera", "lat": 23.387583, "lng": -104.358279
},{
"label": "Irak", "lat": 22.742957, "lng": -104.364799
},{
"label": "La Estancia", "lat": 22.584644, "lng": -104.486116
},{
"label": "Las Orejas", "lat": 22.926833, "lng": -104.822226
},{
"label": "Chilapa", "lat": 22.854487, "lng": -104.41599
},{
"label": "Los Fortines", "lat": 22.654204, "lng": -104.477451
},{
"label": "Los Acordeones", "lat": 22.66265, "lng": -104.515937
},{
"label": "El Silvancito", "lat": 23.363558, "lng": -104.488078
},{
"label": "Ángela Aguilar", "lat": 23.052078, "lng": -104.339124
},{
"label": "Cerro Gordo", "lat": 22.727182, "lng": -104.382035
},{
"label": "Los Ratones", "lat": 22.89917, "lng": -104.777207
},{
"label": "Los Troncones", "lat": 22.875651, "lng": -104.698826
},{
"label": "Las Enramadas", "lat": 22.666093, "lng": -104.729283
},{
"label": "La Alameda", "lat": 23.373637, "lng": -104.511926
},{
"label": "Piloncillos", "lat": 23.286528, "lng": -104.650899
},{
"label": "Metate Parado", "lat": 23.115862, "lng": -104.682751
},{
"label": "Cardosanto", "lat": 23.400509, "lng": -104.399994
},{
"label": "Mesa de la Cintura", "lat": 22.831119, "lng": -104.393353
},{
"label": "Las Joyas", "lat": 23.119678, "lng": -104.674029
},{
"label": "Carrizos", "lat": 23.198652, "lng": -104.778609
},{
"label": "Las Mesas del Bajío", "lat": 22.819067, "lng": -104.340282
},{
"label": "La Curata", "lat": 22.876443, "lng": -104.958738
},{
"label": "Órganos", "lat": 22.956473, "lng": -104.439891
},{
"label": "El Banco", "lat": 22.630251, "lng": -104.350966
},{
"label": "Tierra Blanca de las Ramadas", "lat": 23.043963, "lng": -104.696117
},{
"label": "El Huarache", "lat": 22.523095, "lng": -104.394389
},{
"label": "Ceja de los Sauces", "lat": 22.976446, "lng": -104.677409
},{
"label": "Las Joyas (Guayabitos)", "lat": 22.713209, "lng": -104.555986
},{
"label": "Las Arenas", "lat": 22.811759, "lng": -104.565748
},{
"label": "Siete Hermanos (El Frío)", "lat": 23.639617, "lng": -104.471106
},{
"label": "La Joyita", "lat": 22.740043, "lng": -104.446008
},{
"label": "Chalchihuites", "lat": 22.637288, "lng": -104.62645
},{
"label": "Piedra Parada", "lat": 22.861783, "lng": -104.501985
},{
"label": "Llano Chico", "lat": 22.947942, "lng": -104.604909
},{
"label": "Corpus", "lat": 22.863876, "lng": -104.807306
},{
"label": "María Brígida", "lat": 23.603366, "lng": -104.488244
},{
"label": "Yerbabuena", "lat": 23.076773, "lng": -104.734665
},{
"label": "La Mesa del Toro", "lat": 23.373431, "lng": -104.513021
},{
"label": "Piedras Altas", "lat": 22.680013, "lng": -104.788521
},{
"label": "Barrancos Prietos", "lat": 23.061553, "lng": -104.509346
},{
"label": "El Agua de los Coyotes", "lat": 22.400299, "lng": -104.441996
},{
"label": "El Ranchito", "lat": 23.062531, "lng": -104.483579
},{
"label": "Las Cuevitas", "lat": 22.638369, "lng": -104.643286
},{
"label": "Rancho de los Pérez", "lat": 23.541326, "lng": -104.377527
},{
"label": "Encinos Chaparros", "lat": 22.892584, "lng": -104.400634
},{
"label": "Cerrito Gordo", "lat": 23.143891, "lng": -104.640821
},{
"label": "Los Barros", "lat": 22.629129, "lng": -104.501537
},{
"label": "Bramaderos", "lat": 22.488329, "lng": -104.537452
},{
"label": "Cueva Escondida", "lat": 22.590454, "lng": -104.538989
},{
"label": "Las Botijas", "lat": 22.770416, "lng": -104.800614
},{
"label": "Mesa de las Manzanillas", "lat": 23.042583, "lng": -104.432657
},{
"label": "El Refugio", "lat": 23.573641, "lng": -104.371182
},{
"label": "La Buenavista", "lat": 23.097683, "lng": -104.452613
},{
"label": "El Guayabo", "lat": 22.387795, "lng": -104.531517
},{
"label": "Milpillas", "lat": 23.062531, "lng": -104.529413
},{
"label": "La Mesita", "lat": 22.803084, "lng": -104.904836
},{
"label": "Los Borrados", "lat": 23.166075, "lng": -104.481012
},{
"label": "La Leonera", "lat": 23.482442, "lng": -104.398217
},{
"label": "Santa Elenita", "lat": 23.55147, "lng": -104.369623
},{
"label": "Las Águilas", "lat": 23.108084, "lng": -104.67914
},{
"label": "Cerrito Blanco", "lat": 22.964878, "lng": -104.962662
},{
"label": "El Cotorro", "lat": 22.76012, "lng": -104.385288
},{
"label": "La Laguna", "lat": 22.511425, "lng": -104.501395
},{
"label": "San José del Bajío", "lat": 23.125947, "lng": -104.293239
},{
"label": "La Guacamayita", "lat": 23.332729, "lng": -104.712963
},{
"label": "Mesa de los Bancos", "lat": 22.647642, "lng": -104.514596
},{
"label": "Cerro Alto", "lat": 22.781236, "lng": -104.839047
},{
"label": "Las Peras", "lat": 23.023771, "lng": -104.861062
},{
"label": "La Lagunita", "lat": 23.408752, "lng": -104.339173
},{
"label": "San Juan del Mezquital (San Juan)", "lat": 23.47961, "lng": -104.472348
},{
"label": "Agüita Zarca", "lat": 23.157164, "lng": -104.476188
},{
"label": "Guajolote", "lat": 22.635641, "lng": -104.896133
},{
"label": "Los Carrizos", "lat": 23.129265, "lng": -104.58432
},{
"label": "Panales", "lat": 22.521793, "lng": -104.418352
},{
"label": "Timones", "lat": 23.077744, "lng": -104.330518
},{
"label": "Encino Verde", "lat": 23.096706, "lng": -104.610943
},{
"label": "Los Peines", "lat": 22.947155, "lng": -104.728247
},{
"label": "El Tapeiste", "lat": 22.453096, "lng": -104.419664
},{
"label": "La Ventana (Zapotes)", "lat": 22.747898, "lng": -104.373617
},{
"label": "Los Llanitos", "lat": 22.49652, "lng": -104.590678
},{
"label": "Llanito Soriana", "lat": 23.076173, "lng": -104.533272
},{
"label": "La Chía", "lat": 23.203476, "lng": -104.721146
},{
"label": "Agostadero el Coyote", "lat": 23.472238, "lng": -104.377575
},{
"label": "Puerta los Membrillos", "lat": 23.085344, "lng": -104.666825
},{
"label": "Los Chichamoles", "lat": 23.068598, "lng": -104.426154
},{
"label": "Rancho Amarillo", "lat": 22.814885, "lng": -104.43572
},{
"label": "Los Obscuros", "lat": 22.686664, "lng": -104.401344
},{
"label": "Las Campanas", "lat": 22.700309, "lng": -104.979684
},{
"label": "El Jabalí", "lat": 22.795871, "lng": -104.172174
},{
"label": "Pinos Chicos", "lat": 23.006742, "lng": -104.454664
},{
"label": "La Campana", "lat": 22.932908, "lng": -104.629165
},{
"label": "Las Leches", "lat": 22.905049, "lng": -104.947272
},{
"label": "Mesa del Venado (Sombrero Quemado)", "lat": 22.880149, "lng": -104.342357
},{
"label": "Los Armadillos", "lat": 22.807822, "lng": -104.82151
},{
"label": "Las Mangas", "lat": 22.735218, "lng": -104.309805
},{
"label": "Mesa de Buenavista", "lat": 23.050376, "lng": -104.670044
},{
"label": "Los Tepetates", "lat": 22.97391, "lng": -104.615528
},{
"label": "Tres Manzanillas", "lat": 23.107458, "lng": -104.217302
},{
"label": "El Rodeo", "lat": 22.479664, "lng": -104.553857
},{
"label": "La Mina", "lat": 22.536699, "lng": -104.524867
},{
"label": "El Llano de Cofradía", "lat": 22.425872, "lng": -104.424089
},{
"label": "Las Cebollas", "lat": 23.082346, "lng": -104.652372
},{
"label": "Chimaltita", "lat": 22.601363, "lng": -104.474572
},{
"label": "La Frente", "lat": 22.888988, "lng": -104.49189
},{
"label": "El Agua Caliente", "lat": 23.403757, "lng": -104.429693
},{
"label": "Mesa del Venado", "lat": 22.67787, "lng": -104.277531
},{
"label": "Tachichilpa", "lat": 22.628697, "lng": -104.461249
},{
"label": "Curachitos (Buena Vista)", "lat": 22.612379, "lng": -104.965031
},{
"label": "Llano Grande", "lat": 22.86463, "lng": -104.524083
},{
"label": "El Mezquite", "lat": 22.709154, "lng": -104.355538
},{
"label": "El Atravesaño", "lat": 22.446086, "lng": -104.439028
},{
"label": "Nuevo León", "lat": 22.653088, "lng": -105.069225
},{
"label": "Arroyo del Gavilancillo", "lat": 22.938122, "lng": -104.599727
},{
"label": "Ojito Colorado", "lat": 23.696415, "lng": -104.303169
},{
"label": "El Valle", "lat": 22.871435, "lng": -104.513625
},{
"label": "Nuevo Rancho", "lat": 23.097808, "lng": -104.511081
},{
"label": "Los Higos", "lat": 23.113535, "lng": -104.664751
},{
"label": "Cantaritos", "lat": 22.504887, "lng": -104.532763
},{
"label": "Rancho Arcoíris (Rancho Nuevo)", "lat": 23.044114, "lng": -104.322061
},{
"label": "Los Espejos", "lat": 22.635069, "lng": -104.696928
},{
"label": "Nogales (Piedra Parada)", "lat": 22.464208, "lng": -104.375219
}]