[{
"label": "Piedra Bola", "lat": 23.354203, "lng": -105.134581
},{
"label": "Hoja Ancha", "lat": 23.189192, "lng": -104.856368
},{
"label": "Los Henequenes", "lat": 23.179432, "lng": -104.872879
},{
"label": "El Encino Gacho", "lat": 23.371447, "lng": -105.159097
},{
"label": "Clavellinas [De Lajas]", "lat": 23.047829, "lng": -105.126808
},{
"label": "Las Higueritas", "lat": 23.359663, "lng": -105.359594
},{
"label": "Tierras Coloradas [De la Cumbre]", "lat": 23.22792, "lng": -105.130011
},{
"label": "La Escondida [De San Pablo]", "lat": 23.864451, "lng": -105.648631
},{
"label": "Las Cañas", "lat": 23.054141, "lng": -105.351841
},{
"label": "Mesa de San Pedro", "lat": 23.391619, "lng": -105.596299
},{
"label": "Barbechos", "lat": 23.335936, "lng": -105.151426
},{
"label": "Santa Isabel [Restaurante]", "lat": 23.837739, "lng": -105.323638
},{
"label": "Las Negras", "lat": 23.157378, "lng": -105.612222
},{
"label": "Los Negros", "lat": 23.80702, "lng": -105.340632
},{
"label": "La Ciénega [2 de la Cumbre de Milpillas]", "lat": 23.203683, "lng": -105.2599
},{
"label": "El Yerbaníz [Del Mil Diez]", "lat": 23.817619, "lng": -105.406583
},{
"label": "Cueva Rasposa", "lat": 23.046041, "lng": -105.274648
},{
"label": "Las Cebolletas", "lat": 23.257694, "lng": -105.046364
},{
"label": "Maguey [De Milpillas]", "lat": 23.353149, "lng": -104.906562
},{
"label": "Los Tendidos", "lat": 23.379926, "lng": -105.606316
},{
"label": "El Habal", "lat": 23.378976, "lng": -105.484206
},{
"label": "Charco Puerco", "lat": 23.692318, "lng": -105.452906
},{
"label": "Agua Verde", "lat": 23.100026, "lng": -105.154
},{
"label": "Curachas", "lat": 23.265901, "lng": -105.274476
},{
"label": "La Guacamaya", "lat": 23.169467, "lng": -105.147206
},{
"label": "La Yerbabuena y Anexos", "lat": 23.352164, "lng": -105.660132
},{
"label": "El Tempisque", "lat": 23.175422, "lng": -105.223032
},{
"label": "Ninguno", "lat": 23.162306, "lng": -105.052771
},{
"label": "Rincón de los Carrizos", "lat": 23.204768, "lng": -105.184346
},{
"label": "Laguna de Tortugas", "lat": 23.274663, "lng": -105.582985
},{
"label": "El Terrero [1 del Mil Diez]", "lat": 23.813244, "lng": -105.393909
},{
"label": "Los Mangles", "lat": 23.454672, "lng": -105.672796
},{
"label": "El Palmar", "lat": 23.42859, "lng": -105.693829
},{
"label": "Las Adjuntas", "lat": 23.727925, "lng": -105.493505
},{
"label": "El Guayabal", "lat": 23.305476, "lng": -105.568179
},{
"label": "Pino Gordo", "lat": 23.602468, "lng": -105.653643
},{
"label": "La Palma", "lat": 23.429802, "lng": -105.663827
},{
"label": "Palo Verde", "lat": 23.290135, "lng": -105.193528
},{
"label": "El Gallito", "lat": 23.200889, "lng": -105.415648
},{
"label": "Los Huizaches", "lat": 23.126555, "lng": -105.244201
},{
"label": "El Olvido", "lat": 23.918598, "lng": -105.591838
},{
"label": "El Pinalito", "lat": 23.323888, "lng": -105.490392
},{
"label": "El Sombrerete", "lat": 23.29589, "lng": -105.135199
},{
"label": "Corralitos [De Pueblo Nuevo]", "lat": 23.423497, "lng": -105.377426
},{
"label": "San Antonio [De Pino Gordo]", "lat": 23.505126, "lng": -105.729803
},{
"label": "Cueva Mojada", "lat": 23.205259, "lng": -104.895273
},{
"label": "El Zorongo", "lat": 23.733935, "lng": -105.569475
},{
"label": "Cobortita", "lat": 23.083493, "lng": -105.387595
},{
"label": "La Manga", "lat": 23.786493, "lng": -105.532308
},{
"label": "Arroyo del Agua", "lat": 23.760986, "lng": -105.422978
},{
"label": "El Cencerro", "lat": 23.844369, "lng": -105.555396
},{
"label": "Rincón de Agua Caliente", "lat": 23.291169, "lng": -105.363442
},{
"label": "Piedra Encajada", "lat": 23.113623, "lng": -105.11627
},{
"label": "El Mentidero", "lat": 23.596267, "lng": -105.392954
},{
"label": "La Joaquina", "lat": 23.419365, "lng": -105.341932
},{
"label": "El Yerbaníz [De Lajas]", "lat": 23.128263, "lng": -104.954254
},{
"label": "El Ranchito [De Portales de Milpillas]", "lat": 23.523654, "lng": -105.094851
},{
"label": "Valle de la Bufa (El Ranchito)", "lat": 23.644173, "lng": -105.603928
},{
"label": "Vivero Forestal la Victoria", "lat": 23.757082, "lng": -105.376643
},{
"label": "El Pinal [De las Negras]", "lat": 23.221516, "lng": -105.582253
},{
"label": "Los Brotos", "lat": 23.147787, "lng": -105.562753
},{
"label": "La Escondida [De la Mesa de San Pedro]", "lat": 23.388367, "lng": -105.652884
},{
"label": "El Yerbaníz [De Calaveras]", "lat": 23.094768, "lng": -105.365148
},{
"label": "Las Moras [Del Salto]", "lat": 23.716018, "lng": -105.364196
},{
"label": "Campamento Chiqueros", "lat": 23.123375, "lng": -105.340086
},{
"label": "El Infierno", "lat": 23.723596, "lng": -105.409074
},{
"label": "Los Ciruelos", "lat": 23.511433, "lng": -105.575779
},{
"label": "Las Murallas", "lat": 23.169038, "lng": -104.81201
},{
"label": "Los Limones [De los Naranjos]", "lat": 23.327962, "lng": -105.533988
},{
"label": "La Yerbabuena [De Balontita]", "lat": 23.084373, "lng": -105.391146
},{
"label": "Los Charcos", "lat": 23.788492, "lng": -105.532209
},{
"label": "La Angostura", "lat": 23.174594, "lng": -105.594561
},{
"label": "La Presa", "lat": 23.325772, "lng": -105.352431
},{
"label": "Las Mesitas", "lat": 23.368045, "lng": -105.483505
},{
"label": "El Oro Fino", "lat": 23.294601, "lng": -105.323517
},{
"label": "Calabazas", "lat": 23.212252, "lng": -104.997112
},{
"label": "La Rosilla", "lat": 23.734695, "lng": -105.394703
},{
"label": "La Trampa", "lat": 23.819149, "lng": -105.337806
},{
"label": "El Capulin [De Jagüeyes]", "lat": 23.459999, "lng": -105.312618
},{
"label": "Los Espino", "lat": 23.900552, "lng": -105.642683
},{
"label": "Piloncillos [De las Adjuntas]", "lat": 23.732717, "lng": -105.468034
},{
"label": "La Lluvia de Oro", "lat": 23.180327, "lng": -105.366687
},{
"label": "Piedra Ancha", "lat": 23.353979, "lng": -105.358809
},{
"label": "Maíz Gordo", "lat": 23.226351, "lng": -104.919285
},{
"label": "San Cayetano", "lat": 23.65293, "lng": -105.711482
},{
"label": "El Gallo", "lat": 23.234595, "lng": -105.490173
},{
"label": "Rancho Palo Verde", "lat": 23.373756, "lng": -105.726876
},{
"label": "El Terrero [2 del Mil Diez]", "lat": 23.824823, "lng": -105.389959
},{
"label": "El Baluarte", "lat": 23.541701, "lng": -105.757828
},{
"label": "El Campamento", "lat": 23.40659, "lng": -105.542026
},{
"label": "El Saucito [De Lajas]", "lat": 22.975902, "lng": -105.107339
},{
"label": "La Ene", "lat": 23.346386, "lng": -105.172778
},{
"label": "La Escondida [De Calaveras]", "lat": 23.153609, "lng": -105.410708
},{
"label": "El Taller", "lat": 23.646716, "lng": -105.75129
},{
"label": "La Puerta del Gallo", "lat": 23.383861, "lng": -105.555551
},{
"label": "Potrerillos", "lat": 23.435335, "lng": -105.450308
},{
"label": "El Triángulo", "lat": 23.533592, "lng": -105.11258
},{
"label": "Juan Manuel", "lat": 23.588684, "lng": -105.386325
},{
"label": "El Chirimoyo", "lat": 23.105433, "lng": -105.295056
},{
"label": "Los Montes", "lat": 23.289748, "lng": -105.670118
},{
"label": "La Ciénega", "lat": 23.237581, "lng": -104.912247
},{
"label": "Las Joyas [De Sarcillos]", "lat": 23.094501, "lng": -105.024309
},{
"label": "Palo Gordo", "lat": 23.466306, "lng": -105.316416
},{
"label": "Bajío Seco", "lat": 23.854731, "lng": -105.478989
},{
"label": "Tabacoteado", "lat": 23.784385, "lng": -105.455842
},{
"label": "El Chapote", "lat": 23.520761, "lng": -105.737343
},{
"label": "La Labor", "lat": 23.191603, "lng": -105.390854
},{
"label": "La Lagunita [De Peñasco Blanco]", "lat": 23.002828, "lng": -105.092564
},{
"label": "Los Nopales", "lat": 23.166409, "lng": -105.441099
},{
"label": "El Carrizo [De Lajas]", "lat": 23.048987, "lng": -105.058431
},{
"label": "Las Flores", "lat": 23.547287, "lng": -105.131004
},{
"label": "El Caimán", "lat": 23.131187, "lng": -105.245373
},{
"label": "La Laguna [De Yerbabuena de Milpillas]", "lat": 23.174089, "lng": -105.136586
},{
"label": "La Ciudad", "lat": 23.732134, "lng": -105.691049
},{
"label": "La Mesa de la Sierrita", "lat": 23.321591, "lng": -105.572246
},{
"label": "San Antonio [De la Rosilla]", "lat": 23.695621, "lng": -105.437712
},{
"label": "Las Moras [De Balontita]", "lat": 23.075756, "lng": -105.364239
},{
"label": "Santo Domingo", "lat": 23.731484, "lng": -105.553472
},{
"label": "Abrevaderos", "lat": 23.454458, "lng": -104.914896
},{
"label": "La Puerta", "lat": 23.389826, "lng": -105.388653
},{
"label": "La Soledad [De San Pablo]", "lat": 23.880674, "lng": -105.504543
},{
"label": "El Platanito", "lat": 23.352426, "lng": -105.483743
},{
"label": "Los Fresnos", "lat": 23.405606, "lng": -105.523069
},{
"label": "El Limonal", "lat": 23.498023, "lng": -105.718674
},{
"label": "La Puertita", "lat": 23.378717, "lng": -105.388038
},{
"label": "Chilchota", "lat": 23.769833, "lng": -105.328694
},{
"label": "Cabaña Mexiquillo", "lat": 23.721761, "lng": -105.679843
},{
"label": "San Francisco", "lat": 23.668349, "lng": -105.311017
},{
"label": "La Laguna [De San Pablo]", "lat": 23.836627, "lng": -105.612555
},{
"label": "Coscomatito", "lat": 23.692092, "lng": -105.590089
},{
"label": "Clavellinas [De Laguna de Tortugas]", "lat": 23.267511, "lng": -105.603399
},{
"label": "Peñasco Blanco 2", "lat": 22.998808, "lng": -105.08771
},{
"label": "Los Ángeles de Abajo", "lat": 23.556321, "lng": -105.488507
},{
"label": "El Terrero [De la Mesa de San Pedro]", "lat": 23.390224, "lng": -105.603597
},{
"label": "Quebrada del Campamento", "lat": 23.441389, "lng": -105.540278
},{
"label": "El Venado", "lat": 23.679614, "lng": -105.68198
},{
"label": "Tierra Sonando", "lat": 23.165505, "lng": -104.863873
},{
"label": "Los Guayabos", "lat": 23.450713, "lng": -105.544156
},{
"label": "El Desmonte [De la Enrramada]", "lat": 23.537259, "lng": -105.688683
},{
"label": "El Carmen", "lat": 23.772747, "lng": -105.697119
},{
"label": "La Enramada", "lat": 23.526583, "lng": -105.732381
},{
"label": "Los Chirimoyos", "lat": 23.258994, "lng": -105.380682
},{
"label": "Los Arrayanes", "lat": 23.178628, "lng": -105.403587
},{
"label": "El Naranjito [Del Jocuixtle]", "lat": 23.267083, "lng": -105.336006
},{
"label": "Cerro Pelón", "lat": 23.131044, "lng": -104.815376
},{
"label": "Corral de Piedra", "lat": 23.040231, "lng": -105.268196
},{
"label": "El Guanacastle", "lat": 23.14541, "lng": -105.616087
},{
"label": "Las Cargas", "lat": 23.294537, "lng": -105.189337
},{
"label": "El Arrayán", "lat": 23.392623, "lng": -105.570065
},{
"label": "El Yerbanís [De Milpillas]", "lat": 23.405404, "lng": -105.191896
},{
"label": "La Vinata del Cerro Prieto", "lat": 23.460324, "lng": -105.625558
},{
"label": "San Bernardino de Milpillas Chico", "lat": 23.382471, "lng": -105.15133
},{
"label": "El Encinal [De la Escondida]", "lat": 23.425161, "lng": -105.636461
},{
"label": "San Antonio de Ánimas", "lat": 23.400059, "lng": -105.437751
},{
"label": "Santa Lucía", "lat": 23.610929, "lng": -105.510073
},{
"label": "Lajas Chinas", "lat": 23.698671, "lng": -105.357915
},{
"label": "San Isidro", "lat": 23.754977, "lng": -105.328174
},{
"label": "Capomal", "lat": 23.227885, "lng": -105.228963
},{
"label": "Arroyo de la Puerta", "lat": 23.833399, "lng": -105.602354
},{
"label": "Los Veranos", "lat": 23.168385, "lng": -105.116718
},{
"label": "Clavellinitas", "lat": 23.343905, "lng": -105.520552
},{
"label": "Tierra Blanca [De la Mesa de San Pedro]", "lat": 23.379757, "lng": -105.57074
},{
"label": "La Yerbabuena [De las Negras]", "lat": 23.218037, "lng": -105.593948
},{
"label": "El Zancudo", "lat": 23.268596, "lng": -105.189412
},{
"label": "Corralitos [De Milpillas]", "lat": 23.299355, "lng": -105.133864
},{
"label": "El Vainillo", "lat": 23.386592, "lng": -105.583703
},{
"label": "El Real", "lat": 23.350667, "lng": -104.804898
},{
"label": "El Güero de Milpillas", "lat": 23.309155, "lng": -104.873682
},{
"label": "Las Higueras [De Milpillas]", "lat": 23.275847, "lng": -105.177383
},{
"label": "La Huaca", "lat": 23.463427, "lng": -105.574773
},{
"label": "La Escondida [De Corralitos]", "lat": 23.427786, "lng": -105.340928
},{
"label": "Los Alisos", "lat": 23.426573, "lng": -104.830422
},{
"label": "Los Laureles [De Milpillas]", "lat": 23.29326, "lng": -104.839374
},{
"label": "Los Lirios 2", "lat": 23.319709, "lng": -105.187067
},{
"label": "Los Lirios 1", "lat": 23.362301, "lng": -105.139531
},{
"label": "El Tepehuaje", "lat": 23.900051, "lng": -105.626667
},{
"label": "Puerto del Jarro", "lat": 23.738215, "lng": -105.552595
},{
"label": "La Mesa de los Osos", "lat": 23.817314, "lng": -105.394728
},{
"label": "Las Joyas [De San Bernardino de Milpillas]", "lat": 23.332359, "lng": -105.183639
},{
"label": "Los Aguilares", "lat": 23.19869, "lng": -104.86598
},{
"label": "San Nicolás", "lat": 23.386667, "lng": -105.469841
},{
"label": "Buenos Aires", "lat": 23.711134, "lng": -105.723739
},{
"label": "Texcalama", "lat": 23.827841, "lng": -105.601191
},{
"label": "El Orégano", "lat": 23.213288, "lng": -105.420342
},{
"label": "El Roble", "lat": 23.316822, "lng": -105.19631
},{
"label": "El Carrizo [Anexo a Pueblo Nuevo]", "lat": 23.325216, "lng": -105.493834
},{
"label": "Peñasco Redondo", "lat": 23.06478, "lng": -105.097566
},{
"label": "La Campana [De Maíz Gordo]", "lat": 23.160166, "lng": -104.840881
},{
"label": "La Mesa [De San Pablo]", "lat": 23.914655, "lng": -105.630316
},{
"label": "La Cruz [De Milpillas]", "lat": 23.206396, "lng": -105.183481
},{
"label": "Los Barbechos de la Rosilla", "lat": 23.760068, "lng": -105.372001
},{
"label": "El Ranchito (Panteón Viejo)", "lat": 23.640343, "lng": -105.586456
},{
"label": "Taxcatito", "lat": 23.486741, "lng": -105.355418
},{
"label": "Pie de Cuesta", "lat": 23.37196, "lng": -105.364584
},{
"label": "Los Desmontes", "lat": 23.198081, "lng": -105.389709
},{
"label": "Los Otates (Arroyo Colorado)", "lat": 23.405711, "lng": -105.592023
},{
"label": "San José", "lat": 23.203519, "lng": -104.968561
},{
"label": "El Tuche", "lat": 23.053682, "lng": -105.0906
},{
"label": "El Parejo", "lat": 23.445714, "lng": -105.528391
},{
"label": "Los Monos", "lat": 23.582359, "lng": -105.656284
},{
"label": "El Coco", "lat": 23.210884, "lng": -105.606144
},{
"label": "El Maguey [De Cofradía]", "lat": 23.305518, "lng": -105.407924
},{
"label": "La Cruz de Lajas", "lat": 22.941801, "lng": -105.323058
},{
"label": "Piedra Gacha", "lat": 23.054943, "lng": -105.175883
},{
"label": "Hacienda Coyotes", "lat": 23.821323, "lng": -105.336143
},{
"label": "Pericos [De el Puerto del Jarro]", "lat": 23.744141, "lng": -105.55105
},{
"label": "El Durazno [De los Ángeles]", "lat": 23.146609, "lng": -105.473417
},{
"label": "La Laguna [Por Jagüeyes]", "lat": 23.393582, "lng": -105.251163
},{
"label": "La Ventana [De Tierras Coloradas]", "lat": 23.16106, "lng": -104.906861
},{
"label": "El Naranjito [Del Campamento]", "lat": 23.415502, "lng": -105.524253
},{
"label": "Aserradero", "lat": 23.11945, "lng": -105.334717
},{
"label": "El Ojo de Agua [De Laguna de Tortugas]", "lat": 23.271214, "lng": -105.585671
},{
"label": "La Herradura", "lat": 23.751874, "lng": -105.348284
},{
"label": "Los Agrios", "lat": 23.068739, "lng": -105.16247
},{
"label": "La Tecolota", "lat": 23.447991, "lng": -104.859538
},{
"label": "El Zacatal", "lat": 23.434249, "lng": -105.649736
},{
"label": "El Cerro del Oso", "lat": 23.170103, "lng": -104.955053
},{
"label": "El Duraznito", "lat": 23.753003, "lng": -105.302725
},{
"label": "El Mil Ocho", "lat": 23.798398, "lng": -105.373462
},{
"label": "Golondrinas [De Lajas]", "lat": 23.23417, "lng": -105.251211
},{
"label": "El Tastito", "lat": 23.449401, "lng": -105.553262
},{
"label": "San Bartolo", "lat": 23.399757, "lng": -105.425835
},{
"label": "El Chaparral (Palo Enterrado)", "lat": 23.725527, "lng": -105.29364
},{
"label": "Los Cerritos", "lat": 23.411559, "lng": -105.505826
},{
"label": "La Laguna de Coyotes", "lat": 23.094626, "lng": -105.301053
},{
"label": "La Cumbre [De Sarcillos]", "lat": 23.113004, "lng": -105.00663
},{
"label": "San Vicente", "lat": 23.358643, "lng": -104.876559
},{
"label": "Las Ciénegas", "lat": 23.570708, "lng": -105.421328
},{
"label": "El Potrero", "lat": 23.291713, "lng": -105.574692
},{
"label": "San Pablo", "lat": 23.886116, "lng": -105.618511
},{
"label": "Las Adjuntas (Aserradero)", "lat": 23.739223, "lng": -105.500115
},{
"label": "El Caracol", "lat": 23.137971, "lng": -105.126744
},{
"label": "El Carrizo [De Rancho San Francisco]", "lat": 23.675619, "lng": -105.281569
},{
"label": "El Reparo", "lat": 23.632336, "lng": -105.318051
},{
"label": "El Molino", "lat": 23.440379, "lng": -105.562521
},{
"label": "Las Tortillas", "lat": 23.418992, "lng": -105.176712
},{
"label": "La Peña", "lat": 23.569071, "lng": -105.375142
},{
"label": "Las Casitas", "lat": 23.140578, "lng": -105.003659
},{
"label": "Llano Grande de Milpillas Chico", "lat": 23.410467, "lng": -105.043127
},{
"label": "El Zapotillo", "lat": 23.182951, "lng": -105.515838
},{
"label": "La Ermita", "lat": 23.674326, "lng": -105.726044
},{
"label": "El Jocuistle Amarillo", "lat": 23.122522, "lng": -105.287484
},{
"label": "San Antonio y Anexos", "lat": 23.777532, "lng": -105.311251
},{
"label": "La Mano", "lat": 23.220747, "lng": -105.216108
},{
"label": "El Encinal de los González", "lat": 23.460789, "lng": -105.704205
},{
"label": "El Colorín", "lat": 23.844328, "lng": -105.603161
},{
"label": "Arroyo Hondo", "lat": 23.446989, "lng": -105.010656
},{
"label": "Los Ángeles de Arriba", "lat": 23.547378, "lng": -105.492374
},{
"label": "La Cañada", "lat": 23.718982, "lng": -105.451002
},{
"label": "El Aguacate", "lat": 23.057562, "lng": -105.159984
},{
"label": "Agua Zarca [De Chomonques]", "lat": 23.456516, "lng": -105.458464
},{
"label": "Providencia", "lat": 23.360667, "lng": -105.533071
},{
"label": "La Ciénega [De Lajas]", "lat": 22.973406, "lng": -105.090452
},{
"label": "El Zapote [De Pueblo Nuevo]", "lat": 23.327497, "lng": -105.358186
},{
"label": "El Coscomate [De Cofradía]", "lat": 23.287469, "lng": -105.442167
},{
"label": "La Colorada", "lat": 23.305197, "lng": -105.331994
},{
"label": "Las Lagunas", "lat": 23.437361, "lng": -105.615911
},{
"label": "Las Hormigas", "lat": 23.045802, "lng": -105.072513
},{
"label": "Las Labores", "lat": 23.47253, "lng": -105.601473
},{
"label": "El Macho", "lat": 23.71319, "lng": -105.488152
},{
"label": "Llano Parejo", "lat": 23.117931, "lng": -105.572589
},{
"label": "El Yerbanís [De Maíz Gordo]", "lat": 23.189833, "lng": -104.886538
},{
"label": "El Salto", "lat": 23.778151, "lng": -105.360192
},{
"label": "Ciriales", "lat": 23.208498, "lng": -105.226487
},{
"label": "Vaquería Dos", "lat": 23.411584, "lng": -105.345855
},{
"label": "El Carrizo [De Tierras Coloradas de Maíz Gordo]", "lat": 23.181004, "lng": -104.854378
},{
"label": "Los Tanques", "lat": 23.620481, "lng": -105.331159
},{
"label": "La Laguna [De Lajas]", "lat": 23.115358, "lng": -104.914158
},{
"label": "San Francisco de Lajas (Lajas)", "lat": 23.118459, "lng": -105.10214
},{
"label": "La Unión (La Pera)", "lat": 23.182295, "lng": -105.012059
},{
"label": "Surcos Hondos", "lat": 23.267036, "lng": -105.32218
},{
"label": "Los Ángeles", "lat": 23.130779, "lng": -105.513039
},{
"label": "Los Tres Pasitos", "lat": 23.875773, "lng": -105.429794
},{
"label": "Tepalcates", "lat": 22.983856, "lng": -105.130377
},{
"label": "La Soledad [De Pino Gordo]", "lat": 23.514203, "lng": -105.681785
},{
"label": "La Cueva Mojada", "lat": 23.242214, "lng": -105.200588
},{
"label": "El Ranchero [Restaurante]", "lat": 23.730604, "lng": -105.656681
},{
"label": "Cerro Bola", "lat": 23.099113, "lng": -105.145172
},{
"label": "Los Bagres", "lat": 23.051019, "lng": -105.134749
},{
"label": "El Carrizo [De la Mesa de San Pedro]", "lat": 23.395489, "lng": -105.617701
},{
"label": "El Carrizo [De la Cumbre de Milpillas]", "lat": 23.208984, "lng": -105.178459
},{
"label": "San Antonio [De Milpillas]", "lat": 23.157664, "lng": -104.872695
},{
"label": "La Cueva del Panadero", "lat": 23.179554, "lng": -105.176127
},{
"label": "El Pinal [De los Naranjos]", "lat": 23.344561, "lng": -105.496809
},{
"label": "Los Aguacates", "lat": 23.007948, "lng": -105.067734
},{
"label": "El Maguey [De los Naranjos]", "lat": 23.354739, "lng": -105.504441
},{
"label": "Cerrito Blanco [De Arroyo del Agua]", "lat": 23.763502, "lng": -105.419884
},{
"label": "Tierras Coloradas [De Maíz Gordo]", "lat": 23.181373, "lng": -104.882159
},{
"label": "Los Parejitos", "lat": 23.365951, "lng": -105.516029
},{
"label": "Cruz de Bonche", "lat": 23.534703, "lng": -105.356377
},{
"label": "El Madroño", "lat": 23.235853, "lng": -105.3436
},{
"label": "La Cumbre [De Milpillas]", "lat": 23.250565, "lng": -105.203773
},{
"label": "El Carrizo [De Milpillas]", "lat": 23.339995, "lng": -105.140854
},{
"label": "Bajío Verde", "lat": 23.340697, "lng": -104.84982
},{
"label": "El Verano", "lat": 23.030619, "lng": -105.063897
},{
"label": "Chavarría Viejo", "lat": 23.63971, "lng": -105.550557
},{
"label": "Golondrinas [De Chavarria]", "lat": 23.637001, "lng": -105.567961
},{
"label": "La Calera [De Pino Gordo]", "lat": 23.500022, "lng": -105.696892
},{
"label": "El Colorado", "lat": 23.338413, "lng": -105.073307
},{
"label": "Piloncillos [De Cofradía]", "lat": 23.216959, "lng": -105.389899
},{
"label": "Los Hongos", "lat": 23.179366, "lng": -104.86526
},{
"label": "Los Arcos", "lat": 23.173109, "lng": -104.98148
},{
"label": "Chicharras", "lat": 23.161073, "lng": -105.223954
},{
"label": "El Vaso", "lat": 23.358951, "lng": -105.505927
},{
"label": "Los Plátanos", "lat": 23.116447, "lng": -104.985977
},{
"label": "Las Minitas", "lat": 23.15478, "lng": -105.376397
},{
"label": "Puentecillas", "lat": 23.673336, "lng": -105.455139
},{
"label": "El Ojo de Agua [De Agua Caliente]", "lat": 23.28109, "lng": -105.336779
},{
"label": "Cerro Blanco [De las Negras]", "lat": 23.213638, "lng": -105.513879
},{
"label": "Cruz Bendita", "lat": 23.205574, "lng": -104.861243
},{
"label": "El Pájaro", "lat": 23.770003, "lng": -105.345643
},{
"label": "El Guayabito", "lat": 23.403562, "lng": -105.420381
},{
"label": "El Encinal (Tres Encinos)", "lat": 23.146319, "lng": -105.537449
},{
"label": "Bajío Hondo", "lat": 23.640124, "lng": -105.345839
},{
"label": "Ojo de Agua de los Tomates", "lat": 23.797839, "lng": -105.474531
},{
"label": "Los Mimbres [De la Mesa de San Pedro]", "lat": 23.389004, "lng": -105.608761
},{
"label": "El Rancho", "lat": 23.155081, "lng": -105.005759
},{
"label": "La Casa de Piedra", "lat": 23.16512, "lng": -105.385201
},{
"label": "La Cueva [Ejido]", "lat": 23.618496, "lng": -105.410164
},{
"label": "Estación Cuarentenaria Coyotes", "lat": 23.849204, "lng": -105.29847
},{
"label": "El Charco del Alambre", "lat": 23.80747, "lng": -105.395402
},{
"label": "Sarcillos", "lat": 23.099728, "lng": -104.997188
},{
"label": "El Tunal", "lat": 23.15904, "lng": -105.149372
},{
"label": "Tres Hermanos", "lat": 23.743473, "lng": -105.372866
},{
"label": "Rancho Seco", "lat": 23.634897, "lng": -105.338665
},{
"label": "El Maguey [De San Pablo]", "lat": 23.843198, "lng": -105.611209
},{
"label": "El Güinacastle", "lat": 23.367618, "lng": -105.529358
},{
"label": "Revolcadero", "lat": 23.031045, "lng": -105.223184
},{
"label": "La Formación", "lat": 23.466732, "lng": -105.594743
},{
"label": "El Huizache [De San Jerónimo]", "lat": 23.813822, "lng": -105.60324
},{
"label": "El Zapote [Del Campamento]", "lat": 23.415104, "lng": -105.55009
},{
"label": "La Joya [Del Ejido Antonio Molina Deras]", "lat": 23.640126, "lng": -105.320039
},{
"label": "La Ciénega [1 de la Cumbre de Milpillas]", "lat": 23.280441, "lng": -105.194676
},{
"label": "El Bajío", "lat": 23.197598, "lng": -105.177837
},{
"label": "Las Cuevas", "lat": 23.42426, "lng": -105.435086
},{
"label": "Bajío Atascoso", "lat": 23.85004, "lng": -105.340521
},{
"label": "El Histafiate", "lat": 23.475668, "lng": -105.538533
},{
"label": "Cofradía", "lat": 23.288699, "lng": -105.405221
},{
"label": "Los Naranjos", "lat": 23.361667, "lng": -105.492553
},{
"label": "Ojo de Agua [De Milpillas]", "lat": 23.191163, "lng": -105.150569
},{
"label": "Santa Isabel [Centro Ecoturístico]", "lat": 23.834998, "lng": -105.32111
},{
"label": "Estación Coyotes (José María Morelos)", "lat": 23.86313, "lng": -105.313927
},{
"label": "El Pozole", "lat": 23.394599, "lng": -105.582316
},{
"label": "Colonia Azteca", "lat": 23.791324, "lng": -105.363423
},{
"label": "Los Encinos", "lat": 23.131036, "lng": -104.897771
},{
"label": "La Lagunita (La Joya)", "lat": 23.190253, "lng": -105.144666
},{
"label": "La Joya [De la Puerta]", "lat": 23.400913, "lng": -105.396225
},{
"label": "Los Mimbres [De Milpillas]", "lat": 23.474173, "lng": -104.940337
},{
"label": "San Alberto", "lat": 23.387097, "lng": -105.271813
},{
"label": "Las Pulgas", "lat": 23.207271, "lng": -105.201946
},{
"label": "El Capulin [De Milpillas]", "lat": 23.222401, "lng": -105.189693
},{
"label": "Cerro Colorado", "lat": 23.321037, "lng": -105.650506
},{
"label": "Las Mulas", "lat": 23.840973, "lng": -105.456443
},{
"label": "El Jocuixtle", "lat": 23.251939, "lng": -105.349323
},{
"label": "La Laguna [De las Negras]", "lat": 23.18475, "lng": -105.574874
},{
"label": "Las Mexteñas", "lat": 23.741753, "lng": -105.300373
},{
"label": "El Ranchito [Del Ejido Antonio Molina Deras]", "lat": 23.637825, "lng": -105.329468
},{
"label": "Camarones", "lat": 22.984235, "lng": -105.297232
},{
"label": "Cueva Roñosa", "lat": 23.123664, "lng": -105.128757
},{
"label": "Los Platanitos", "lat": 23.171092, "lng": -105.032422
},{
"label": "El Azafrán", "lat": 23.476388, "lng": -105.659593
},{
"label": "Los Bancos", "lat": 23.65129, "lng": -105.735566
},{
"label": "La Cueva [De Chavarria]", "lat": 23.642843, "lng": -105.566533
},{
"label": "El Almagre", "lat": 23.851963, "lng": -105.596151
},{
"label": "La Sierrita", "lat": 23.445853, "lng": -105.686653
},{
"label": "Chavarría del Campamento", "lat": 23.434323, "lng": -105.525428
},{
"label": "Las Guayabas", "lat": 23.142513, "lng": -104.819404
},{
"label": "Los Barbechos", "lat": 23.54197, "lng": -105.096227
},{
"label": "Los Bueyeros", "lat": 23.866515, "lng": -105.423109
},{
"label": "La Muralla", "lat": 23.67138, "lng": -105.619669
},{
"label": "El Durazno (Ejido San Pablo)", "lat": 23.869974, "lng": -105.61808
},{
"label": "Portales de Milpillas", "lat": 23.54043, "lng": -105.085279
},{
"label": "Rancho Viejo", "lat": 23.707818, "lng": -105.557389
},{
"label": "Las Joyas [De Adolfo Ruiz Cortines]", "lat": 23.734725, "lng": -105.328011
},{
"label": "El Gualamo", "lat": 23.086869, "lng": -105.158182
},{
"label": "Cebollas", "lat": 23.366941, "lng": -104.844399
},{
"label": "Las Cruces", "lat": 23.51642, "lng": -105.35571
},{
"label": "La Lechuguilla", "lat": 23.352444, "lng": -105.511656
},{
"label": "San Patricio [De los Naranjos]", "lat": 23.333602, "lng": -105.548611
},{
"label": "Tierra Blanca [De Lajas]", "lat": 23.166785, "lng": -105.208107
},{
"label": "El Chalate", "lat": 23.100894, "lng": -105.173266
},{
"label": "La Liendrilla", "lat": 23.408115, "lng": -105.6514
},{
"label": "Estación de Microondas las Rusias", "lat": 23.747733, "lng": -105.534149
},{
"label": "La Escalera", "lat": 23.250467, "lng": -105.225536
},{
"label": "Uva [Restaurante]", "lat": 23.715495, "lng": -105.712295
},{
"label": "La Campana [De San Jerónimo]", "lat": 23.772676, "lng": -105.520167
},{
"label": "Cucharas", "lat": 23.337693, "lng": -105.091767
},{
"label": "Los Peloncitos", "lat": 23.868211, "lng": -105.592129
},{
"label": "El Cóscate", "lat": 23.439449, "lng": -105.509424
},{
"label": "Las Higueras [De los Naranjos]", "lat": 23.373508, "lng": -105.511169
},{
"label": "Balontita", "lat": 22.947793, "lng": -105.326202
},{
"label": "Agua Caliente", "lat": 23.289196, "lng": -105.334212
},{
"label": "Bajío Largo", "lat": 23.828611, "lng": -105.559068
},{
"label": "El Ojo de Agua [Del Molino]", "lat": 23.443834, "lng": -105.560669
},{
"label": "La Laja", "lat": 23.863441, "lng": -105.615291
},{
"label": "La Laguna [De las Adjuntas]", "lat": 23.714509, "lng": -105.501299
},{
"label": "Carricíllos", "lat": 23.345603, "lng": -105.317309
},{
"label": "San Manuel", "lat": 23.390508, "lng": -104.907006
},{
"label": "La Ventana [De Sarcillos]", "lat": 23.188437, "lng": -105.006598
},{
"label": "El Amole", "lat": 23.861412, "lng": -105.596688
},{
"label": "El Carrizo [Del Jocuixtle]", "lat": 23.243885, "lng": -105.324532
},{
"label": "El Puerto de las Ardillas", "lat": 23.395366, "lng": -105.632247
},{
"label": "La Lagunita [De Cerro Prieto]", "lat": 23.476181, "lng": -105.566487
},{
"label": "Los Estanques", "lat": 23.717476, "lng": -105.68527
},{
"label": "El Carrizo [De los Ángeles]", "lat": 23.143727, "lng": -105.484928
},{
"label": "El Perón", "lat": 23.196211, "lng": -105.182736
},{
"label": "Mesa de Jagüeyes", "lat": 23.426327, "lng": -105.247769
},{
"label": "Los Bules", "lat": 23.120493, "lng": -104.901547
},{
"label": "El Provincial", "lat": 23.355234, "lng": -105.084781
},{
"label": "La Laguna [De la Puerta]", "lat": 23.327364, "lng": -105.405168
},{
"label": "Las Nubes", "lat": 23.838392, "lng": -105.324118
},{
"label": "Los Laureles [De los Naranjos]", "lat": 23.350363, "lng": -105.497606
},{
"label": "Yerbabuena de Milpillas", "lat": 23.182203, "lng": -105.191513
},{
"label": "Calaveras", "lat": 23.145986, "lng": -105.368823
},{
"label": "San Juan [Del Mil Diez]", "lat": 23.78735, "lng": -105.421147
},{
"label": "El Desmonte [De Calaveras]", "lat": 23.097584, "lng": -105.292689
},{
"label": "Arroyo Verde", "lat": 23.601684, "lng": -105.447796
},{
"label": "La Pompa", "lat": 23.856704, "lng": -105.304616
},{
"label": "Buenavista", "lat": 23.359869, "lng": -105.325291
},{
"label": "Tapias", "lat": 23.296695, "lng": -105.196337
},{
"label": "Los Tepalcates", "lat": 23.321584, "lng": -105.475858
},{
"label": "Paso de Piedra", "lat": 23.602855, "lng": -105.639089
},{
"label": "Vaquerías", "lat": 23.432594, "lng": -105.351656
},{
"label": "Los Cedros", "lat": 23.422817, "lng": -105.590558
},{
"label": "El Huizache [De Lajas]", "lat": 23.024494, "lng": -105.03723
},{
"label": "El Ojo de Agua [De Adolfo Ruiz Cortines]", "lat": 23.756441, "lng": -105.318028
},{
"label": "Las Carreras", "lat": 23.870741, "lng": -105.529947
},{
"label": "Las Joyas [De Chomonques]", "lat": 23.472153, "lng": -105.440808
},{
"label": "Rancho Cuevecillas y Culebras", "lat": 23.496609, "lng": -104.872587
},{
"label": "Agua Zarca [De Lajas]", "lat": 23.116844, "lng": -104.99647
},{
"label": "El Capulin [De Lajas]", "lat": 23.140831, "lng": -104.99403
},{
"label": "El Pirámide (El Parejo)", "lat": 23.374911, "lng": -105.385904
},{
"label": "La Flor", "lat": 23.12683, "lng": -104.917085
},{
"label": "Chupaderos", "lat": 23.24663, "lng": -105.408736
},{
"label": "Carrizos", "lat": 23.136136, "lng": -104.990257
},{
"label": "Tortugas", "lat": 23.226688, "lng": -105.254988
},{
"label": "San Jerónimo", "lat": 23.812762, "lng": -105.547192
},{
"label": "El Picudo", "lat": 23.366981, "lng": -105.179973
},{
"label": "Santa Rosa", "lat": 23.402643, "lng": -105.339672
},{
"label": "El Álamo", "lat": 23.711214, "lng": -105.39818
},{
"label": "Los Retablos", "lat": 23.097775, "lng": -105.098611
},{
"label": "Las Joyas [De Mimbres de Milpillas]", "lat": 23.464128, "lng": -104.977351
},{
"label": "Jagüeyes", "lat": 23.431716, "lng": -105.293318
},{
"label": "Pericos [De la Peña]", "lat": 23.581731, "lng": -105.338305
},{
"label": "La Lajita", "lat": 23.155459, "lng": -105.316754
},{
"label": "Las Joyas [De Chavarria]", "lat": 23.640885, "lng": -105.512226
},{
"label": "La Vuelta", "lat": 23.321787, "lng": -105.485072
},{
"label": "Los Mangos", "lat": 23.366288, "lng": -105.639129
},{
"label": "El Carrizo [De Chavarría]", "lat": 23.640889, "lng": -105.559391
},{
"label": "Los Limones [De Tierras Coloradas de Maíz Gordo]", "lat": 23.134509, "lng": -104.843198
},{
"label": "Rancho los Mancinas (Chomonques)", "lat": 23.45517, "lng": -105.494318
},{
"label": "Tierra Blanca [De Tierras Coloradas de Maíz Gordo]", "lat": 23.162045, "lng": -104.884279
},{
"label": "La Calera [De los Ángeles]", "lat": 23.190327, "lng": -105.496275
},{
"label": "El Asoleadero", "lat": 23.113789, "lng": -105.541038
},{
"label": "El Masparillo", "lat": 23.015326, "lng": -105.095848
},{
"label": "Los Ojos de Agua", "lat": 23.358327, "lng": -105.649985
},{
"label": "San Patricio [De Milpillas]", "lat": 23.326498, "lng": -105.17462
},{
"label": "Las Paridas", "lat": 23.791663, "lng": -105.438099
},{
"label": "Las Pitacas", "lat": 23.202446, "lng": -104.83232
},{
"label": "El Ranchito [De San Pablo]", "lat": 23.842019, "lng": -105.603117
},{
"label": "El Coscomate [De Pueblo Nuevo]", "lat": 23.389716, "lng": -105.37983
},{
"label": "Tres Lagunas", "lat": 23.348233, "lng": -104.82079
},{
"label": "San Rafael", "lat": 23.584528, "lng": -105.678749
},{
"label": "El Huizachal", "lat": 23.370107, "lng": -105.486006
},{
"label": "Los Pericos", "lat": 23.388511, "lng": -105.632939
},{
"label": "Tierra Blanca [De Calaveras]", "lat": 23.112039, "lng": -105.321454
},{
"label": "La Laguna de Milpillas", "lat": 23.325963, "lng": -105.085146
},{
"label": "La Mesita", "lat": 23.316108, "lng": -105.178611
},{
"label": "Pueblo Nuevo (Pueblo de Caña)", "lat": 23.383718, "lng": -105.370706
},{
"label": "Los Aceros", "lat": 23.302294, "lng": -105.437053
},{
"label": "La Ciénega [De los Bancos]", "lat": 23.637092, "lng": -105.735488
},{
"label": "Rancho Nuevo", "lat": 23.745675, "lng": -105.348301
},{
"label": "Palo Enterrado", "lat": 23.749634, "lng": -105.373819
},{
"label": "Chavarría Nuevo", "lat": 23.648181, "lng": -105.591748
},{
"label": "Santa Bárbara", "lat": 23.653127, "lng": -105.419892
},{
"label": "Ojo de Agua [De San Pablo]", "lat": 23.822051, "lng": -105.598653
},{
"label": "San Felipe", "lat": 23.387082, "lng": -104.925643
},{
"label": "El Desmonte [De Mimbres]", "lat": 23.473854, "lng": -104.98996
},{
"label": "El Tecolote", "lat": 23.129231, "lng": -104.823733
},{
"label": "Las Mojoneras", "lat": 22.96231, "lng": -105.072914
},{
"label": "La Victoria [Centro Trutícola]", "lat": 23.762239, "lng": -105.429213
},{
"label": "El Chorreado", "lat": 23.124096, "lng": -105.441906
},{
"label": "Carboneras", "lat": 23.28263, "lng": -104.912896
},{
"label": "El Zapote (El Chapote)", "lat": 23.853684, "lng": -105.620194
},{
"label": "Los Horcones", "lat": 23.072586, "lng": -104.967387
},{
"label": "La Cruz [De Sarcillos]", "lat": 23.147426, "lng": -104.96745
},{
"label": "El Ciprés", "lat": 23.845941, "lng": -105.433776
},{
"label": "Tierras Blancas", "lat": 23.358408, "lng": -105.195561
},{
"label": "La Montosa", "lat": 23.634764, "lng": -105.356686
},{
"label": "La Laja Parda", "lat": 23.263708, "lng": -105.189459
},{
"label": "Cajones", "lat": 23.462145, "lng": -105.349456
},{
"label": "Alejandro Torres", "lat": 23.827566, "lng": -105.322255
},{
"label": "San Pedro", "lat": 23.28777, "lng": -105.199734
},{
"label": "Adolfo Ruiz Cortines (Marraneras)", "lat": 23.735792, "lng": -105.299438
},{
"label": "Lechería", "lat": 23.756461, "lng": -105.444351
},{
"label": "La Vinata", "lat": 23.08699, "lng": -105.344869
},{
"label": "Los Llanitos", "lat": 23.414531, "lng": -105.370885
},{
"label": "El Saucito [De Curachas]", "lat": 23.252865, "lng": -105.259693
},{
"label": "Rancho los Gachupines", "lat": 23.534931, "lng": -105.698007
},{
"label": "El Tapextle", "lat": 23.869649, "lng": -105.55034
},{
"label": "El Mil Diez", "lat": 23.799973, "lng": -105.387914
},{
"label": "El Maguey [Del Jocuixtle]", "lat": 23.272886, "lng": -105.344154
},{
"label": "Las Latas", "lat": 23.142902, "lng": -104.876464
},{
"label": "Pelillos", "lat": 23.258189, "lng": -105.267137
},{
"label": "El Oso", "lat": 23.625294, "lng": -105.530461
},{
"label": "La Manteca", "lat": 23.346937, "lng": -104.853531
},{
"label": "Peñasco Blanco 1 (Las Pilas)", "lat": 22.994641, "lng": -105.08718
},{
"label": "El Tule", "lat": 23.636148, "lng": -105.551034
},{
"label": "El Corpo de Apomal", "lat": 23.227844, "lng": -105.218283
},{
"label": "Las Pintas", "lat": 23.85541, "lng": -105.422869
},{
"label": "Las Cebollas", "lat": 23.616131, "lng": -105.404685
},{
"label": "La Vaca", "lat": 23.088345, "lng": -105.199544
},{
"label": "La Pirámide", "lat": 23.718753, "lng": -105.505648
},{
"label": "El Comal", "lat": 23.312246, "lng": -105.167402
},{
"label": "Los Patios", "lat": 23.827271, "lng": -105.603524
},{
"label": "Piloncillos [De Milpillas]", "lat": 23.201444, "lng": -105.139318
},{
"label": "Tierras Coloradas [De San Bernardino]", "lat": 23.280619, "lng": -105.065223
},{
"label": "La Joya [De San Esteban]", "lat": 23.859013, "lng": -105.402871
},{
"label": "Cordón Alto", "lat": 23.440182, "lng": -105.496563
},{
"label": "El Pinal [Del Campamento]", "lat": 23.409146, "lng": -105.523747
},{
"label": "La Mesa [De los Ángeles]", "lat": 23.129783, "lng": -105.537979
},{
"label": "La Sierrita (El Toril)", "lat": 23.302527, "lng": -105.552266
},{
"label": "Carrisanto", "lat": 23.202083, "lng": -104.833106
},{
"label": "Las Rusias", "lat": 23.750819, "lng": -105.534636
},{
"label": "Coscomate [De Chavarria]", "lat": 23.707399, "lng": -105.576569
},{
"label": "San Esteban", "lat": 23.876902, "lng": -105.42544
},{
"label": "Metates", "lat": 23.633662, "lng": -105.430448
},{
"label": "Coyotes (Ojo de Agua de Coyotes)", "lat": 23.847912, "lng": -105.315811
},{
"label": "Guajolotes", "lat": 23.186792, "lng": -105.175217
},{
"label": "ElTrerrero [De Lajas]", "lat": 23.151843, "lng": -105.105817
}]