[{
"label": "El Casco", "lat": 25.546931, "lng": -104.586602
},{
"label": "Peñoles", "lat": 25.650307, "lng": -104.529138
},{
"label": "Cerro Prieto", "lat": 25.650309, "lng": -104.351486
},{
"label": "Los Charcos", "lat": 25.430046, "lng": -104.452237
},{
"label": "Santa Ana", "lat": 25.46484, "lng": -104.218865
},{
"label": "San Miguel", "lat": 25.530705, "lng": -104.194564
},{
"label": "Las Laborcitas de Arriba", "lat": 25.489273, "lng": -104.401708
},{
"label": "La Tinaja", "lat": 25.518118, "lng": -104.187379
},{
"label": "San Pedro del Gallo", "lat": 25.565864, "lng": -104.292834
},{
"label": "La Jarita", "lat": 25.636755, "lng": -104.412143
},{
"label": "Los Ángeles", "lat": 25.484833, "lng": -104.336848
},{
"label": "Corralitos", "lat": 25.615787, "lng": -104.501896
},{
"label": "La Purísima", "lat": 25.684002, "lng": -104.500071
},{
"label": "Arroyo Seco", "lat": 25.492746, "lng": -104.401486
},{
"label": "La Rosita", "lat": 25.548481, "lng": -104.28865
},{
"label": "Santa Teresa", "lat": 25.66975, "lng": -104.558497
},{
"label": "Bajío del Burro", "lat": 25.517875, "lng": -104.218836
},{
"label": "Arroyo de San Pedro", "lat": 25.552762, "lng": -104.251963
},{
"label": "San José de Maravillas", "lat": 25.658786, "lng": -104.256931
},{
"label": "Los Metates", "lat": 25.676079, "lng": -104.257268
},{
"label": "Cerro Blanco (El Área)", "lat": 25.514956, "lng": -104.311533
},{
"label": "Cinco de Mayo", "lat": 25.772028, "lng": -104.289661
},{
"label": "Cerro Colorado", "lat": 25.820317, "lng": -104.305991
},{
"label": "Rancho Dury (La Trinidad)", "lat": 25.746492, "lng": -104.449688
},{
"label": "Naycha (Naycha Viejo)", "lat": 25.504458, "lng": -104.445024
},{
"label": "Peñolitos", "lat": 25.671176, "lng": -104.498507
},{
"label": "Enrique las Lagunitas (El Ranchito)", "lat": 25.585952, "lng": -104.299516
},{
"label": "San José del Aguajito (Marcelina)", "lat": 25.583003, "lng": -104.368713
},{
"label": "San Lorenzo", "lat": 25.446569, "lng": -104.333599
},{
"label": "Zaragoza", "lat": 25.754493, "lng": -104.5467
},{
"label": "El Jarillal", "lat": 25.689047, "lng": -104.201241
},{
"label": "Texas", "lat": 25.710185, "lng": -104.463481
},{
"label": "La Loma Larga (San Francisco)", "lat": 25.629417, "lng": -104.262916
},{
"label": "La Linterna", "lat": 25.631011, "lng": -104.468825
},{
"label": "El Espejo", "lat": 25.779171, "lng": -104.449215
},{
"label": "San Vicente", "lat": 25.454054, "lng": -104.344815
},{
"label": "El Cincuenta y Nueve", "lat": 25.47231, "lng": -104.560293
},{
"label": "Cerros Colorados", "lat": 25.792541, "lng": -104.352399
},{
"label": "Loma Blanca", "lat": 25.48908, "lng": -104.23462
},{
"label": "Los Güeros", "lat": 25.781907, "lng": -104.424861
},{
"label": "El Venadito", "lat": 25.481473, "lng": -104.596705
},{
"label": "Santa Isabel", "lat": 25.501308, "lng": -104.592426
},{
"label": "La Lucita", "lat": 25.595561, "lng": -104.36415
},{
"label": "El Papalote", "lat": 25.6014, "lng": -104.631938
},{
"label": "La Bisnaga", "lat": 25.418293, "lng": -104.466108
},{
"label": "Santo Domingo", "lat": 25.820645, "lng": -104.441891
},{
"label": "San Juan", "lat": 25.689398, "lng": -104.477759
},{
"label": "Cerro Redondo", "lat": 25.663868, "lng": -104.201463
},{
"label": "Boquilla de Gerardo", "lat": 25.47789, "lng": -104.510002
},{
"label": "Boquilla de Mimbres", "lat": 25.457998, "lng": -104.487424
},{
"label": "Puerto el Casco", "lat": 25.50011, "lng": -104.58612
},{
"label": "San Juan de Naycha", "lat": 25.502943, "lng": -104.449738
},{
"label": "Tres Hermanos (El Setenta y Cinco)", "lat": 25.832106, "lng": -104.333844
},{
"label": "La Esperanza", "lat": 25.60528, "lng": -104.365511
},{
"label": "Santa Gertrudis", "lat": 25.575323, "lng": -104.233679
},{
"label": "Apantita", "lat": 25.715702, "lng": -104.309833
},{
"label": "El Refugio", "lat": 25.759828, "lng": -104.210351
},{
"label": "San Francisco", "lat": 25.551174, "lng": -104.195669
},{
"label": "Cuba", "lat": 25.538664, "lng": -104.497158
},{
"label": "San José del Carmen", "lat": 25.509095, "lng": -104.217716
},{
"label": "San Francisco (Los Huérfanos)", "lat": 25.720451, "lng": -104.429206
},{
"label": "Terreritos", "lat": 25.623762, "lng": -104.581728
},{
"label": "El Resumidero", "lat": 25.489574, "lng": -104.555386
},{
"label": "Santa Anita", "lat": 25.570749, "lng": -104.471445
},{
"label": "Monte Grande", "lat": 25.501625, "lng": -104.224321
}]