[{
"label": "El Alemán (El Alemán Nuevo)", "lat": 23.327215, "lng": -104.162499
},{
"label": "Los Sauces", "lat": 23.258058, "lng": -104.209036
},{
"label": "Alejandro", "lat": 23.549986, "lng": -103.940609
},{
"label": "Los Charcos", "lat": 23.304851, "lng": -104.216416
},{
"label": "Corral de Piedra", "lat": 23.561972, "lng": -104.298036
},{
"label": "La Parida", "lat": 23.605216, "lng": -103.985865
},{
"label": "Salvador", "lat": 23.241148, "lng": -104.321594
},{
"label": "Hacienda el Mortero", "lat": 23.64977, "lng": -103.946867
},{
"label": "Sorruedo", "lat": 23.288643, "lng": -104.151639
},{
"label": "Mesa de Tabacos", "lat": 23.239754, "lng": -104.176915
},{
"label": "El Cebruno", "lat": 23.556387, "lng": -103.969856
},{
"label": "Los Azules", "lat": 23.431903, "lng": -104.199887
},{
"label": "El Pino", "lat": 23.585209, "lng": -103.969919
},{
"label": "Las Margaritas", "lat": 23.300248, "lng": -104.272807
},{
"label": "Muerto y Playa", "lat": 23.586537, "lng": -104.299154
},{
"label": "El Judío", "lat": 23.54573, "lng": -104.281291
},{
"label": "San Juan de Michis", "lat": 23.435001, "lng": -104.133618
},{
"label": "Los Ángeles", "lat": 23.538565, "lng": -103.957619
},{
"label": "Corralitos", "lat": 23.519313, "lng": -104.140687
},{
"label": "Los Aguajitos", "lat": 23.199167, "lng": -104.267874
},{
"label": "Los Bajíos", "lat": 23.193169, "lng": -104.247413
},{
"label": "La Piedra Herrada", "lat": 23.387506, "lng": -104.247114
},{
"label": "La Mulata", "lat": 23.226522, "lng": -104.293224
},{
"label": "San Luis", "lat": 23.640798, "lng": -103.948333
},{
"label": "Mesa de San Antonio (El Llano)", "lat": 23.215409, "lng": -104.23085
},{
"label": "El Salvaje", "lat": 23.225536, "lng": -104.214441
},{
"label": "La Concepción de Heredia", "lat": 23.612348, "lng": -103.909429
},{
"label": "La Soledad de Papantón", "lat": 23.638698, "lng": -103.840648
},{
"label": "Alemán (Alemán Viejo)", "lat": 23.335947, "lng": -104.16664
},{
"label": "San Martín de Camellones", "lat": 23.640341, "lng": -103.973304
},{
"label": "Presa Santa Elena", "lat": 23.624448, "lng": -104.054268
},{
"label": "Santa Cruz", "lat": 23.608083, "lng": -103.91793
},{
"label": "Santa Adriana (El Jabalí)", "lat": 23.550421, "lng": -104.138212
},{
"label": "El Temazcal", "lat": 23.385518, "lng": -104.246893
},{
"label": "Emiliano Zapata (Los Coconos)", "lat": 23.579976, "lng": -104.138326
},{
"label": "El Madrugador", "lat": 23.507912, "lng": -104.142478
},{
"label": "Ciénega de los Rosales", "lat": 23.190992, "lng": -104.35982
},{
"label": "Arroyo del Agua", "lat": 23.418361, "lng": -104.319636
},{
"label": "Paso de Villa", "lat": 23.563789, "lng": -103.919936
},{
"label": "Los Bordos (El Atole)", "lat": 23.214009, "lng": -104.191709
},{
"label": "Puerta de las Margaritas", "lat": 23.331036, "lng": -104.293861
},{
"label": "San Juan de Morga", "lat": 23.338667, "lng": -104.290203
},{
"label": "Cerro Blanco", "lat": 23.429804, "lng": -104.230741
},{
"label": "Berlín", "lat": 23.583393, "lng": -103.923675
},{
"label": "San Miguel de la Michilía", "lat": 23.593469, "lng": -104.062298
},{
"label": "Súchil", "lat": 23.622163, "lng": -103.92187
},{
"label": "Mesa del Burro", "lat": 23.415028, "lng": -104.279424
},{
"label": "Santo Niño", "lat": 23.202967, "lng": -104.365963
},{
"label": "El Edén", "lat": 23.601967, "lng": -103.926784
},{
"label": "Los Corrales", "lat": 23.409969, "lng": -104.138637
},{
"label": "El Terrero", "lat": 23.634009, "lng": -103.943099
},{
"label": "El Cuartillo", "lat": 23.182289, "lng": -104.270076
},{
"label": "San Francisco Javier (Los Ojitos) [Nuevo Centro de Población]", "lat": 23.604597, "lng": -104.157691
},{
"label": "La Puerta del Temazcal", "lat": 23.385887, "lng": -104.246917
},{
"label": "Potrerillo (El Resbalón)", "lat": 23.521535, "lng": -104.13013
},{
"label": "Mesa el Cardo Santo", "lat": 23.224117, "lng": -104.256639
},{
"label": "Las Alazanas", "lat": 23.360283, "lng": -104.23772
},{
"label": "Tres Puertos", "lat": 23.252871, "lng": -104.34964
},{
"label": "Puerta de Guanajuatillo", "lat": 23.210855, "lng": -104.240321
},{
"label": "El Fresno", "lat": 23.555856, "lng": -104.290993
},{
"label": "La Soledad", "lat": 23.645858, "lng": -104.045116
},{
"label": "Luis Echeverría (La Quemada)", "lat": 23.244444, "lng": -104.208889
},{
"label": "Nuevo Mortero", "lat": 23.652224, "lng": -103.942245
},{
"label": "Rancho de la Peña", "lat": 23.397554, "lng": -104.239266
}]