[{
"label": "García Lozano (El Bajo)", "lat": 25.870375, "lng": -103.443398
},{
"label": "Canuto Favela", "lat": 26.100424, "lng": -103.429782
},{
"label": "Francisca Niño Córdova", "lat": 26.117623, "lng": -103.737161
},{
"label": "Morelos (La Loma Yermo) [Granja]", "lat": 26.389064, "lng": -104.000784
},{
"label": "Nuevo México", "lat": 25.86852, "lng": -103.464505
},{
"label": "Noria Lucero II", "lat": 25.971506, "lng": -103.473877
},{
"label": "El Lucero (Arcinas)", "lat": 25.879686, "lng": -103.401823
},{
"label": "El Canal", "lat": 26.1705, "lng": -103.434071
},{
"label": "Intergas del Norte", "lat": 26.108676, "lng": -103.420715
},{
"label": "Córdoba", "lat": 26.258667, "lng": -103.419943
},{
"label": "La Dos de Holanda", "lat": 26.027777, "lng": -103.43147
},{
"label": "División del Norte", "lat": 25.884664, "lng": -103.357903
},{
"label": "San Sebastián Uno", "lat": 25.919546, "lng": -103.618829
},{
"label": "El Fogón [Restaurante]", "lat": 25.913708, "lng": -103.631895
},{
"label": "Rancho los Cuates (Las Vallas)", "lat": 26.160059, "lng": -103.589354
},{
"label": "Los Ángeles", "lat": 26.039681, "lng": -103.349009
},{
"label": "Pamplona", "lat": 26.103661, "lng": -103.399628
},{
"label": "Rancho el Lucero", "lat": 25.883863, "lng": -103.399713
},{
"label": "Familia Acevedo", "lat": 26.076688, "lng": -103.613847
},{
"label": "La Noria del Esfuerzo", "lat": 25.912876, "lng": -103.616255
},{
"label": "San Fermín", "lat": 26.023336, "lng": -103.417717
},{
"label": "El Barreo", "lat": 25.841139, "lng": -103.422368
},{
"label": "San Lorenzo", "lat": 26.162683, "lng": -103.70295
},{
"label": "El Moradon (Secunza)", "lat": 25.966166, "lng": -103.424791
},{
"label": "El Moradon 2", "lat": 25.9657, "lng": -103.411354
},{
"label": "San Dionisio", "lat": 26.201784, "lng": -103.696763
},{
"label": "La Flor", "lat": 26.568789, "lng": -103.959551
},{
"label": "Ignacio López Rayón", "lat": 25.915276, "lng": -103.627024
},{
"label": "Estación Peronal", "lat": 26.091015, "lng": -103.709036
},{
"label": "Ninguno", "lat": 26.047108, "lng": -103.407228
},{
"label": "La Veintisiete", "lat": 26.193198, "lng": -103.703694
},{
"label": "San Agustín", "lat": 25.986388, "lng": -103.466469
},{
"label": "San Juan de Banderas", "lat": 26.03381, "lng": -103.673119
},{
"label": "La Escondida", "lat": 25.895782, "lng": -103.50688
},{
"label": "El Betel (El Pirulete)", "lat": 25.891705, "lng": -103.567238
},{
"label": "Rancho Vacas Flacas", "lat": 26.088435, "lng": -103.443228
},{
"label": "La Blanca [Propiedad Privada]", "lat": 25.931496, "lng": -103.382556
},{
"label": "San Bernardo", "lat": 26.021287, "lng": -103.588679
},{
"label": "Santa Rosa", "lat": 25.952612, "lng": -103.359554
},{
"label": "Establo Benito Juárez", "lat": 26.102026, "lng": -103.429674
},{
"label": "Santa Aracely", "lat": 25.95221, "lng": -103.645722
},{
"label": "Panchita [Restaurante]", "lat": 26.101677, "lng": -103.720106
},{
"label": "Las Arenas", "lat": 25.867988, "lng": -103.479319
},{
"label": "Holanda", "lat": 26.03347, "lng": -103.428956
},{
"label": "Establo Laredo", "lat": 25.933419, "lng": -103.372839
},{
"label": "El Veintiocho", "lat": 26.139094, "lng": -103.759554
},{
"label": "Loma Verde", "lat": 25.923361, "lng": -103.557111
},{
"label": "Las Moscas", "lat": 26.177089, "lng": -103.718668
},{
"label": "El Herradero [Restaurante]", "lat": 26.028603, "lng": -103.677245
},{
"label": "El Pilar", "lat": 25.97493, "lng": -103.420331
},{
"label": "Las Teresitas (La Siete)", "lat": 25.939218, "lng": -103.447933
},{
"label": "Rancho el Coyote", "lat": 26.087408, "lng": -103.403819
},{
"label": "La Giralda", "lat": 25.96018, "lng": -103.525406
},{
"label": "El Nogal", "lat": 26.035155, "lng": -103.350013
},{
"label": "Tres Robles (El Rosario)", "lat": 25.904448, "lng": -103.627838
},{
"label": "San Carlos", "lat": 26.563833, "lng": -103.770333
},{
"label": "El Palomar", "lat": 25.880526, "lng": -103.45803
},{
"label": "Escala", "lat": 26.102959, "lng": -103.502944
},{
"label": "El Roble", "lat": 26.046712, "lng": -103.373108
},{
"label": "Josefina Guerrero Guerrero", "lat": 26.124486, "lng": -103.744745
},{
"label": "San Sebastián Dos", "lat": 25.923202, "lng": -103.612655
},{
"label": "El Chaparral (José Inés Lara Mendiola)", "lat": 26.161939, "lng": -103.413203
},{
"label": "Rancho del Monte", "lat": 25.901565, "lng": -103.532911
},{
"label": "La Tres de Holanda", "lat": 26.032496, "lng": -103.424522
},{
"label": "Londres", "lat": 26.181294, "lng": -103.414159
},{
"label": "El Esterito", "lat": 25.9575, "lng": -103.410816
},{
"label": "Veinte de Abril", "lat": 25.903396, "lng": -103.410052
},{
"label": "Uruapan", "lat": 25.959906, "lng": -103.477852
},{
"label": "Campo C", "lat": 25.937281, "lng": -103.568909
},{
"label": "El Renegado (La Perla)", "lat": 25.882119, "lng": -103.506249
},{
"label": "El Torreoncito", "lat": 25.955604, "lng": -103.550879
},{
"label": "Rosas Nuevo Progreso", "lat": 26.1085, "lng": -103.418885
},{
"label": "San Ignacio", "lat": 26.632183, "lng": -103.776341
},{
"label": "San Francisco de Afuera (El Taxco)", "lat": 25.941933, "lng": -103.465941
},{
"label": "Benito Juárez", "lat": 25.929069, "lng": -103.367703
},{
"label": "Estación el Kilo Doce-Doce", "lat": 26.145932, "lng": -103.768325
},{
"label": "Francisco I. Madero (El Quemado)", "lat": 26.422132, "lng": -103.709676
},{
"label": "Pompeya", "lat": 25.904652, "lng": -103.401314
},{
"label": "Sierra Nevada el Chaparro", "lat": 25.946353, "lng": -103.356889
},{
"label": "El Cuarenta (El Barro)", "lat": 25.864635, "lng": -103.384945
},{
"label": "La Esperanza (La Espada)", "lat": 25.991098, "lng": -103.606468
},{
"label": "Severín", "lat": 25.918968, "lng": -103.559696
},{
"label": "Laboratorio del Desierto", "lat": 26.686165, "lng": -103.747304
},{
"label": "Venado Gacho", "lat": 26.611848, "lng": -103.652144
},{
"label": "Cartagena", "lat": 26.176462, "lng": -103.751838
},{
"label": "San Felipe", "lat": 26.478403, "lng": -103.943887
},{
"label": "Las Tortugas", "lat": 26.478468, "lng": -103.739561
},{
"label": "Armando Rodríguez", "lat": 26.109476, "lng": -103.415083
},{
"label": "La Gloria del Halcón", "lat": 25.858171, "lng": -103.468039
},{
"label": "Rancherías", "lat": 26.512715, "lng": -103.876888
},{
"label": "La Noria del Sesenta", "lat": 25.876935, "lng": -103.362826
},{
"label": "Roberto García", "lat": 26.110407, "lng": -103.395591
},{
"label": "Alfredo V. Bonfil", "lat": 26.201344, "lng": -103.773837
},{
"label": "Alma Campesina", "lat": 26.384173, "lng": -103.495263
},{
"label": "Santa Isabel (Las Luisas)", "lat": 25.867923, "lng": -103.486043
},{
"label": "Las Arcadias (Rancho Grande)", "lat": 25.894819, "lng": -103.530376
},{
"label": "Tierra Blanca (Barbacoa)", "lat": 26.439838, "lng": -103.728991
},{
"label": "Horizonte Dos", "lat": 25.996108, "lng": -103.399503
},{
"label": "San Miguel del Real", "lat": 26.026003, "lng": -103.403693
},{
"label": "Rancho Alegre", "lat": 25.887023, "lng": -103.568763
},{
"label": "Barcelona", "lat": 26.222102, "lng": -103.425411
},{
"label": "Oquendo", "lat": 26.156078, "lng": -103.47957
},{
"label": "El Capulín", "lat": 26.015573, "lng": -103.391315
},{
"label": "Carolina", "lat": 26.190477, "lng": -103.453684
},{
"label": "Cerro Colorado", "lat": 25.99184, "lng": -103.592692
},{
"label": "Sector Cuarenta", "lat": 25.859993, "lng": -103.383258
},{
"label": "El Brillante", "lat": 25.929748, "lng": -103.591154
},{
"label": "La Marmolera", "lat": 26.054607, "lng": -103.407627
},{
"label": "San Julio", "lat": 25.936297, "lng": -103.420903
},{
"label": "La Zorra", "lat": 26.258241, "lng": -103.613599
},{
"label": "Tierra Baja", "lat": 25.951349, "lng": -103.526716
},{
"label": "La Sierrita", "lat": 25.960534, "lng": -103.65016
},{
"label": "Tres Postes", "lat": 25.994775, "lng": -103.40963
},{
"label": "Tlahualilo de Zaragoza", "lat": 26.107386, "lng": -103.439236
},{
"label": "La Opinión (San Rosendo)", "lat": 26.007669, "lng": -103.597123
},{
"label": "Las Ánimas", "lat": 25.945656, "lng": -103.367506
},{
"label": "Los Nogales", "lat": 25.869321, "lng": -103.395578
},{
"label": "Tonino Olivares", "lat": 26.143947, "lng": -103.455652
},{
"label": "Nombre de Dios", "lat": 25.977528, "lng": -103.656322
},{
"label": "El Rosalino", "lat": 25.921512, "lng": -103.631438
},{
"label": "San Pablo", "lat": 25.904776, "lng": -103.540927
},{
"label": "Echeverría", "lat": 26.031232, "lng": -103.358764
},{
"label": "La Alborada", "lat": 25.866381, "lng": -103.44553
},{
"label": "San Martín", "lat": 26.049178, "lng": -103.398488
},{
"label": "Amapolas", "lat": 25.958603, "lng": -103.543435
},{
"label": "Cerro Banderas (Cerro Banderas) [Restaurante]", "lat": 26.154851, "lng": -103.777446
},{
"label": "La Campana", "lat": 26.129309, "lng": -103.48919
},{
"label": "Rodolfo Villa Moreno", "lat": 26.185937, "lng": -103.708407
},{
"label": "Santa Elena (Rancho Nuevo)", "lat": 25.885732, "lng": -103.567015
},{
"label": "El Renegado (La Noria)", "lat": 25.874187, "lng": -103.508968
},{
"label": "Balcones", "lat": 26.099112, "lng": -103.489073
},{
"label": "Rosas", "lat": 26.148902, "lng": -103.43748
},{
"label": "El Milagro", "lat": 26.027369, "lng": -103.401721
},{
"label": "Banco Nacional", "lat": 25.872494, "lng": -103.357168
},{
"label": "San Francisco de Asís", "lat": 26.098611, "lng": -103.429739
},{
"label": "Francisco Villa (Milpillas)", "lat": 26.170055, "lng": -103.710885
},{
"label": "El Roble (Tres Tumbas)", "lat": 26.060667, "lng": -103.381814
},{
"label": "San José de los Álamos", "lat": 25.947504, "lng": -103.53733
},{
"label": "El Tepeyac", "lat": 25.914667, "lng": -103.62586
},{
"label": "El Alto Tierra Blanca", "lat": 25.929297, "lng": -103.636774
},{
"label": "Ceceda", "lat": 26.070626, "lng": -103.404105
},{
"label": "La Virgen", "lat": 25.931167, "lng": -103.369118
},{
"label": "Jauja", "lat": 25.928753, "lng": -103.373903
},{
"label": "La Noria del Brillante", "lat": 25.935897, "lng": -103.594508
},{
"label": "Providencia", "lat": 26.143411, "lng": -103.39734
},{
"label": "San Francisco de Horizonte (Horizonte)", "lat": 25.935888, "lng": -103.416222
},{
"label": "Valencia", "lat": 26.297237, "lng": -103.413208
}]