[{
"label": "San José", "lat": 20.197783, "lng": -90.119244
},{
"label": "Chunkanán", "lat": 20.246074, "lng": -90.242382
},{
"label": "La Sonrisa del Niño", "lat": 20.119854, "lng": -90.173384
},{
"label": "Hecelchakán Dos [Granja Avícola]", "lat": 20.152254, "lng": -90.163405
},{
"label": "COPLAMAR", "lat": 20.184722, "lng": -90.114444
},{
"label": "San Felipe", "lat": 20.189731, "lng": -90.114444
},{
"label": "San Joaquín", "lat": 20.179461, "lng": -90.103096
},{
"label": "Koloché Akal", "lat": 20.025913, "lng": -89.939019
},{
"label": "Chaví Número Uno [Campo Menonita]", "lat": 19.976803, "lng": -89.984665
},{
"label": "Hecelchakán Tres [Granja Avícola]", "lat": 20.149697, "lng": -90.166476
},{
"label": "San Miguel", "lat": 20.197323, "lng": -90.122771
},{
"label": "San Felipe Tikín", "lat": 20.217299, "lng": -90.179741
},{
"label": "Los Limones", "lat": 20.193563, "lng": -90.126066
},{
"label": "Hecelchakán", "lat": 20.176966, "lng": -90.134517
},{
"label": "San Isidro Benaox", "lat": 20.156536, "lng": -90.155248
},{
"label": "ENLACE [Alimentos Avepecuarios]", "lat": 20.188455, "lng": -90.119799
},{
"label": "Santa Martha", "lat": 20.193108, "lng": -90.133786
},{
"label": "Sacramento", "lat": 20.175993, "lng": -90.161126
},{
"label": "Cumpich", "lat": 20.18705, "lng": -89.969959
},{
"label": "Yalnón [Campo Menonita]", "lat": 20.037501, "lng": -89.923774
},{
"label": "La Herradura", "lat": 20.176429, "lng": -90.154077
},{
"label": "Ex-Hacienda Cholul", "lat": 20.110011, "lng": -90.192004
},{
"label": "Karina", "lat": 20.189376, "lng": -90.118718
},{
"label": "San Carmelo", "lat": 20.189174, "lng": -90.173687
},{
"label": "Pomuch [Rastro Municipal]", "lat": 20.155743, "lng": -90.201006
},{
"label": "San Pedro", "lat": 20.127419, "lng": -90.162003
},{
"label": "Ninguno", "lat": 20.147674, "lng": -90.191016
},{
"label": "Santa María", "lat": 20.192809, "lng": -90.126076
},{
"label": "Karmine [Motel]", "lat": 20.189426, "lng": -90.119256
},{
"label": "Chaví Número Dos [Campo Menonita]", "lat": 19.964877, "lng": -89.998099
},{
"label": "Las Lomas", "lat": 20.100274, "lng": -89.95341
},{
"label": "San Juan de la Gorra", "lat": 20.008008, "lng": -90.053475
},{
"label": "Santa Cruz", "lat": 20.203673, "lng": -90.117073
},{
"label": "San Simón", "lat": 20.178628, "lng": -90.11191
},{
"label": "Blanca Flor", "lat": 20.211647, "lng": -90.110709
},{
"label": "Isla Jaina", "lat": 20.209524, "lng": -90.486445
},{
"label": "Hecelchakán Uno [Granja Avícola]", "lat": 20.158895, "lng": -90.159099
},{
"label": "Rancho Viejo", "lat": 20.131123, "lng": -90.163861
},{
"label": "Nohalal", "lat": 20.10565, "lng": -89.909113
},{
"label": "Montebello", "lat": 19.951793, "lng": -89.960953
},{
"label": "Granjas Uno", "lat": 19.932836, "lng": -89.946346
},{
"label": "San Javier", "lat": 20.194444, "lng": -90.118224
},{
"label": "Zodzil", "lat": 20.167551, "lng": -90.228781
},{
"label": "San Elías", "lat": 20.180982, "lng": -90.146832
},{
"label": "Chicmuc", "lat": 20.074773, "lng": -89.935636
},{
"label": "Campo Menonita Yalnón Número Nueve", "lat": 19.919159, "lng": -89.970627
},{
"label": "Ninguno [Granja Avícola]", "lat": 20.188984, "lng": -90.142288
},{
"label": "Cacab", "lat": 20.203534, "lng": -90.278331
},{
"label": "Pocboc", "lat": 20.237848, "lng": -90.102767
},{
"label": "Dzitnup", "lat": 20.186019, "lng": -90.107408
},{
"label": "Hecelchakán (CADER 02)", "lat": 20.192275, "lng": -90.126367
},{
"label": "Xuelén", "lat": 20.231683, "lng": -90.13823
},{
"label": "San Juan (Hactún)", "lat": 20.207973, "lng": -90.145739
},{
"label": "Dzotchén", "lat": 20.205931, "lng": -89.973495
},{
"label": "Los Dos Hermanos", "lat": 20.153108, "lng": -90.199054
},{
"label": "Kankí Risché", "lat": 20.183462, "lng": -90.164214
},{
"label": "San Rafael", "lat": 20.17664, "lng": -90.175213
},{
"label": "CBTA Número Ciento Sesenta y Nueve", "lat": 20.175556, "lng": -90.083056
},{
"label": "Crucero de los Cedros", "lat": 19.983304, "lng": -89.981983
},{
"label": "Lourdes", "lat": 20.196566, "lng": -90.121967
},{
"label": "San José Ex-Hacienda", "lat": 20.195441, "lng": -90.114486
},{
"label": "Pedregal", "lat": 20.1929, "lng": -90.144508
},{
"label": "Pomuch", "lat": 20.137711, "lng": -90.175206
},{
"label": "Las Estrellas", "lat": 20.186593, "lng": -90.119506
}]