[{
"label": "San Pedro [Sociedad]", "lat": 22.05182, "lng": -102.24561
},{
"label": "Los Albardones", "lat": 22.038059, "lng": -102.306126
},{
"label": "El Refugio [Viñedos]", "lat": 21.98652, "lng": -102.248933
},{
"label": "7 Puertas (Plan el Espejo)", "lat": 22.052254, "lng": -102.293237
},{
"label": "Pozo Número 4 [Sociedad]", "lat": 21.97701, "lng": -102.269313
},{
"label": "Macario J. Gómez [Colonia]", "lat": 21.978176, "lng": -102.256323
},{
"label": "El Recodo [Rancho]", "lat": 22.081909, "lng": -102.275353
},{
"label": "Las Cuchillas", "lat": 22.065904, "lng": -102.235242
},{
"label": "Quinta Alondra [Centro de Rehabilitación]", "lat": 22.072902, "lng": -102.226376
},{
"label": "El Plan de la Concha", "lat": 22.036485, "lng": -102.304944
},{
"label": "Tercer Milenio [Rancho]", "lat": 22.078284, "lng": -102.242652
},{
"label": "San Pedro Victoria de Abajo", "lat": 22.083237, "lng": -102.284398
},{
"label": "El Chamizal", "lat": 22.071963, "lng": -102.246307
},{
"label": "Los Corrales (Los Corrales Blancos)", "lat": 22.077744, "lng": -102.236538
},{
"label": "Paseos de la Providencia [Fraccionamiento]", "lat": 22.025726, "lng": -102.273838
},{
"label": "Doroteo Arango", "lat": 22.050343, "lng": -102.259491
},{
"label": "Loretito (Charco del Toro)", "lat": 22.000633, "lng": -102.244414
},{
"label": "María Elena [Rancho]", "lat": 22.087226, "lng": -102.281254
},{
"label": "Los Hornos [Rancho]", "lat": 22.061295, "lng": -102.215004
},{
"label": "Granja Coyonoxtle", "lat": 22.058903, "lng": -102.282348
},{
"label": "Santa Elena (Elena) [Granja]", "lat": 22.056322, "lng": -102.276973
},{
"label": "Granja Lula (Cabaña de Andrea)", "lat": 21.990117, "lng": -102.259503
},{
"label": "El Que se Fue", "lat": 22.021511, "lng": -102.259509
},{
"label": "San Pedro Victoria de Arriba", "lat": 22.083268, "lng": -102.285122
},{
"label": "Fracción de la Trinidad I", "lat": 22.058986, "lng": -102.244858
},{
"label": "El Nilo [Granja]", "lat": 21.984401, "lng": -102.264905
},{
"label": "Días Divertidos [Parque]", "lat": 21.984453, "lng": -102.240697
},{
"label": "El Tirón (El Progreso)", "lat": 22.044065, "lng": -102.272548
},{
"label": "Los Prado [Granja]", "lat": 22.086894, "lng": -102.277469
},{
"label": "Villas de San Felipe", "lat": 21.974673, "lng": -102.258872
},{
"label": "La Fe [Granja]", "lat": 22.065863, "lng": -102.285546
},{
"label": "Ermita Santo Toribio", "lat": 21.987824, "lng": -102.264572
},{
"label": "Amapolas del Río", "lat": 22.036107, "lng": -102.145608
},{
"label": "Granja Mary", "lat": 22.078388, "lng": -102.251826
},{
"label": "Los Arcos", "lat": 22.0656, "lng": -102.244488
},{
"label": "La Aurora [Granja]", "lat": 22.052723, "lng": -102.274298
},{
"label": "Zacatenco [Granja]", "lat": 22.036948, "lng": -102.304388
},{
"label": "Chicalote [Estación]", "lat": 22.012854, "lng": -102.252457
},{
"label": "La Paz", "lat": 22.073722, "lng": -102.282948
},{
"label": "Granja de Efraín Gutiérrez", "lat": 22.020963, "lng": -102.268525
},{
"label": "San Francisco de los Romo", "lat": 22.072393, "lng": -102.272678
},{
"label": "San José (San José de Buenavista)", "lat": 22.070175, "lng": -102.252215
},{
"label": "Arellano [Colonia]", "lat": 22.059681, "lng": -102.193378
},{
"label": "La Trinidad", "lat": 22.061258, "lng": -102.278262
},{
"label": "La Gloria [Rancho]", "lat": 22.076553, "lng": -102.29414
},{
"label": "Rancho Nuevo", "lat": 22.073941, "lng": -102.151504
},{
"label": "El Cuadrado [Rancho]", "lat": 22.07814, "lng": -102.246675
},{
"label": "Santa Anita", "lat": 22.082699, "lng": -102.287538
},{
"label": "Rancho Seco", "lat": 21.967395, "lng": -102.271448
},{
"label": "Fracción de la Trinidad II", "lat": 22.055481, "lng": -102.253492
},{
"label": "El Refugio [Granja]", "lat": 22.057412, "lng": -102.278407
},{
"label": "Granja Jessy", "lat": 22.060142, "lng": -102.259684
},{
"label": "Santa Fe [Fraccionamiento]", "lat": 22.028344, "lng": -102.27584
},{
"label": "Parque Industrial San Francisco (PISF)", "lat": 22.036126, "lng": -102.272114
},{
"label": "La Escondida (El Salero)", "lat": 22.034553, "lng": -102.257769
},{
"label": "San Francisco [Granja]", "lat": 22.054654, "lng": -102.278913
},{
"label": "Ejido Rancho Nuevo", "lat": 22.080776, "lng": -102.157715
},{
"label": "La Granjita", "lat": 22.020994, "lng": -102.272542
},{
"label": "Aguascalientes Express", "lat": 22.066266, "lng": -102.282138
},{
"label": "Granja Monserrat", "lat": 22.049767, "lng": -102.253917
},{
"label": "El Rocío", "lat": 21.988595, "lng": -102.224489
},{
"label": "Plan de los Sabinos [Sociedad]", "lat": 22.050032, "lng": -102.288179
},{
"label": "Licenciado José López Portillo [Sector de Producción]", "lat": 21.982363, "lng": -102.252249
},{
"label": "Plan de los Romo [Rancho]", "lat": 22.083848, "lng": -102.276853
},{
"label": "Valle de Aguascalientes", "lat": 21.973015, "lng": -102.265803
},{
"label": "Puertecito de la Virgen", "lat": 21.960149, "lng": -102.268992
},{
"label": "El Chanate", "lat": 22.034026, "lng": -102.161935
},{
"label": "La Batalla", "lat": 22.023012, "lng": -102.251345
},{
"label": "El Gigante", "lat": 22.063342, "lng": -102.285203
},{
"label": "La Escondida [Rancho]", "lat": 22.021911, "lng": -102.26648
},{
"label": "Fraternidad 1", "lat": 22.064521, "lng": -102.250765
},{
"label": "San Juan [Granja]", "lat": 22.06, "lng": -102.260027
},{
"label": "El Medio Litro", "lat": 22.004493, "lng": -102.276426
},{
"label": "Borrotes", "lat": 22.039798, "lng": -102.207122
},{
"label": "La Providencia", "lat": 22.059446, "lng": -102.277273
},{
"label": "El Cardonal [Fraccionamiento]", "lat": 22.036957, "lng": -102.263395
},{
"label": "El Chepo [Rancho]", "lat": 22.012356, "lng": -102.241906
},{
"label": "Villa de Guadalupe", "lat": 22.073012, "lng": -102.253799
},{
"label": "Coyonoxtle [Rancho]", "lat": 22.04898, "lng": -102.279313
},{
"label": "Granja Ofelia", "lat": 22.060325, "lng": -102.287159
},{
"label": "Fe en Dios", "lat": 21.985545, "lng": -102.232645
},{
"label": "La Ribera [Fraccionamiento]", "lat": 21.955978, "lng": -102.249735
},{
"label": "Los Capricornios (La Biznaga)", "lat": 21.994837, "lng": -102.261609
},{
"label": "La Esperanza (Las Tuzas)", "lat": 22.085795, "lng": -102.248078
},{
"label": "Medio Kilo", "lat": 21.985466, "lng": -102.280535
},{
"label": "Sendero de los Quetzales [Condominio]", "lat": 21.978496, "lng": -102.264537
},{
"label": "Las Ánimas", "lat": 22.036694, "lng": -102.281743
},{
"label": "A mi Manera", "lat": 21.975933, "lng": -102.261645
},{
"label": "San Pablo", "lat": 22.085529, "lng": -102.255863
},{
"label": "La Lomita [Rancho]", "lat": 22.056921, "lng": -102.284109
},{
"label": "Granja Viva (Las Golondrinas)", "lat": 21.98566, "lng": -102.262545
},{
"label": "Las Carmelitas", "lat": 22.064164, "lng": -102.280271
},{
"label": "Las Palapas", "lat": 22.067298, "lng": -102.285309
},{
"label": "El Barranco [Ladrillera]", "lat": 22.069829, "lng": -102.256617
},{
"label": "El Tepetate", "lat": 22.065769, "lng": -102.177184
},{
"label": "Viñedos Rivier", "lat": 21.977878, "lng": -102.285782
},{
"label": "San Ángel", "lat": 22.044559, "lng": -102.301283
},{
"label": "Granja Liliana", "lat": 22.020941, "lng": -102.27105
},{
"label": "Doble 7 [Granja]", "lat": 22.001946, "lng": -102.248921
},{
"label": "La Casita", "lat": 21.969814, "lng": -102.267053
},{
"label": "El Panzaso", "lat": 22.068216, "lng": -102.282069
},{
"label": "El Chaparral", "lat": 22.018423, "lng": -102.227491
},{
"label": "El Colectivo", "lat": 21.995615, "lng": -102.252198
},{
"label": "Sector de Producción Número 1 (Los Zapata)", "lat": 22.041915, "lng": -102.302511
},{
"label": "Ex-Viñedos Guadalupe", "lat": 21.958919, "lng": -102.275712
},{
"label": "El Mirador (La Bajadita)", "lat": 21.964644, "lng": -102.248481
},{
"label": "La Guadalupana", "lat": 22.050991, "lng": -102.279251
},{
"label": "La Unión", "lat": 22.05473, "lng": -102.2861
},{
"label": "La Concepción", "lat": 22.034973, "lng": -102.299921
},{
"label": "Pozo el Rosal (Plan de la Huerta)", "lat": 22.04843, "lng": -102.298571
},{
"label": "Granja María", "lat": 22.043431, "lng": -102.274924
},{
"label": "Urbivilla del Vergel [Fraccionamiento]", "lat": 22.029838, "lng": -102.277741
},{
"label": "La Perla [Granja]", "lat": 22.057537, "lng": -102.269379
}]