[{
"label": "El Salto Prieto", "lat": 21.444167, "lng": -103.63
},{
"label": "El Rincón", "lat": 21.449722, "lng": -103.58
},{
"label": "Las Ticuatas", "lat": 21.417698, "lng": -103.499952
},{
"label": "Los Sauces", "lat": 21.551058, "lng": -103.574379
},{
"label": "La Laguna", "lat": 21.507644, "lng": -103.616807
},{
"label": "Tecolotes", "lat": 21.510915, "lng": -103.596023
},{
"label": "Cerro Pelón", "lat": 21.46788, "lng": -103.54156
},{
"label": "Los Charcos", "lat": 21.508367, "lng": -103.561354
},{
"label": "Las Mesitas", "lat": 21.468327, "lng": -103.573499
},{
"label": "Los Patitos", "lat": 21.492646, "lng": -103.598898
},{
"label": "Cuevas Chicas (Las Cuevas Chicas)", "lat": 21.521411, "lng": -103.585683
},{
"label": "Las Cruces", "lat": 21.484438, "lng": -103.523109
},{
"label": "El Durazno", "lat": 21.515006, "lng": -103.541016
},{
"label": "La Estancia", "lat": 21.528835, "lng": -103.560977
},{
"label": "Mesa de Arellanos", "lat": 21.549697, "lng": -103.59079
},{
"label": "La Tinaja", "lat": 21.46415, "lng": -103.603334
},{
"label": "Peñitas", "lat": 21.553763, "lng": -103.54411
},{
"label": "Los Dormidos", "lat": 21.520079, "lng": -103.531145
},{
"label": "El Ranchito", "lat": 21.532422, "lng": -103.509536
},{
"label": "Florencia", "lat": 21.504478, "lng": -103.55595
},{
"label": "Mesa de Rayos", "lat": 21.548433, "lng": -103.584152
},{
"label": "Los Cedros", "lat": 21.50079, "lng": -103.546019
},{
"label": "El Tonasmil", "lat": 21.567994, "lng": -103.526839
},{
"label": "Tacoaleche", "lat": 21.559409, "lng": -103.553543
},{
"label": "Dulces Nombres", "lat": 21.507559, "lng": -103.541086
},{
"label": "San Lucas Tepetitlán", "lat": 21.517319, "lng": -103.631019
},{
"label": "Llano Grande", "lat": 21.494716, "lng": -103.580736
},{
"label": "Monte de Carrillo", "lat": 21.540907, "lng": -103.517518
},{
"label": "Las Tablas", "lat": 21.513615, "lng": -103.658095
},{
"label": "La Hacienda", "lat": 21.503333, "lng": -103.656944
},{
"label": "El Guajolote", "lat": 21.541582, "lng": -103.546009
},{
"label": "Los Chupaderos", "lat": 21.456849, "lng": -103.574929
},{
"label": "Los Campos", "lat": 21.494329, "lng": -103.638749
},{
"label": "Potrerillos", "lat": 21.54077, "lng": -103.645449
},{
"label": "Las Joyas", "lat": 21.555133, "lng": -103.583719
},{
"label": "Mesa de Núñez", "lat": 21.511948, "lng": -103.517634
},{
"label": "Tonilco", "lat": 21.490963, "lng": -103.55282
},{
"label": "La Soledad", "lat": 21.425651, "lng": -103.517089
},{
"label": "Mesa de Huanusco (Mesa de Aguanusco)", "lat": 21.443333, "lng": -103.594722
},{
"label": "Cuevas Grandes", "lat": 21.529988, "lng": -103.619079
},{
"label": "Chihuitón", "lat": 21.480556, "lng": -103.513056
},{
"label": "Ojo de Agua", "lat": 21.486111, "lng": -103.506111
},{
"label": "Piedras Grandes", "lat": 21.479875, "lng": -103.477089
}]