[{
"label": "Enrique Estrada", "lat": 23.542751, "lng": -102.777473
},{
"label": "La Quemada", "lat": 23.511291, "lng": -102.813893
},{
"label": "El Jaralillo", "lat": 23.570359, "lng": -102.673518
},{
"label": "El Paraíso (La Dominga) [Rancho]", "lat": 23.638685, "lng": -102.765401
},{
"label": "Boquilla de Abajo", "lat": 23.557557, "lng": -102.863968
},{
"label": "Potrero el Árabe (El Árabe)", "lat": 23.541745, "lng": -102.57686
},{
"label": "Cañitas Viejo (Cañitas Viejas)", "lat": 23.620153, "lng": -102.708275
},{
"label": "El Saucillo", "lat": 23.568463, "lng": -102.755596
},{
"label": "Macedonio Ojeda", "lat": 23.599142, "lng": -102.619433
},{
"label": "Las Praderas (J. Jesús Hernández Rodríguez) [Rancho]", "lat": 23.561281, "lng": -102.771249
},{
"label": "San Francisco", "lat": 23.573051, "lng": -102.600267
},{
"label": "El Carmen [Rancho]", "lat": 23.565865, "lng": -102.625663
},{
"label": "Los Caballos", "lat": 23.604383, "lng": -102.780013
},{
"label": "El Porvenir", "lat": 23.624686, "lng": -102.709579
},{
"label": "Cañitas de Felipe Pescador", "lat": 23.606976, "lng": -102.72659
}]