[{
"label": "El Fernandeño (Juan Ángel Pérez Fraire)", "lat": 24.222254, "lng": -103.367132
},{
"label": "La Muralla", "lat": 24.29615, "lng": -103.324489
},{
"label": "La Antena", "lat": 24.175233, "lng": -103.31425
},{
"label": "Rosalío Hernández", "lat": 24.209416, "lng": -103.352654
},{
"label": "Juan Aldama", "lat": 24.290481, "lng": -103.39359
},{
"label": "Víctor Ríos", "lat": 24.166779, "lng": -103.31788
},{
"label": "Paradas (Hacienda de Paradas)", "lat": 24.370334, "lng": -103.269846
},{
"label": "Ranchito Triste", "lat": 24.262714, "lng": -103.351477
},{
"label": "Tanque Colorado (Rosendo García)", "lat": 24.111876, "lng": -103.274351
},{
"label": "Rancho de Jorge Calderón", "lat": 24.264565, "lng": -103.258252
},{
"label": "El Tecuán Dos (Bajío del Tecuán Dos)", "lat": 24.259311, "lng": -103.26849
},{
"label": "La Paloma (Carlos Briseño)", "lat": 24.269968, "lng": -103.362869
},{
"label": "San Felipe de Jesús (El Zacatón)", "lat": 24.254891, "lng": -103.243861
},{
"label": "Los Tres Potrillos (Rufino Ramírez)", "lat": 24.260396, "lng": -103.392137
},{
"label": "Los Carranza", "lat": 24.288198, "lng": -103.374986
},{
"label": "Corrales", "lat": 24.332653, "lng": -103.301651
},{
"label": "Ojitos", "lat": 24.308887, "lng": -103.344621
},{
"label": "Los Hernández", "lat": 24.270088, "lng": -103.274693
},{
"label": "Cerro de Elena", "lat": 24.238973, "lng": -103.360031
},{
"label": "El Puerto de la Carreta", "lat": 24.306877, "lng": -103.296451
},{
"label": "Don Migue [Yonke]", "lat": 24.277955, "lng": -103.373271
},{
"label": "José María Morelos (Morelos)", "lat": 24.173733, "lng": -103.290542
},{
"label": "General Juan José Ríos (Ciénega de San Francisco)", "lat": 24.326514, "lng": -103.405522
},{
"label": "Don Alfredo [Rancho]", "lat": 24.171897, "lng": -103.33209
},{
"label": "Potrero Cerro Mota (Baltazar Anguiano)", "lat": 24.275134, "lng": -103.362858
},{
"label": "Jalpa", "lat": 24.320531, "lng": -103.350738
},{
"label": "Espíritu Santo", "lat": 24.183558, "lng": -103.251288
},{
"label": "Los Limones (El Cerro Prieto)", "lat": 24.289928, "lng": -103.262313
},{
"label": "Eusebio Adame", "lat": 24.230133, "lng": -103.360204
},{
"label": "La Honda [Entronque]", "lat": 24.128958, "lng": -103.3057
},{
"label": "Los García", "lat": 24.315313, "lng": -103.4175
},{
"label": "Ninguno", "lat": 24.2244, "lng": -103.361598
},{
"label": "Juan Zúñiga", "lat": 24.200469, "lng": -103.326912
},{
"label": "Paradillas", "lat": 24.3673, "lng": -103.301016
},{
"label": "Las Norias", "lat": 24.267175, "lng": -103.283568
},{
"label": "Bajío del Tecuán Uno", "lat": 24.257905, "lng": -103.269595
},{
"label": "Los Martínez", "lat": 24.317109, "lng": -103.427197
},{
"label": "Santa Lucía (Odilón Cruz Rodríguez)", "lat": 24.314353, "lng": -103.359745
},{
"label": "Santa Elena", "lat": 24.299321, "lng": -103.290122
},{
"label": "Santa Inés", "lat": 24.225559, "lng": -103.3111
}]