[{
"label": "Tepatita", "lat": 21.917215, "lng": -103.296792
},{
"label": "Rancho del Padre", "lat": 21.913225, "lng": -103.283615
},{
"label": "Agua Salada", "lat": 21.9276, "lng": -103.280108
},{
"label": "Rancho Viejo", "lat": 21.903498, "lng": -103.380359
},{
"label": "Barrio San Sebastián (Anexo a Mómax)", "lat": 21.925282, "lng": -103.320339
},{
"label": "Los Reales", "lat": 21.962276, "lng": -103.285265
},{
"label": "Las Alcaparras", "lat": 21.897624, "lng": -103.35145
},{
"label": "Bajío de Gallegos", "lat": 21.941389, "lng": -103.3225
},{
"label": "San José de los Mota", "lat": 21.949136, "lng": -103.26306
},{
"label": "Momax", "lat": 21.922014, "lng": -103.313975
},{
"label": "El Tepetate", "lat": 21.901944, "lng": -103.361389
},{
"label": "Buenavista", "lat": 21.902221, "lng": -103.304188
},{
"label": "La Manchada", "lat": 21.977675, "lng": -103.183716
},{
"label": "El Rodeo", "lat": 21.946137, "lng": -103.303156
},{
"label": "La Joya", "lat": 21.969666, "lng": -103.28794
},{
"label": "Los Luna", "lat": 21.952492, "lng": -103.287999
},{
"label": "El Terremoto", "lat": 21.933959, "lng": -103.313528
},{
"label": "Coculitén", "lat": 21.967222, "lng": -103.268056
},{
"label": "Atotonilco", "lat": 21.923061, "lng": -103.325725
},{
"label": "San Juan", "lat": 21.907093, "lng": -103.312933
},{
"label": "Los Vela", "lat": 21.943493, "lng": -103.230941
},{
"label": "El Conejal", "lat": 21.920417, "lng": -103.307585
},{
"label": "La Azucena", "lat": 21.942098, "lng": -103.309339
},{
"label": "El Rebaje", "lat": 21.894498, "lng": -103.305173
},{
"label": "El Zapote", "lat": 21.906111, "lng": -103.353611
},{
"label": "El Jardín", "lat": 21.900327, "lng": -103.319974
},{
"label": "Paso del Río", "lat": 21.940509, "lng": -103.305291
},{
"label": "La Providencia", "lat": 21.9625, "lng": -103.272778
},{
"label": "Los Álvarez", "lat": 21.956062, "lng": -103.28015
},{
"label": "Arroyo Hondo", "lat": 21.97128, "lng": -103.159152
},{
"label": "Plan del Toro", "lat": 21.903927, "lng": -103.308811
},{
"label": "San Lorenzo", "lat": 21.96133, "lng": -103.229713
},{
"label": "El Crucero", "lat": 21.967434, "lng": -103.307395
},{
"label": "Los Martínez", "lat": 21.98185, "lng": -103.287493
},{
"label": "Agua Blanca", "lat": 21.917103, "lng": -103.307061
}]