[{
"label": "El Granjeno", "lat": 21.155006, "lng": -103.264032
},{
"label": "Los Hornitos", "lat": 21.282222, "lng": -103.141389
},{
"label": "San José", "lat": 21.217778, "lng": -103.178575
},{
"label": "Huerta Grande", "lat": 21.208042, "lng": -103.18086
},{
"label": "Jesús María", "lat": 21.097215, "lng": -103.156503
},{
"label": "Barranca del Río (El Potrero)", "lat": 21.147915, "lng": -103.204209
},{
"label": "Cerro Alto", "lat": 21.275829, "lng": -103.250702
},{
"label": "Atecajete", "lat": 21.161376, "lng": -103.143573
},{
"label": "La Presa", "lat": 21.082073, "lng": -103.134058
},{
"label": "El Sauz", "lat": 21.073889, "lng": -103.120833
},{
"label": "Moyahua de Estrada", "lat": 21.265594, "lng": -103.165697
},{
"label": "El Comité (Atomite)", "lat": 21.199722, "lng": -103.179444
},{
"label": "Mesa Alta", "lat": 21.286857, "lng": -103.253821
},{
"label": "Arroyo Verde", "lat": 21.124051, "lng": -103.130744
},{
"label": "Los Chiqueros", "lat": 21.093901, "lng": -103.080979
},{
"label": "Alameda Juárez (Santa Rosa)", "lat": 21.192446, "lng": -103.174605
},{
"label": "Buenavista", "lat": 21.256138, "lng": -103.109781
},{
"label": "Santa Lucía", "lat": 21.280751, "lng": -103.218332
},{
"label": "Paso Hondo", "lat": 21.225028, "lng": -103.184459
},{
"label": "Los Cedritos", "lat": 21.076236, "lng": -103.148251
},{
"label": "Los Cedros", "lat": 21.12499, "lng": -103.184402
},{
"label": "Los Troncones", "lat": 21.136384, "lng": -103.186883
},{
"label": "Salto Prieto", "lat": 21.235222, "lng": -103.121339
},{
"label": "Los Aceros (Donaciano Huerta Juárez)", "lat": 21.120273, "lng": -103.139124
},{
"label": "Los Bajíos", "lat": 21.088056, "lng": -103.151111
},{
"label": "La Lobera", "lat": 21.267816, "lng": -103.09722
},{
"label": "El Cajón", "lat": 21.138571, "lng": -103.213016
},{
"label": "Las Bateas (Palo Blanco)", "lat": 21.131434, "lng": -103.193728
},{
"label": "Las Uvas", "lat": 21.196389, "lng": -103.230556
},{
"label": "San Lorenzo", "lat": 21.144832, "lng": -103.190277
},{
"label": "Los Bancos (El Banco)", "lat": 21.137778, "lng": -103.265556
},{
"label": "La Morita", "lat": 21.078271, "lng": -103.107998
},{
"label": "Santa María", "lat": 21.114044, "lng": -103.177049
},{
"label": "Peña Prieta", "lat": 21.270189, "lng": -103.172857
},{
"label": "Santa Cruz", "lat": 21.234592, "lng": -103.105804
},{
"label": "La Ciénega", "lat": 21.150278, "lng": -103.274722
},{
"label": "Las Presas", "lat": 21.106199, "lng": -103.112814
},{
"label": "Palo Verde", "lat": 21.3071, "lng": -103.214601
},{
"label": "San Pedro de Arriba", "lat": 21.129167, "lng": -103.268333
},{
"label": "Los Tezontes", "lat": 21.27779, "lng": -103.231325
},{
"label": "Valenciana", "lat": 21.139863, "lng": -103.107995
},{
"label": "La Boquilla", "lat": 21.116578, "lng": -103.159435
},{
"label": "Agua Zarca", "lat": 21.086069, "lng": -103.109784
},{
"label": "Llano Herrera", "lat": 21.320373, "lng": -103.152214
},{
"label": "Los Arados", "lat": 21.206519, "lng": -103.124368
},{
"label": "Las Juntas", "lat": 21.203316, "lng": -103.252416
},{
"label": "La Media Luna", "lat": 21.122322, "lng": -103.147449
},{
"label": "Huejotitlán (Huajotitán)", "lat": 21.206152, "lng": -103.217135
},{
"label": "Las Palmas", "lat": 21.136141, "lng": -103.181997
},{
"label": "Mojoneras", "lat": 21.219252, "lng": -103.117743
},{
"label": "La Mesa de las Flores", "lat": 21.295636, "lng": -103.073011
},{
"label": "Moyahua Viejo", "lat": 21.28121, "lng": -103.182556
},{
"label": "Atexca", "lat": 21.234491, "lng": -103.213537
},{
"label": "Mezquituta", "lat": 21.240518, "lng": -103.177272
},{
"label": "El Puerto", "lat": 21.127305, "lng": -103.210653
},{
"label": "Paredes (Las Paredes)", "lat": 21.209549, "lng": -103.177736
},{
"label": "Vicente Guerrero (La Boquilla)", "lat": 21.286914, "lng": -103.110728
},{
"label": "Acongo", "lat": 21.251537, "lng": -103.1518
},{
"label": "Arroyo Grande", "lat": 21.143626, "lng": -103.119379
},{
"label": "Paseo al Monte (Camino a la Boquilla)", "lat": 21.267773, "lng": -103.158155
},{
"label": "Colonias", "lat": 21.119699, "lng": -103.171154
},{
"label": "El Pitayo (El Pitayito)", "lat": 21.253727, "lng": -103.097806
},{
"label": "Las Azoteas", "lat": 21.152831, "lng": -103.100359
},{
"label": "Corta Picos", "lat": 21.204444, "lng": -103.232222
},{
"label": "Palmarejo", "lat": 21.105097, "lng": -103.126628
},{
"label": "La Bolsa", "lat": 21.169832, "lng": -103.191617
},{
"label": "El Ocote", "lat": 21.150302, "lng": -103.211724
},{
"label": "Los Barros", "lat": 21.106026, "lng": -103.142343
},{
"label": "El Maguey", "lat": 21.130405, "lng": -103.178404
},{
"label": "Las Codornices", "lat": 21.091046, "lng": -103.140603
},{
"label": "Atevaida", "lat": 21.06489, "lng": -103.125466
},{
"label": "Mesa Santa Teresa (Santa Teresa)", "lat": 21.289371, "lng": -103.159506
},{
"label": "El Alacrán", "lat": 21.108329, "lng": -103.131741
},{
"label": "El Sabino", "lat": 21.254704, "lng": -103.178343
},{
"label": "La Trinidad", "lat": 21.081295, "lng": -103.118978
},{
"label": "El Dulce [Rancho]", "lat": 21.280546, "lng": -103.161121
},{
"label": "El Mirador (El Tempisque)", "lat": 21.331137, "lng": -103.207806
},{
"label": "El Aguacate", "lat": 21.067217, "lng": -103.150447
},{
"label": "Las Maravillas [Rancho]", "lat": 21.202923, "lng": -103.176546
},{
"label": "La Concepción", "lat": 21.242557, "lng": -103.184983
},{
"label": "Plaza Redonda", "lat": 21.089444, "lng": -103.162778
},{
"label": "Las Escobas", "lat": 21.184381, "lng": -103.204774
},{
"label": "La Soledad", "lat": 21.308889, "lng": -103.180833
},{
"label": "Las Águilas", "lat": 21.117865, "lng": -103.107075
},{
"label": "Los Coyotes", "lat": 21.128549, "lng": -103.166856
},{
"label": "Cuxpala", "lat": 21.289119, "lng": -103.226381
},{
"label": "El Rincón del Diablo", "lat": 21.078886, "lng": -103.093129
},{
"label": "El Limón", "lat": 21.102122, "lng": -103.161565
}]