[{
"label": "Cerrito de los Coyotes", "lat": 21.524375, "lng": -103.423169
},{
"label": "San José", "lat": 21.516539, "lng": -103.456568
},{
"label": "La Laguna", "lat": 21.541221, "lng": -103.383611
},{
"label": "El Arenal", "lat": 21.496919, "lng": -103.367995
},{
"label": "Las Granjas", "lat": 21.520085, "lng": -103.41891
},{
"label": "Los Rodríguez", "lat": 21.491097, "lng": -103.408644
},{
"label": "Hacienda Vieja", "lat": 21.477647, "lng": -103.301868
},{
"label": "Las Penitas (Las Peñitas)", "lat": 21.500473, "lng": -103.405149
},{
"label": "Los Cuartos", "lat": 21.490184, "lng": -103.42196
},{
"label": "Las Ranas", "lat": 21.492617, "lng": -103.330717
},{
"label": "El Saucito", "lat": 21.522292, "lng": -103.381712
},{
"label": "Santa María de la Paz", "lat": 21.512178, "lng": -103.407042
},{
"label": "Buenavista", "lat": 21.549106, "lng": -103.369645
},{
"label": "La Calera", "lat": 21.505684, "lng": -103.342382
},{
"label": "San Isidro", "lat": 21.486425, "lng": -103.337268
},{
"label": "Arroyo de Santa María (El Pino)", "lat": 21.524397, "lng": -103.4488
},{
"label": "La Piedra Bola", "lat": 21.506958, "lng": -103.316377
},{
"label": "El Pantano", "lat": 21.548, "lng": -103.49522
},{
"label": "Los Cedros", "lat": 21.512662, "lng": -103.262411
},{
"label": "Los Horcones", "lat": 21.498636, "lng": -103.267078
},{
"label": "El Palo Verde", "lat": 21.521519, "lng": -103.430694
},{
"label": "El Jaralito", "lat": 21.484187, "lng": -103.359121
},{
"label": "El Laurel", "lat": 21.535089, "lng": -103.457596
},{
"label": "Mesa Grande", "lat": 21.553438, "lng": -103.414701
},{
"label": "Las Cabras", "lat": 21.480415, "lng": -103.31479
},{
"label": "San Miguel Tepetitlán", "lat": 21.504213, "lng": -103.335932
},{
"label": "El Terrero", "lat": 21.482786, "lng": -103.28151
},{
"label": "La Escuadra (Cerro Codorniz)", "lat": 21.528619, "lng": -103.347251
},{
"label": "El Capulín", "lat": 21.509722, "lng": -103.289444
},{
"label": "El Zapotito", "lat": 21.564376, "lng": -103.431746
},{
"label": "San Rafael", "lat": 21.527595, "lng": -103.372259
},{
"label": "El Picacho (Hidalgo)", "lat": 21.548081, "lng": -103.449628
},{
"label": "Marines", "lat": 21.561823, "lng": -103.392297
},{
"label": "El Bellaco [Rancho]", "lat": 21.497485, "lng": -103.324594
},{
"label": "Las Tablas", "lat": 21.460688, "lng": -103.26157
},{
"label": "Santa Fe", "lat": 21.528992, "lng": -103.385095
},{
"label": "Agua Santa", "lat": 21.487023, "lng": -103.323724
},{
"label": "El Soto", "lat": 21.565467, "lng": -103.370081
},{
"label": "Las Águilas", "lat": 21.496038, "lng": -103.302316
},{
"label": "El Carricito", "lat": 21.506639, "lng": -103.324892
},{
"label": "Los Trigos (Mesa de los Trigos)", "lat": 21.497599, "lng": -103.241053
},{
"label": "El Guitarrero", "lat": 21.529887, "lng": -103.216722
}]