[{
"label": "Arroyo los Gorriones", "lat": 22.614375, "lng": -103.128173
},{
"label": "Los Cuervos", "lat": 22.612496, "lng": -103.173804
},{
"label": "La Cueva del Saucillo", "lat": 22.602144, "lng": -103.196145
},{
"label": "El Negro Santo", "lat": 22.598842, "lng": -103.167751
},{
"label": "La Cofradía (El Álamo)", "lat": 22.612364, "lng": -103.12505
},{
"label": "El Barbecho Grande [Rancho]", "lat": 22.596228, "lng": -103.240186
},{
"label": "Ciénega de Arriba", "lat": 22.662519, "lng": -103.15312
},{
"label": "Susticacán", "lat": 22.611089, "lng": -103.099689
},{
"label": "San Jacinto", "lat": 22.575753, "lng": -103.112614
},{
"label": "El Chiquihuite", "lat": 22.5971, "lng": -103.224533
},{
"label": "Las Lomitas", "lat": 22.627486, "lng": -103.122818
},{
"label": "El Cardito", "lat": 22.622543, "lng": -103.141653
},{
"label": "Arroyito Blanco", "lat": 22.620763, "lng": -103.114566
},{
"label": "Cieneguitas", "lat": 22.643605, "lng": -103.134292
},{
"label": "Tierra Blanca", "lat": 22.589923, "lng": -103.104329
},{
"label": "Cerrito Blanco", "lat": 22.618056, "lng": -103.130597
}]