[{
"label": "La Tarjea", "lat": 21.175188, "lng": -103.498111
},{
"label": "San José", "lat": 21.174672, "lng": -103.534596
},{
"label": "Los Sauces", "lat": 21.25455, "lng": -103.475298
},{
"label": "La Laguna", "lat": 21.167222, "lng": -103.460278
},{
"label": "El Barranco", "lat": 21.258201, "lng": -103.5218
},{
"label": "San Martín de las Peñas (San Martín de Arriba)", "lat": 21.144069, "lng": -103.505806
},{
"label": "Jesús María", "lat": 21.197701, "lng": -103.515259
},{
"label": "La Loma (La Hacienda)", "lat": 21.219981, "lng": -103.526818
},{
"label": "La Estanzuela", "lat": 21.20979, "lng": -103.464871
},{
"label": "La Tetilla", "lat": 21.276153, "lng": -103.468258
},{
"label": "Las Mesitas", "lat": 21.223302, "lng": -103.425351
},{
"label": "Arroyo de Guadalupe", "lat": 21.254629, "lng": -103.502966
},{
"label": "Arroyo Verde", "lat": 21.186374, "lng": -103.533636
},{
"label": "El Bordo", "lat": 21.243066, "lng": -103.499057
},{
"label": "Mesa de Santiago (La Virgen)", "lat": 21.179188, "lng": -103.525258
},{
"label": "El Carretón", "lat": 21.186269, "lng": -103.553799
},{
"label": "Tierra Blanca", "lat": 21.2887, "lng": -103.502854
},{
"label": "San Gregorio", "lat": 21.262943, "lng": -103.45931
},{
"label": "Cerrito de la Riqueza", "lat": 21.221202, "lng": -103.434212
},{
"label": "Cebolletas", "lat": 21.245421, "lng": -103.547176
},{
"label": "La Joya", "lat": 21.167588, "lng": -103.602744
},{
"label": "El Mirador (El Bordo del Mirador)", "lat": 21.245513, "lng": -103.486314
},{
"label": "Totomosco", "lat": 21.178611, "lng": -103.549167
},{
"label": "Samuel Robles", "lat": 21.199722, "lng": -103.4675
},{
"label": "Las Vueltas", "lat": 21.178875, "lng": -103.438325
},{
"label": "El Centro [Rancho]", "lat": 21.271161, "lng": -103.448624
},{
"label": "Romerillo", "lat": 21.280363, "lng": -103.437006
},{
"label": "La Ceja", "lat": 21.245387, "lng": -103.465293
},{
"label": "El Tambor", "lat": 21.267615, "lng": -103.47902
},{
"label": "El Zapote", "lat": 21.160959, "lng": -103.48846
},{
"label": "Los Planes", "lat": 21.202518, "lng": -103.531849
},{
"label": "El Saucillo", "lat": 21.209041, "lng": -103.532296
},{
"label": "Las Huertitas", "lat": 21.255638, "lng": -103.483207
},{
"label": "El Melón", "lat": 21.215919, "lng": -103.547092
},{
"label": "Loma de Magallanes", "lat": 21.258278, "lng": -103.486343
},{
"label": "La Higuerita (La Mesa)", "lat": 21.236482, "lng": -103.504694
},{
"label": "Ranchito de los Sánchez (El Ranchito)", "lat": 21.288121, "lng": -103.456475
},{
"label": "San Martín de las Peñas (San Martín de Abajo)", "lat": 21.147899, "lng": -103.509786
},{
"label": "Los Guzmanes", "lat": 21.28, "lng": -103.419444
},{
"label": "El Arroyo del Jilguero", "lat": 21.24518, "lng": -103.509466
},{
"label": "Vara Dulce", "lat": 21.194242, "lng": -103.525454
},{
"label": "La Sierrita", "lat": 21.305497, "lng": -103.439999
},{
"label": "La Haciendita", "lat": 21.229022, "lng": -103.44079
},{
"label": "Planillas", "lat": 21.184114, "lng": -103.535187
},{
"label": "Santa Rosa", "lat": 21.218046, "lng": -103.419192
},{
"label": "La Ciénega", "lat": 21.262513, "lng": -103.514504
},{
"label": "Chocotinta", "lat": 21.260976, "lng": -103.540708
},{
"label": "Llano de las Palomas", "lat": 21.256784, "lng": -103.4644
},{
"label": "El Álamo", "lat": 21.241744, "lng": -103.513993
},{
"label": "El Plan", "lat": 21.225578, "lng": -103.555263
},{
"label": "El Chongo Morado", "lat": 21.188256, "lng": -103.537203
},{
"label": "Las Higueras", "lat": 21.181414, "lng": -103.533047
},{
"label": "Puerta Blanca (El Lindero)", "lat": 21.227408, "lng": -103.496678
},{
"label": "Rancho Viejo", "lat": 21.176747, "lng": -103.531761
},{
"label": "El Tepehuaje", "lat": 21.276357, "lng": -103.448364
},{
"label": "Los Horconcillos", "lat": 21.212407, "lng": -103.479641
},{
"label": "Loma de los Larios", "lat": 21.258232, "lng": -103.500126
},{
"label": "Las Majadas", "lat": 21.26195, "lng": -103.48859
},{
"label": "El Costurón (La Boquilla)", "lat": 21.257843, "lng": -103.444549
},{
"label": "Cerro de San Juan (Agua Blanca)", "lat": 21.18957, "lng": -103.5731
},{
"label": "Los Arados", "lat": 21.26825, "lng": -103.438375
},{
"label": "La Media Luna", "lat": 21.286697, "lng": -103.427141
},{
"label": "Santa Rita", "lat": 21.171299, "lng": -103.531121
},{
"label": "Emilio Guzmán", "lat": 21.217962, "lng": -103.459803
},{
"label": "Arroyo del Zapote (El Zapote)", "lat": 21.212576, "lng": -103.514579
},{
"label": "Buenavista (El Pitayo)", "lat": 21.191614, "lng": -103.472218
},{
"label": "El Ranchito", "lat": 21.174464, "lng": -103.530618
},{
"label": "El Cavadero", "lat": 21.246639, "lng": -103.44544
},{
"label": "El Puerto", "lat": 21.265896, "lng": -103.500471
},{
"label": "El Rodeo", "lat": 21.306036, "lng": -103.434838
},{
"label": "La Cueva de los Larios", "lat": 21.256497, "lng": -103.436398
},{
"label": "Espinazo del Diablo", "lat": 21.13515, "lng": -103.577953
},{
"label": "Barbecho Blanco", "lat": 21.1775, "lng": -103.545556
},{
"label": "Encinos", "lat": 21.206405, "lng": -103.516192
},{
"label": "Peña Blanca", "lat": 21.168611, "lng": -103.524722
},{
"label": "Huízar (Los Huízares)", "lat": 21.189614, "lng": -103.563157
},{
"label": "Los Ocotes", "lat": 21.237778, "lng": -103.418611
},{
"label": "Tacubaya", "lat": 21.183911, "lng": -103.513268
},{
"label": "Milpillas", "lat": 21.303822, "lng": -103.461939
},{
"label": "El Mezquite", "lat": 21.153611, "lng": -103.479167
},{
"label": "La Mesita", "lat": 21.232222, "lng": -103.431667
},{
"label": "La Mesa", "lat": 21.240941, "lng": -103.477349
},{
"label": "Los Coyotes", "lat": 21.220322, "lng": -103.4465
},{
"label": "Los Ciruelos", "lat": 21.192958, "lng": -103.534424
},{
"label": "Taunas", "lat": 21.163098, "lng": -103.507468
},{
"label": "Agua Blanca", "lat": 21.187378, "lng": -103.584307
},{
"label": "Rincón del Bajío (El Bajío)", "lat": 21.204642, "lng": -103.437176
}]