[{
"label": "Ojo Zarco", "lat": 22.154571, "lng": -102.012664
},{
"label": "El Cerrito de Enmedio", "lat": 22.181778, "lng": -101.966966
},{
"label": "El Tanque de Pino", "lat": 22.14346, "lng": -101.802128
},{
"label": "Montoro Chico", "lat": 22.028482, "lng": -101.832668
},{
"label": "Montoro", "lat": 22.049511, "lng": -101.815573
},{
"label": "Los Chanillos", "lat": 22.208504, "lng": -101.934708
},{
"label": "Los Leones", "lat": 22.148611, "lng": -101.956944
},{
"label": "Mexicanos", "lat": 22.193243, "lng": -101.973173
},{
"label": "Emiliano Zapata (Arrebiatadas)", "lat": 22.147819, "lng": -101.888603
},{
"label": "El Vergel (La Majada)", "lat": 22.132778, "lng": -101.820833
},{
"label": "Villa García", "lat": 22.164898, "lng": -101.956319
},{
"label": "San Agustín (Los Cuevas)", "lat": 22.155374, "lng": -101.949505
},{
"label": "El Preciado", "lat": 22.090736, "lng": -101.857994
},{
"label": "Agua Gorda", "lat": 22.106831, "lng": -101.921577
},{
"label": "Presa del Capulín", "lat": 22.195556, "lng": -101.945556
},{
"label": "Ignacio Zaragoza (San Ignacio)", "lat": 22.142638, "lng": -101.908515
},{
"label": "Los Vergeles", "lat": 22.189208, "lng": -101.965121
},{
"label": "Puerta Blanca", "lat": 22.150556, "lng": -101.937222
},{
"label": "Las Palmas [Rancho]", "lat": 22.147222, "lng": -101.823889
},{
"label": "El Rayo", "lat": 22.132222, "lng": -101.9175
},{
"label": "Los Horcones", "lat": 22.145634, "lng": -101.844917
},{
"label": "El Capulín", "lat": 22.186694, "lng": -101.930042
},{
"label": "El Muertito", "lat": 22.154454, "lng": -101.943335
},{
"label": "Los Planes", "lat": 22.130278, "lng": -101.9325
},{
"label": "El Cuije", "lat": 22.171064, "lng": -101.889461
},{
"label": "Noria Ojo de Agua", "lat": 22.181242, "lng": -101.961676
},{
"label": "La Montesa", "lat": 22.063405, "lng": -101.831824
},{
"label": "Tierritas Blancas", "lat": 22.119878, "lng": -101.919168
},{
"label": "San Martín [Granja]", "lat": 22.094938, "lng": -101.928957
},{
"label": "Agua Gordita", "lat": 22.134255, "lng": -101.970072
},{
"label": "Ninguno", "lat": 22.165186, "lng": -101.962763
},{
"label": "Ixtacalco", "lat": 22.142098, "lng": -101.948872
},{
"label": "Chupaderos", "lat": 22.068985, "lng": -101.879753
},{
"label": "Puerta de las Cruces", "lat": 22.205, "lng": -101.939167
},{
"label": "El Picacho", "lat": 22.163611, "lng": -101.869167
},{
"label": "Granadas", "lat": 22.102646, "lng": -101.864553
},{
"label": "Carlos Pérez Díaz", "lat": 22.1769, "lng": -101.964658
},{
"label": "Los Pinos", "lat": 22.137478, "lng": -101.977241
},{
"label": "Benito Juárez (Coyotes)", "lat": 22.074508, "lng": -101.862213
},{
"label": "Los Juanes", "lat": 22.108222, "lng": -101.908422
},{
"label": "Ojo de Agua", "lat": 22.136403, "lng": -101.91905
},{
"label": "La Milpa", "lat": 22.060295, "lng": -101.868361
},{
"label": "Unión y Progreso", "lat": 22.11828, "lng": -101.977707
},{
"label": "Los Hoyos (La Chaveña)", "lat": 22.151034, "lng": -101.974218
},{
"label": "El Rucio", "lat": 22.049434, "lng": -101.834625
},{
"label": "Francisco I. Madero (Aguas Muertas)", "lat": 22.12714, "lng": -101.823471
},{
"label": "Ranchería de Juan Álvarez", "lat": 22.144382, "lng": -101.877931
},{
"label": "Las Cruces", "lat": 22.211995, "lng": -101.939549
},{
"label": "El Tepetatillo", "lat": 22.079169, "lng": -101.907089
},{
"label": "La Galera", "lat": 22.178212, "lng": -101.957889
},{
"label": "La Tacha", "lat": 22.153606, "lng": -101.878439
},{
"label": "San Ángel", "lat": 22.144821, "lng": -101.960492
},{
"label": "La Cruz", "lat": 22.116934, "lng": -101.902654
},{
"label": "El Copetillo", "lat": 22.143679, "lng": -102.003229
},{
"label": "La Puerta de Jalisco", "lat": 22.166666, "lng": -101.786801
},{
"label": "El Jaralillo", "lat": 22.158066, "lng": -101.944157
},{
"label": "El Palomo (Rincón de Badillo)", "lat": 22.198056, "lng": -101.956111
},{
"label": "La Huertita (Jesús Pérez Campos)", "lat": 22.022368, "lng": -101.827436
},{
"label": "Las Piedras", "lat": 22.020935, "lng": -101.817301
},{
"label": "El Bautismo", "lat": 22.095594, "lng": -101.879602
},{
"label": "El Tepeyac", "lat": 22.160379, "lng": -101.961095
},{
"label": "Los Campos", "lat": 22.027169, "lng": -101.843397
},{
"label": "Colonia Buenavista", "lat": 22.156974, "lng": -101.943238
},{
"label": "El Fresno", "lat": 22.034167, "lng": -101.788611
},{
"label": "Rancho Nuevo", "lat": 22.168358, "lng": -101.824889
}]