[{
"label": "Tizapán el Alto", "lat": 20.125481439024394, "lng": -103.07627509756098,"info": "Total: 41 <br><a target='_blank' href=\"/data/mexico/jalisco/tizapan-el-alto.json\">Descargar JSON</a>","children": "data/mexico/jalisco/tizapan-el-alto.json"
},{
"label": "Zapotlán el Grande", "lat": 19.704072951871662, "lng": -103.49440970053475,"info": "Total: 187 <br><a target='_blank' href=\"/data/mexico/jalisco/zapotlan-el-grande.json\">Descargar JSON</a>","children": "data/mexico/jalisco/zapotlan-el-grande.json"
},{
"label": "San Julián", "lat": 20.99025229487179, "lng": -102.16287083333336,"info": "Total: 78 <br><a target='_blank' href=\"/data/mexico/jalisco/san-julian.json\">Descargar JSON</a>","children": "data/mexico/jalisco/san-julian.json"
},{
"label": "Chimaltitán", "lat": 21.748542275, "lng": -103.69733116875,"info": "Total: 160 <br><a target='_blank' href=\"/data/mexico/jalisco/chimaltitan.json\">Descargar JSON</a>","children": "data/mexico/jalisco/chimaltitan.json"
},{
"label": "Jesús María", "lat": 20.62534614778324, "lng": -102.13382943842365,"info": "Total: 203 <br><a target='_blank' href=\"/data/mexico/jalisco/jesus-maria.json\">Descargar JSON</a>","children": "data/mexico/jalisco/jesus-maria.json"
},{
"label": "El Salto", "lat": 20.534008999999998, "lng": -103.2201257777778,"info": "Total: 54 <br><a target='_blank' href=\"/data/mexico/jalisco/el-salto.json\">Descargar JSON</a>","children": "data/mexico/jalisco/el-salto.json"
},{
"label": "Cabo Corrientes", "lat": 20.34275410762332, "lng": -105.39701434080715,"info": "Total: 223 <br><a target='_blank' href=\"/data/mexico/jalisco/cabo-corrientes.json\">Descargar JSON</a>","children": "data/mexico/jalisco/cabo-corrientes.json"
},{
"label": "San Martín Hidalgo", "lat": 20.436059999999994, "lng": -103.91631518918919,"info": "Total: 74 <br><a target='_blank' href=\"/data/mexico/jalisco/san-martin-hidalgo.json\">Descargar JSON</a>","children": "data/mexico/jalisco/san-martin-hidalgo.json"
},{
"label": "San Ignacio Cerro Gordo", "lat": 20.760780022727285, "lng": -102.5107462159091,"info": "Total: 88 <br><a target='_blank' href=\"/data/mexico/jalisco/san-ignacio-cerro-gordo.json\">Descargar JSON</a>","children": "data/mexico/jalisco/san-ignacio-cerro-gordo.json"
},{
"label": "Autlán de Navarro", "lat": 19.75489172363637, "lng": -104.3049914727273,"info": "Total: 275 <br><a target='_blank' href=\"/data/mexico/jalisco/autlan-de-navarro.json\">Descargar JSON</a>","children": "data/mexico/jalisco/autlan-de-navarro.json"
},{
"label": "Pihuamo", "lat": 19.19005924800001, "lng": -103.37885639599999,"info": "Total: 250 <br><a target='_blank' href=\"/data/mexico/jalisco/pihuamo.json\">Descargar JSON</a>","children": "data/mexico/jalisco/pihuamo.json"
},{
"label": "Tenamaxtlán", "lat": 20.16184235714286, "lng": -104.17040309999999,"info": "Total: 70 <br><a target='_blank' href=\"/data/mexico/jalisco/tenamaxtlan.json\">Descargar JSON</a>","children": "data/mexico/jalisco/tenamaxtlan.json"
},{
"label": "Teocaltiche", "lat": 21.472819670370367, "lng": -102.5435985222223,"info": "Total: 270 <br><a target='_blank' href=\"/data/mexico/jalisco/teocaltiche.json\">Descargar JSON</a>","children": "data/mexico/jalisco/teocaltiche.json"
},{
"label": "Huejúcar", "lat": 22.332984315789474, "lng": -103.25307275789476,"info": "Total: 95 <br><a target='_blank' href=\"/data/mexico/jalisco/huejucar.json\">Descargar JSON</a>","children": "data/mexico/jalisco/huejucar.json"
},{
"label": "Arandas", "lat": 20.76196116871165, "lng": -102.30638171165648,"info": "Total: 326 <br><a target='_blank' href=\"/data/mexico/jalisco/arandas.json\">Descargar JSON</a>","children": "data/mexico/jalisco/arandas.json"
},{
"label": "Ojuelos de Jalisco", "lat": 21.817480267857146, "lng": -101.68485852678573,"info": "Total: 112 <br><a target='_blank' href=\"/data/mexico/jalisco/ojuelos-de-jalisco.json\">Descargar JSON</a>","children": "data/mexico/jalisco/ojuelos-de-jalisco.json"
},{
"label": "Cuquío", "lat": 20.96362362200957, "lng": -103.03726052631582,"info": "Total: 209 <br><a target='_blank' href=\"/data/mexico/jalisco/cuquio.json\">Descargar JSON</a>","children": "data/mexico/jalisco/cuquio.json"
},{
"label": "Tecalitlán", "lat": 19.273694814332234, "lng": -103.21293004234525,"info": "Total: 307 <br><a target='_blank' href=\"/data/mexico/jalisco/tecalitlan.json\">Descargar JSON</a>","children": "data/mexico/jalisco/tecalitlan.json"
},{
"label": "Valle de Guadalupe", "lat": 21.050802927927922, "lng": -102.63932213513516,"info": "Total: 111 <br><a target='_blank' href=\"/data/mexico/jalisco/valle-de-guadalupe.json\">Descargar JSON</a>","children": "data/mexico/jalisco/valle-de-guadalupe.json"
},{
"label": "La Manzanilla de la Paz", "lat": 20.020369612903224, "lng": -103.1158091935484,"info": "Total: 31 <br><a target='_blank' href=\"/data/mexico/jalisco/la-manzanilla-de-la-paz.json\">Descargar JSON</a>","children": "data/mexico/jalisco/la-manzanilla-de-la-paz.json"
},{
"label": "Tonila", "lat": 19.42815975, "lng": -103.53159805769229,"info": "Total: 52 <br><a target='_blank' href=\"/data/mexico/jalisco/tonila.json\">Descargar JSON</a>","children": "data/mexico/jalisco/tonila.json"
},{
"label": "Tapalpa", "lat": 19.95060997267759, "lng": -103.73748509836066,"info": "Total: 183 <br><a target='_blank' href=\"/data/mexico/jalisco/tapalpa.json\">Descargar JSON</a>","children": "data/mexico/jalisco/tapalpa.json"
},{
"label": "Concepción de Buenos Aires", "lat": 19.99231111764706, "lng": -103.22131384313727,"info": "Total: 51 <br><a target='_blank' href=\"/data/mexico/jalisco/concepcion-de-buenos-aires.json\">Descargar JSON</a>","children": "data/mexico/jalisco/concepcion-de-buenos-aires.json"
},{
"label": "Tamazula de Gordiano", "lat": 19.66058777850165, "lng": -103.17025557003258,"info": "Total: 307 <br><a target='_blank' href=\"/data/mexico/jalisco/tamazula-de-gordiano.json\">Descargar JSON</a>","children": "data/mexico/jalisco/tamazula-de-gordiano.json"
},{
"label": "Talpa de Allende", "lat": 20.284111794776102, "lng": -104.91349214925381,"info": "Total: 268 <br><a target='_blank' href=\"/data/mexico/jalisco/talpa-de-allende.json\">Descargar JSON</a>","children": "data/mexico/jalisco/talpa-de-allende.json"
},{
"label": "Amacueca", "lat": 19.988745532258058, "lng": -103.61315464516126,"info": "Total: 62 <br><a target='_blank' href=\"/data/mexico/jalisco/amacueca.json\">Descargar JSON</a>","children": "data/mexico/jalisco/amacueca.json"
},{
"label": "San Martín de Bolaños", "lat": 21.60674371910112, "lng": -103.80491471910112,"info": "Total: 178 <br><a target='_blank' href=\"/data/mexico/jalisco/san-martin-de-bolanos.json\">Descargar JSON</a>","children": "data/mexico/jalisco/san-martin-de-bolanos.json"
},{
"label": "Totatiche", "lat": 21.94122200787401, "lng": -103.47599015748035,"info": "Total: 127 <br><a target='_blank' href=\"/data/mexico/jalisco/totatiche.json\">Descargar JSON</a>","children": "data/mexico/jalisco/totatiche.json"
},{
"label": "Tlajomulco de Zúñiga", "lat": 20.488590887850464, "lng": -103.41824767289715,"info": "Total: 321 <br><a target='_blank' href=\"/data/mexico/jalisco/tlajomulco-de-zuniga.json\">Descargar JSON</a>","children": "data/mexico/jalisco/tlajomulco-de-zuniga.json"
},{
"label": "Acatic", "lat": 20.76488272413793, "lng": -102.91432003448277,"info": "Total: 116 <br><a target='_blank' href=\"/data/mexico/jalisco/acatic.json\">Descargar JSON</a>","children": "data/mexico/jalisco/acatic.json"
},{
"label": "Tuxpan", "lat": 19.487972160221, "lng": -103.42831558011046,"info": "Total: 181 <br><a target='_blank' href=\"/data/mexico/jalisco/tuxpan.json\">Descargar JSON</a>","children": "data/mexico/jalisco/tuxpan.json"
},{
"label": "El Arenal", "lat": 20.754563873239444, "lng": -103.65995354929576,"info": "Total: 71 <br><a target='_blank' href=\"/data/mexico/jalisco/el-arenal.json\">Descargar JSON</a>","children": "data/mexico/jalisco/el-arenal.json"
},{
"label": "Atemajac de Brizuela", "lat": 20.142830675000003, "lng": -103.71180849999996,"info": "Total: 40 <br><a target='_blank' href=\"/data/mexico/jalisco/atemajac-de-brizuela.json\">Descargar JSON</a>","children": "data/mexico/jalisco/atemajac-de-brizuela.json"
},{
"label": "Encarnación de Díaz", "lat": 21.5766459751693, "lng": -102.18022583972916,"info": "Total: 443 <br><a target='_blank' href=\"/data/mexico/jalisco/encarnacion-de-diaz.json\">Descargar JSON</a>","children": "data/mexico/jalisco/encarnacion-de-diaz.json"
},{
"label": "Villa Hidalgo", "lat": 21.66638645652174, "lng": -102.57495267391309,"info": "Total: 92 <br><a target='_blank' href=\"/data/mexico/jalisco/villa-hidalgo.json\">Descargar JSON</a>","children": "data/mexico/jalisco/villa-hidalgo.json"
},{
"label": "Lagos de Moreno", "lat": 21.45124342156863, "lng": -101.90774095294115,"info": "Total: 510 <br><a target='_blank' href=\"/data/mexico/jalisco/lagos-de-moreno.json\">Descargar JSON</a>","children": "data/mexico/jalisco/lagos-de-moreno.json"
},{
"label": "Tepatitlán de Morelos", "lat": 20.83509979606881, "lng": -102.72029247911547,"info": "Total: 407 <br><a target='_blank' href=\"/data/mexico/jalisco/tepatitlan-de-morelos.json\">Descargar JSON</a>","children": "data/mexico/jalisco/tepatitlan-de-morelos.json"
},{
"label": "Ahualulco de Mercado", "lat": 20.699156492537323, "lng": -103.95519513432835,"info": "Total: 67 <br><a target='_blank' href=\"/data/mexico/jalisco/ahualulco-de-mercado.json\">Descargar JSON</a>","children": "data/mexico/jalisco/ahualulco-de-mercado.json"
},{
"label": "Ejutla", "lat": 19.916492872727275, "lng": -104.08386436363637,"info": "Total: 55 <br><a target='_blank' href=\"/data/mexico/jalisco/ejutla.json\">Descargar JSON</a>","children": "data/mexico/jalisco/ejutla.json"
},{
"label": "Santa María del Oro", "lat": 19.540033437908484, "lng": -102.8465045751634,"info": "Total: 153 <br><a target='_blank' href=\"/data/mexico/jalisco/santa-maria-del-oro.json\">Descargar JSON</a>","children": "data/mexico/jalisco/santa-maria-del-oro.json"
},{
"label": "Bolaños", "lat": 21.860328848605583, "lng": -103.93491245418319,"info": "Total: 251 <br><a target='_blank' href=\"/data/mexico/jalisco/bolanos.json\">Descargar JSON</a>","children": "data/mexico/jalisco/bolanos.json"
},{
"label": "Tomatlán", "lat": 19.982085170520232, "lng": -105.2026912774566,"info": "Total: 346 <br><a target='_blank' href=\"/data/mexico/jalisco/tomatlan.json\">Descargar JSON</a>","children": "data/mexico/jalisco/tomatlan.json"
},{
"label": "Atengo", "lat": 20.294780483870955, "lng": -104.25955933870968,"info": "Total: 62 <br><a target='_blank' href=\"/data/mexico/jalisco/atengo.json\">Descargar JSON</a>","children": "data/mexico/jalisco/atengo.json"
},{
"label": "Juanacatlán", "lat": 20.49906827906977, "lng": -103.14962655813953,"info": "Total: 43 <br><a target='_blank' href=\"/data/mexico/jalisco/juanacatlan.json\">Descargar JSON</a>","children": "data/mexico/jalisco/juanacatlan.json"
},{
"label": "Amatitán", "lat": 20.857968133333337, "lng": -103.72406556666668,"info": "Total: 60 <br><a target='_blank' href=\"/data/mexico/jalisco/amatitan.json\">Descargar JSON</a>","children": "data/mexico/jalisco/amatitan.json"
},{
"label": "Tequila", "lat": 21.077297067073165, "lng": -103.76803740243896,"info": "Total: 328 <br><a target='_blank' href=\"/data/mexico/jalisco/tequila.json\">Descargar JSON</a>","children": "data/mexico/jalisco/tequila.json"
},{
"label": "Mixtlán", "lat": 20.48405287058824, "lng": -104.44559240000002,"info": "Total: 85 <br><a target='_blank' href=\"/data/mexico/jalisco/mixtlan.json\">Descargar JSON</a>","children": "data/mexico/jalisco/mixtlan.json"
},{
"label": "Jocotepec", "lat": 20.292280837500005, "lng": -103.4157014875,"info": "Total: 80 <br><a target='_blank' href=\"/data/mexico/jalisco/jocotepec.json\">Descargar JSON</a>","children": "data/mexico/jalisco/jocotepec.json"
},{
"label": "Hostotipaquillo", "lat": 21.059353322580648, "lng": -104.09219865591403,"info": "Total: 93 <br><a target='_blank' href=\"/data/mexico/jalisco/hostotipaquillo.json\">Descargar JSON</a>","children": "data/mexico/jalisco/hostotipaquillo.json"
},{
"label": "Ayutla", "lat": 20.063524603773597, "lng": -104.4015854654088,"info": "Total: 159 <br><a target='_blank' href=\"/data/mexico/jalisco/ayutla.json\">Descargar JSON</a>","children": "data/mexico/jalisco/ayutla.json"
},{
"label": "Ixtlahuacán del Río", "lat": 20.879874623574135, "lng": -103.21425531558931,"info": "Total: 263 <br><a target='_blank' href=\"/data/mexico/jalisco/ixtlahuacan-del-rio.json\">Descargar JSON</a>","children": "data/mexico/jalisco/ixtlahuacan-del-rio.json"
},{
"label": "Magdalena", "lat": 20.916517055555556, "lng": -104.01052344444443,"info": "Total: 54 <br><a target='_blank' href=\"/data/mexico/jalisco/magdalena.json\">Descargar JSON</a>","children": "data/mexico/jalisco/magdalena.json"
},{
"label": "Cocula", "lat": 20.3860218548387, "lng": -103.82637241935484,"info": "Total: 62 <br><a target='_blank' href=\"/data/mexico/jalisco/cocula.json\">Descargar JSON</a>","children": "data/mexico/jalisco/cocula.json"
},{
"label": "San Diego de Alejandría", "lat": 20.971180728070177, "lng": -102.03542561403512,"info": "Total: 114 <br><a target='_blank' href=\"/data/mexico/jalisco/san-diego-de-alejandria.json\">Descargar JSON</a>","children": "data/mexico/jalisco/san-diego-de-alejandria.json"
},{
"label": "Ameca", "lat": 20.53585984615386, "lng": -104.05095311242604,"info": "Total: 169 <br><a target='_blank' href=\"/data/mexico/jalisco/ameca.json\">Descargar JSON</a>","children": "data/mexico/jalisco/ameca.json"
},{
"label": "Mezquitic", "lat": 22.207866917787737, "lng": -104.04086476233178,"info": "Total: 669 <br><a target='_blank' href=\"/data/mexico/jalisco/mezquitic.json\">Descargar JSON</a>","children": "data/mexico/jalisco/mezquitic.json"
},{
"label": "Tuxcacuesco", "lat": 19.69627, "lng": -104.010388025641,"info": "Total: 39 <br><a target='_blank' href=\"/data/mexico/jalisco/tuxcacuesco.json\">Descargar JSON</a>","children": "data/mexico/jalisco/tuxcacuesco.json"
},{
"label": "Casimiro Castillo", "lat": 19.595548889655177, "lng": -104.47871160689655,"info": "Total: 145 <br><a target='_blank' href=\"/data/mexico/jalisco/casimiro-castillo.json\">Descargar JSON</a>","children": "data/mexico/jalisco/casimiro-castillo.json"
},{
"label": "San Pedro Tlaquepaque", "lat": 20.578789058823535, "lng": -103.35120208823528,"info": "Total: 34 <br><a target='_blank' href=\"/data/mexico/jalisco/san-pedro-tlaquepaque.json\">Descargar JSON</a>","children": "data/mexico/jalisco/san-pedro-tlaquepaque.json"
},{
"label": "Villa Corona", "lat": 20.397079260869564, "lng": -103.69045484782609,"info": "Total: 46 <br><a target='_blank' href=\"/data/mexico/jalisco/villa-corona.json\">Descargar JSON</a>","children": "data/mexico/jalisco/villa-corona.json"
},{
"label": "El Limón", "lat": 19.82973059090909, "lng": -104.11001229545454,"info": "Total: 44 <br><a target='_blank' href=\"/data/mexico/jalisco/el-limon.json\">Descargar JSON</a>","children": "data/mexico/jalisco/el-limon.json"
},{
"label": "Tototlán", "lat": 20.54081135882353, "lng": -102.7395705058824,"info": "Total: 170 <br><a target='_blank' href=\"/data/mexico/jalisco/tototlan.json\">Descargar JSON</a>","children": "data/mexico/jalisco/tototlan.json"
},{
"label": "Zapopan", "lat": 20.79423726946107, "lng": -103.49689514071848,"info": "Total: 334 <br><a target='_blank' href=\"/data/mexico/jalisco/zapopan.json\">Descargar JSON</a>","children": "data/mexico/jalisco/zapopan.json"
},{
"label": "El Grullo", "lat": 19.794180738805967, "lng": -104.20207112686566,"info": "Total: 134 <br><a target='_blank' href=\"/data/mexico/jalisco/el-grullo.json\">Descargar JSON</a>","children": "data/mexico/jalisco/el-grullo.json"
},{
"label": "Mazamitla", "lat": 19.88620366250001, "lng": -103.05147553750001,"info": "Total: 80 <br><a target='_blank' href=\"/data/mexico/jalisco/mazamitla.json\">Descargar JSON</a>","children": "data/mexico/jalisco/mazamitla.json"
},{
"label": "Villa Guerrero", "lat": 22.011328302325584, "lng": -103.6622562616279,"info": "Total: 172 <br><a target='_blank' href=\"/data/mexico/jalisco/villa-guerrero.json\">Descargar JSON</a>","children": "data/mexico/jalisco/villa-guerrero.json"
},{
"label": "Puerto Vallarta", "lat": 20.696358375722536, "lng": -105.1907821965318,"info": "Total: 173 <br><a target='_blank' href=\"/data/mexico/jalisco/puerto-vallarta.json\">Descargar JSON</a>","children": "data/mexico/jalisco/puerto-vallarta.json"
},{
"label": "Cuautla", "lat": 20.205477396825398, "lng": -104.4710266031746,"info": "Total: 63 <br><a target='_blank' href=\"/data/mexico/jalisco/cuautla.json\">Descargar JSON</a>","children": "data/mexico/jalisco/cuautla.json"
},{
"label": "La Huerta", "lat": 19.50202495185185, "lng": -104.8570849666667,"info": "Total: 270 <br><a target='_blank' href=\"/data/mexico/jalisco/la-huerta.json\">Descargar JSON</a>","children": "data/mexico/jalisco/la-huerta.json"
},{
"label": "Guadalajara", "lat": 20.71120625, "lng": -103.29761275000001,"info": "Total: 4 <br><a target='_blank' href=\"/data/mexico/jalisco/guadalajara.json\">Descargar JSON</a>","children": "data/mexico/jalisco/guadalajara.json"
},{
"label": "Poncitlán", "lat": 20.357711937007874, "lng": -102.92785637795272,"info": "Total: 127 <br><a target='_blank' href=\"/data/mexico/jalisco/poncitlan.json\">Descargar JSON</a>","children": "data/mexico/jalisco/poncitlan.json"
},{
"label": "Tolimán", "lat": 19.57432833766233, "lng": -103.90723414285713,"info": "Total: 77 <br><a target='_blank' href=\"/data/mexico/jalisco/toliman.json\">Descargar JSON</a>","children": "data/mexico/jalisco/toliman.json"
},{
"label": "Etzatlán", "lat": 20.766545531914897, "lng": -104.10938281914898,"info": "Total: 94 <br><a target='_blank' href=\"/data/mexico/jalisco/etzatlan.json\">Descargar JSON</a>","children": "data/mexico/jalisco/etzatlan.json"
},{
"label": "Zapotiltic", "lat": 19.617930161764704, "lng": -103.35198151470588,"info": "Total: 68 <br><a target='_blank' href=\"/data/mexico/jalisco/zapotiltic.json\">Descargar JSON</a>","children": "data/mexico/jalisco/zapotiltic.json"
},{
"label": "Teocuitatlán de Corona", "lat": 20.101126790697666, "lng": -103.34997306976744,"info": "Total: 43 <br><a target='_blank' href=\"/data/mexico/jalisco/teocuitatlan-de-corona.json\">Descargar JSON</a>","children": "data/mexico/jalisco/teocuitatlan-de-corona.json"
},{
"label": "Gómez Farías", "lat": 19.832014725490197, "lng": -103.4431510588235,"info": "Total: 51 <br><a target='_blank' href=\"/data/mexico/jalisco/gomez-farias.json\">Descargar JSON</a>","children": "data/mexico/jalisco/gomez-farias.json"
},{
"label": "Tonalá", "lat": 20.612462589041087, "lng": -103.20090269863014,"info": "Total: 73 <br><a target='_blank' href=\"/data/mexico/jalisco/tonala.json\">Descargar JSON</a>","children": "data/mexico/jalisco/tonala.json"
},{
"label": "Zapotlanejo", "lat": 20.62331435021098, "lng": -103.04527129535869,"info": "Total: 237 <br><a target='_blank' href=\"/data/mexico/jalisco/zapotlanejo.json\">Descargar JSON</a>","children": "data/mexico/jalisco/zapotlanejo.json"
},{
"label": "Cañadas de Obregón", "lat": 21.150664773584918, "lng": -102.69890661320755,"info": "Total: 106 <br><a target='_blank' href=\"/data/mexico/jalisco/canadas-de-obregon.json\">Descargar JSON</a>","children": "data/mexico/jalisco/canadas-de-obregon.json"
},{
"label": "San Juan de los Lagos", "lat": 21.27096740145985, "lng": -102.29732898540149,"info": "Total: 274 <br><a target='_blank' href=\"/data/mexico/jalisco/san-juan-de-los-lagos.json\">Descargar JSON</a>","children": "data/mexico/jalisco/san-juan-de-los-lagos.json"
},{
"label": "San Juanito de Escobedo", "lat": 20.801764849999998, "lng": -104.02260775000002,"info": "Total: 40 <br><a target='_blank' href=\"/data/mexico/jalisco/san-juanito-de-escobedo.json\">Descargar JSON</a>","children": "data/mexico/jalisco/san-juanito-de-escobedo.json"
},{
"label": "Tonaya", "lat": 19.824352129629627, "lng": -103.96670477777776,"info": "Total: 54 <br><a target='_blank' href=\"/data/mexico/jalisco/tonaya.json\">Descargar JSON</a>","children": "data/mexico/jalisco/tonaya.json"
},{
"label": "Tuxcueca", "lat": 20.154385022727272, "lng": -103.22998175000004,"info": "Total: 44 <br><a target='_blank' href=\"/data/mexico/jalisco/tuxcueca.json\">Descargar JSON</a>","children": "data/mexico/jalisco/tuxcueca.json"
},{
"label": "Degollado", "lat": 20.45396539344263, "lng": -102.14906092622954,"info": "Total: 122 <br><a target='_blank' href=\"/data/mexico/jalisco/degollado.json\">Descargar JSON</a>","children": "data/mexico/jalisco/degollado.json"
},{
"label": "Techaluta de Montenegro", "lat": 20.091613433333336, "lng": -103.56565173333335,"info": "Total: 30 <br><a target='_blank' href=\"/data/mexico/jalisco/techaluta-de-montenegro.json\">Descargar JSON</a>","children": "data/mexico/jalisco/techaluta-de-montenegro.json"
},{
"label": "Unión de Tula", "lat": 19.968677211382122, "lng": -104.26750239024382,"info": "Total: 123 <br><a target='_blank' href=\"/data/mexico/jalisco/union-de-tula.json\">Descargar JSON</a>","children": "data/mexico/jalisco/union-de-tula.json"
},{
"label": "Tecolotlán", "lat": 20.217447341269832, "lng": -104.01851076984128,"info": "Total: 126 <br><a target='_blank' href=\"/data/mexico/jalisco/tecolotlan.json\">Descargar JSON</a>","children": "data/mexico/jalisco/tecolotlan.json"
},{
"label": "Santa María de los Ángeles", "lat": 22.193547311111104, "lng": -103.18816455555555,"info": "Total: 45 <br><a target='_blank' href=\"/data/mexico/jalisco/santa-maria-de-los-angeles.json\">Descargar JSON</a>","children": "data/mexico/jalisco/santa-maria-de-los-angeles.json"
},{
"label": "Zacoalco de Torres", "lat": 20.23307096363637, "lng": -103.5744709636364,"info": "Total: 55 <br><a target='_blank' href=\"/data/mexico/jalisco/zacoalco-de-torres.json\">Descargar JSON</a>","children": "data/mexico/jalisco/zacoalco-de-torres.json"
},{
"label": "San Cristóbal de la Barranca", "lat": 21.05560185795454, "lng": -103.46008891477271,"info": "Total: 176 <br><a target='_blank' href=\"/data/mexico/jalisco/san-cristobal-de-la-barranca.json\">Descargar JSON</a>","children": "data/mexico/jalisco/san-cristobal-de-la-barranca.json"
},{
"label": "Atenguillo", "lat": 20.370505796610175, "lng": -104.5125469915254,"info": "Total: 118 <br><a target='_blank' href=\"/data/mexico/jalisco/atenguillo.json\">Descargar JSON</a>","children": "data/mexico/jalisco/atenguillo.json"
},{
"label": "Guachinango", "lat": 20.66637207142855, "lng": -104.41192737244899,"info": "Total: 196 <br><a target='_blank' href=\"/data/mexico/jalisco/guachinango.json\">Descargar JSON</a>","children": "data/mexico/jalisco/guachinango.json"
},{
"label": "Teuchitlán", "lat": 20.673992351851847, "lng": -103.83533775925929,"info": "Total: 54 <br><a target='_blank' href=\"/data/mexico/jalisco/teuchitlan.json\">Descargar JSON</a>","children": "data/mexico/jalisco/teuchitlan.json"
},{
"label": "La Barca", "lat": 20.353749187499997, "lng": -102.52451005769224,"info": "Total: 208 <br><a target='_blank' href=\"/data/mexico/jalisco/la-barca.json\">Descargar JSON</a>","children": "data/mexico/jalisco/la-barca.json"
},{
"label": "San Miguel el Alto", "lat": 20.990574407079645, "lng": -102.36669988495572,"info": "Total: 226 <br><a target='_blank' href=\"/data/mexico/jalisco/san-miguel-el-alto.json\">Descargar JSON</a>","children": "data/mexico/jalisco/san-miguel-el-alto.json"
},{
"label": "Quitupan", "lat": 19.79374236942675, "lng": -102.8813898980892,"info": "Total: 157 <br><a target='_blank' href=\"/data/mexico/jalisco/quitupan.json\">Descargar JSON</a>","children": "data/mexico/jalisco/quitupan.json"
},{
"label": "Juchitlán", "lat": 20.056055983050847, "lng": -104.03539337288133,"info": "Total: 59 <br><a target='_blank' href=\"/data/mexico/jalisco/juchitlan.json\">Descargar JSON</a>","children": "data/mexico/jalisco/juchitlan.json"
},{
"label": "Sayula", "lat": 19.87755842592592, "lng": -103.57319021296297,"info": "Total: 108 <br><a target='_blank' href=\"/data/mexico/jalisco/sayula.json\">Descargar JSON</a>","children": "data/mexico/jalisco/sayula.json"
},{
"label": "Mascota", "lat": 20.54958005976097, "lng": -104.81667852191241,"info": "Total: 251 <br><a target='_blank' href=\"/data/mexico/jalisco/mascota.json\">Descargar JSON</a>","children": "data/mexico/jalisco/mascota.json"
},{
"label": "Cihuatlán", "lat": 19.238873252336454, "lng": -104.6468521121495,"info": "Total: 107 <br><a target='_blank' href=\"/data/mexico/jalisco/cihuatlan.json\">Descargar JSON</a>","children": "data/mexico/jalisco/cihuatlan.json"
},{
"label": "Unión de San Antonio", "lat": 21.160551013888885, "lng": -101.99397417592583,"info": "Total: 216 <br><a target='_blank' href=\"/data/mexico/jalisco/union-de-san-antonio.json\">Descargar JSON</a>","children": "data/mexico/jalisco/union-de-san-antonio.json"
},{
"label": "Colotlán", "lat": 22.083717067669163, "lng": -103.285791037594,"info": "Total: 133 <br><a target='_blank' href=\"/data/mexico/jalisco/colotlan.json\">Descargar JSON</a>","children": "data/mexico/jalisco/colotlan.json"
},{
"label": "Mexticacán", "lat": 21.266395220472432, "lng": -102.75563371653541,"info": "Total: 127 <br><a target='_blank' href=\"/data/mexico/jalisco/mexticacan.json\">Descargar JSON</a>","children": "data/mexico/jalisco/mexticacan.json"
},{
"label": "Yahualica de González Gallo", "lat": 21.13880002892562, "lng": -102.92033295041324,"info": "Total: 242 <br><a target='_blank' href=\"/data/mexico/jalisco/yahualica-de-gonzalez-gallo.json\">Descargar JSON</a>","children": "data/mexico/jalisco/yahualica-de-gonzalez-gallo.json"
},{
"label": "San Sebastián del Oeste", "lat": 20.851720146496792, "lng": -104.81970024203817,"info": "Total: 157 <br><a target='_blank' href=\"/data/mexico/jalisco/san-sebastian-del-oeste.json\">Descargar JSON</a>","children": "data/mexico/jalisco/san-sebastian-del-oeste.json"
},{
"label": "Atotonilco el Alto", "lat": 20.549133580808082, "lng": -102.53680495454546,"info": "Total: 198 <br><a target='_blank' href=\"/data/mexico/jalisco/atotonilco-el-alto.json\">Descargar JSON</a>","children": "data/mexico/jalisco/atotonilco-el-alto.json"
},{
"label": "Zapotlán del Rey", "lat": 20.455270538461537, "lng": -102.91731676923078,"info": "Total: 117 <br><a target='_blank' href=\"/data/mexico/jalisco/zapotlan-del-rey.json\">Descargar JSON</a>","children": "data/mexico/jalisco/zapotlan-del-rey.json"
},{
"label": "Atoyac", "lat": 19.984486661016945, "lng": -103.46914679661016,"info": "Total: 59 <br><a target='_blank' href=\"/data/mexico/jalisco/atoyac.json\">Descargar JSON</a>","children": "data/mexico/jalisco/atoyac.json"
},{
"label": "San Marcos", "lat": 20.80310823170732, "lng": -104.23475353658539,"info": "Total: 82 <br><a target='_blank' href=\"/data/mexico/jalisco/san-marcos.json\">Descargar JSON</a>","children": "data/mexico/jalisco/san-marcos.json"
},{
"label": "Huejuquilla el Alto", "lat": 22.581466459459463, "lng": -103.90311532432438,"info": "Total: 111 <br><a target='_blank' href=\"/data/mexico/jalisco/huejuquilla-el-alto.json\">Descargar JSON</a>","children": "data/mexico/jalisco/huejuquilla-el-alto.json"
},{
"label": "Jalostotitlán", "lat": 21.18722976255707, "lng": -102.4818734383562,"info": "Total: 219 <br><a target='_blank' href=\"/data/mexico/jalisco/jalostotitlan.json\">Descargar JSON</a>","children": "data/mexico/jalisco/jalostotitlan.json"
},{
"label": "San Gabriel", "lat": 19.712180038709683, "lng": -103.75094327741935,"info": "Total: 155 <br><a target='_blank' href=\"/data/mexico/jalisco/san-gabriel.json\">Descargar JSON</a>","children": "data/mexico/jalisco/san-gabriel.json"
},{
"label": "Tala", "lat": 20.59319271808511, "lng": -103.68178536170213,"info": "Total: 188 <br><a target='_blank' href=\"/data/mexico/jalisco/tala.json\">Descargar JSON</a>","children": "data/mexico/jalisco/tala.json"
},{
"label": "Chapala", "lat": 20.33031020547945, "lng": -103.1629072328767,"info": "Total: 73 <br><a target='_blank' href=\"/data/mexico/jalisco/chapala.json\">Descargar JSON</a>","children": "data/mexico/jalisco/chapala.json"
},{
"label": "Zapotitlán de Vadillo", "lat": 19.513663434782618, "lng": -103.78893236956522,"info": "Total: 46 <br><a target='_blank' href=\"/data/mexico/jalisco/zapotitlan-de-vadillo.json\">Descargar JSON</a>","children": "data/mexico/jalisco/zapotitlan-de-vadillo.json"
},{
"label": "Ixtlahuacán de los Membrillos", "lat": 20.403867459854, "lng": -103.20625297080284,"info": "Total: 137 <br><a target='_blank' href=\"/data/mexico/jalisco/ixtlahuacan-de-los-membrillos.json\">Descargar JSON</a>","children": "data/mexico/jalisco/ixtlahuacan-de-los-membrillos.json"
},{
"label": "Villa Purificación", "lat": 19.784639331168826, "lng": -104.71128511038967,"info": "Total: 308 <br><a target='_blank' href=\"/data/mexico/jalisco/villa-purificacion.json\">Descargar JSON</a>","children": "data/mexico/jalisco/villa-purificacion.json"
},{
"label": "Cuautitlán de García Barragán", "lat": 19.431324294416243, "lng": -104.29408707614212,"info": "Total: 197 <br><a target='_blank' href=\"/data/mexico/jalisco/cuautitlan-de-garcia-barragan.json\">Descargar JSON</a>","children": "data/mexico/jalisco/cuautitlan-de-garcia-barragan.json"
},{
"label": "Jamay", "lat": 20.27614733333333, "lng": -102.6724522745098,"info": "Total: 51 <br><a target='_blank' href=\"/data/mexico/jalisco/jamay.json\">Descargar JSON</a>","children": "data/mexico/jalisco/jamay.json"
},{
"label": "Ocotlán", "lat": 20.3895401627907, "lng": -102.73972433720925,"info": "Total: 86 <br><a target='_blank' href=\"/data/mexico/jalisco/ocotlan.json\">Descargar JSON</a>","children": "data/mexico/jalisco/ocotlan.json"
},{
"label": "Chiquilistlán", "lat": 20.08560725, "lng": -103.89416006818182,"info": "Total: 44 <br><a target='_blank' href=\"/data/mexico/jalisco/chiquilistlan.json\">Descargar JSON</a>","children": "data/mexico/jalisco/chiquilistlan.json"
},{
"label": "Valle de Juárez", "lat": 19.84061184745763, "lng": -102.97302062711864,"info": "Total: 59 <br><a target='_blank' href=\"/data/mexico/jalisco/valle-de-juarez.json\">Descargar JSON</a>","children": "data/mexico/jalisco/valle-de-juarez.json"
},{
"label": "Acatlán de Juárez", "lat": 20.42512755555556, "lng": -103.60262055555557,"info": "Total: 54 <br><a target='_blank' href=\"/data/mexico/jalisco/acatlan-de-juarez.json\">Descargar JSON</a>","children": "data/mexico/jalisco/acatlan-de-juarez.json"
},{
"label": "Jilotlán de los Dolores", "lat": 19.329195060070667, "lng": -102.91538821201414,"info": "Total: 283 <br><a target='_blank' href=\"/data/mexico/jalisco/jilotlan-de-los-dolores.json\">Descargar JSON</a>","children": "data/mexico/jalisco/jilotlan-de-los-dolores.json"
},{
"label": "Ayotlán", "lat": 20.495496822222226, "lng": -102.35221350370371,"info": "Total: 135 <br><a target='_blank' href=\"/data/mexico/jalisco/ayotlan.json\">Descargar JSON</a>","children": "data/mexico/jalisco/ayotlan.json"
}]