[{
"label": "Galeana", "lat": 24.854772181619246, "lng": -100.37747690153168,"info": "total: 457","children": "data/mexico/nuevo-leon/galeana.json"
},{
"label": "El Carmen", "lat": 25.893121085714288, "lng": -100.35211781428573,"info": "total: 70","children": "data/mexico/nuevo-leon/el-carmen.json"
},{
"label": "General Escobedo", "lat": 25.826818648648647, "lng": -100.36445516216213,"info": "total: 37","children": "data/mexico/nuevo-leon/general-escobedo.json"
},{
"label": "General Treviño", "lat": 26.20441298449612, "lng": -99.4620858217054,"info": "total: 129","children": "data/mexico/nuevo-leon/general-trevino.json"
},{
"label": "Allende", "lat": 25.305818862499997, "lng": -100.006374475,"info": "total: 80","children": "data/mexico/nuevo-leon/allende.json"
},{
"label": "Monterrey", "lat": 25.57642992857143, "lng": -100.28425807142857,"info": "total: 14","children": "data/mexico/nuevo-leon/monterrey.json"
},{
"label": "Juárez", "lat": 25.602970397163123, "lng": -100.11747928368798,"info": "total: 141","children": "data/mexico/nuevo-leon/juarez.json"
},{
"label": "Doctor González", "lat": 25.84042458064518, "lng": -99.8321173087557,"info": "total: 217","children": "data/mexico/nuevo-leon/doctor-gonzalez.json"
},{
"label": "General Terán", "lat": 25.269138138957796, "lng": -99.48524368982626,"info": "total: 403","children": "data/mexico/nuevo-leon/general-teran.json"
},{
"label": "Iturbide", "lat": 24.633089558823535, "lng": -99.85406894117648,"info": "total: 68","children": "data/mexico/nuevo-leon/iturbide.json"
},{
"label": "General Bravo", "lat": 25.81269594584838, "lng": -98.89402545848368,"info": "total: 277","children": "data/mexico/nuevo-leon/general-bravo.json"
},{
"label": "Mier y Noriega", "lat": 23.426662674999996, "lng": -100.1742246,"info": "total: 40","children": "data/mexico/nuevo-leon/mier-y-noriega.json"
},{
"label": "Anáhuac", "lat": 27.299304509601164, "lng": -100.12337265435738,"info": "total: 677","children": "data/mexico/nuevo-leon/anahuac.json"
},{
"label": "Aramberri", "lat": 24.223344381818162, "lng": -99.83148185454546,"info": "total: 220","children": "data/mexico/nuevo-leon/aramberri.json"
},{
"label": "Abasolo", "lat": 25.947982333333332, "lng": -100.40544262499999,"info": "total: 24","children": "data/mexico/nuevo-leon/abasolo.json"
},{
"label": "Cadereyta Jiménez", "lat": 25.4881476048387, "lng": -99.96249485752693,"info": "total: 372","children": "data/mexico/nuevo-leon/cadereyta-jimenez.json"
},{
"label": "Cerralvo", "lat": 26.09615214146341, "lng": -99.65572270731704,"info": "total: 205","children": "data/mexico/nuevo-leon/cerralvo.json"
},{
"label": "Santa Catarina", "lat": 25.609652515463917, "lng": -100.48360771134017,"info": "total: 97","children": "data/mexico/nuevo-leon/santa-catarina.json"
},{
"label": "Hidalgo", "lat": 25.985972622222217, "lng": -100.4523511777778,"info": "total: 45","children": "data/mexico/nuevo-leon/hidalgo.json"
},{
"label": "Sabinas Hidalgo", "lat": 26.50172366371681, "lng": -100.11493701769915,"info": "total: 226","children": "data/mexico/nuevo-leon/sabinas-hidalgo.json"
},{
"label": "San Nicolás de los Garza", "lat": 25.755253, "lng": -100.289586,"info": "total: 1","children": "data/mexico/nuevo-leon/san-nicolas-de-los-garza.json"
},{
"label": "Santiago", "lat": 25.408950401960784, "lng": -100.19086326470591,"info": "total: 204","children": "data/mexico/nuevo-leon/santiago.json"
},{
"label": "Agualeguas", "lat": 26.30413181621621, "lng": -99.64652991891894,"info": "total: 185","children": "data/mexico/nuevo-leon/agualeguas.json"
},{
"label": "Marín", "lat": 25.85830251886793, "lng": -100.01474059433963,"info": "total: 106","children": "data/mexico/nuevo-leon/marin.json"
},{
"label": "Los Herreras", "lat": 25.910248018518516, "lng": -99.42123827160489,"info": "total: 162","children": "data/mexico/nuevo-leon/los-herreras.json"
},{
"label": "Ciénega de Flores", "lat": 25.965074857142845, "lng": -100.17309651020406,"info": "total: 98","children": "data/mexico/nuevo-leon/cienega-de-flores.json"
},{
"label": "Montemorelos", "lat": 25.166452248618764, "lng": -99.84312388397787,"info": "total: 543","children": "data/mexico/nuevo-leon/montemorelos.json"
},{
"label": "Pesquería", "lat": 25.75317633944956, "lng": -100.0231760321101,"info": "total: 218","children": "data/mexico/nuevo-leon/pesqueria.json"
},{
"label": "Guadalupe", "lat": 25.68265207692307, "lng": -100.1654583076923,"info": "total: 13","children": "data/mexico/nuevo-leon/guadalupe.json"
},{
"label": "Lampazos de Naranjo", "lat": 27.018808308988753, "lng": -100.40708274157305,"info": "total: 178","children": "data/mexico/nuevo-leon/lampazos-de-naranjo.json"
},{
"label": "Los Ramones", "lat": 25.656776304812844, "lng": -99.59854662566842,"info": "total: 187","children": "data/mexico/nuevo-leon/los-ramones.json"
},{
"label": "Apodaca", "lat": 25.788142888888892, "lng": -100.18139722222223,"info": "total: 99","children": "data/mexico/nuevo-leon/apodaca.json"
},{
"label": "Doctor Arroyo", "lat": 23.798937283987915, "lng": -100.2871888277946,"info": "total: 331","children": "data/mexico/nuevo-leon/doctor-arroyo.json"
},{
"label": "Higueras", "lat": 25.988651128205127, "lng": -100.00361882051281,"info": "total: 78","children": "data/mexico/nuevo-leon/higueras.json"
},{
"label": "Hualahuises", "lat": 24.88281425454546, "lng": -99.66946628181823,"info": "total: 110","children": "data/mexico/nuevo-leon/hualahuises.json"
},{
"label": "Melchor Ocampo", "lat": 26.05686090909091, "lng": -99.52303751515151,"info": "total: 33","children": "data/mexico/nuevo-leon/melchor-ocampo.json"
},{
"label": "García", "lat": 25.807965136690637, "lng": -100.62078049640287,"info": "total: 139","children": "data/mexico/nuevo-leon/garcia.json"
},{
"label": "Mina", "lat": 26.204178269430063, "lng": -100.7504306217617,"info": "total: 193","children": "data/mexico/nuevo-leon/mina.json"
},{
"label": "Villaldama", "lat": 26.469351058333334, "lng": -100.38375669166663,"info": "total: 120","children": "data/mexico/nuevo-leon/villaldama.json"
},{
"label": "Linares", "lat": 24.853235507168456, "lng": -99.55852191039432,"info": "total: 558","children": "data/mexico/nuevo-leon/linares.json"
},{
"label": "China", "lat": 25.50750802635915, "lng": -99.00815091598025,"info": "total: 607","children": "data/mexico/nuevo-leon/china.json"
},{
"label": "General Zaragoza", "lat": 23.93684407142858, "lng": -99.72547872077926,"info": "total: 154","children": "data/mexico/nuevo-leon/general-zaragoza.json"
},{
"label": "Parás", "lat": 26.526350476190483, "lng": -99.582582585034,"info": "total: 147","children": "data/mexico/nuevo-leon/paras.json"
},{
"label": "General Zuazua", "lat": 25.887666547008536, "lng": -100.13594572649573,"info": "total: 117","children": "data/mexico/nuevo-leon/general-zuazua.json"
},{
"label": "Los Aldamas", "lat": 26.10608065151514, "lng": -99.24379366666669,"info": "total: 66","children": "data/mexico/nuevo-leon/los-aldamas.json"
},{
"label": "Rayones", "lat": 25.096150405660367, "lng": -100.12984053773587,"info": "total: 106","children": "data/mexico/nuevo-leon/rayones.json"
},{
"label": "Salinas Victoria", "lat": 26.072248749999982, "lng": -100.27811499702382,"info": "total: 336","children": "data/mexico/nuevo-leon/salinas-victoria.json"
},{
"label": "Vallecillo", "lat": 26.560513598326363, "lng": -99.87946558158991,"info": "total: 239","children": "data/mexico/nuevo-leon/vallecillo.json"
},{
"label": "Doctor Coss", "lat": 25.96186018852459, "lng": -99.04328047540984,"info": "total: 122","children": "data/mexico/nuevo-leon/doctor-coss.json"
},{
"label": "San Pedro Garza García", "lat": 25.630821818181822, "lng": -100.3842840909091,"info": "total: 11","children": "data/mexico/nuevo-leon/san-pedro-garza-garcia.json"
},{
"label": "Bustamante", "lat": 26.555656740000003, "lng": -100.51011361999996,"info": "total: 100","children": "data/mexico/nuevo-leon/bustamante.json"
}]