[{
"label": "Mexquitic de Carmona", "lat": 22.284171663865553, "lng": -101.12119463025206,"info": "total: 119","children": "data/mexico/san-luis-potosi/mexquitic-de-carmona.json"
},{
"label": "Villa de Arista", "lat": 22.66536548437499, "lng": -100.85568139843747,"info": "total: 128","children": "data/mexico/san-luis-potosi/villa-de-arista.json"
},{
"label": "Tancanhuitz", "lat": 21.5964356060606, "lng": -98.94464316017316,"info": "total: 231","children": "data/mexico/san-luis-potosi/tancanhuitz.json"
},{
"label": "Tamasopo", "lat": 21.89353265909091, "lng": -99.3585331181818,"info": "total: 220","children": "data/mexico/san-luis-potosi/tamasopo.json"
},{
"label": "Villa de Ramos", "lat": 22.930218348684214, "lng": -101.98100440131577,"info": "total: 152","children": "data/mexico/san-luis-potosi/villa-de-ramos.json"
},{
"label": "San Nicolás Tolentino", "lat": 22.164236796296308, "lng": -100.49999966666665,"info": "total: 54","children": "data/mexico/san-luis-potosi/san-nicolas-tolentino.json"
},{
"label": "Tanquián de Escobedo", "lat": 21.592418088235295, "lng": -98.65669706862741,"info": "total: 102","children": "data/mexico/san-luis-potosi/tanquian-de-escobedo.json"
},{
"label": "Coxcatlán", "lat": 21.522249028985502, "lng": -98.91177468115941,"info": "total: 69","children": "data/mexico/san-luis-potosi/coxcatlan.json"
},{
"label": "Salinas", "lat": 22.708375146341467, "lng": -101.6806082520325,"info": "total: 123","children": "data/mexico/san-luis-potosi/salinas.json"
},{
"label": "Villa de Reyes", "lat": 21.84105165727698, "lng": -100.9465189953052,"info": "total: 213","children": "data/mexico/san-luis-potosi/villa-de-reyes.json"
},{
"label": "San Vicente Tancuayalab", "lat": 21.785408480446932, "lng": -98.58918033519554,"info": "total: 179","children": "data/mexico/san-luis-potosi/san-vicente-tancuayalab.json"
},{
"label": "Soledad de Graciano Sánchez", "lat": 22.212031905940588, "lng": -100.88808813366337,"info": "total: 202","children": "data/mexico/san-luis-potosi/soledad-de-graciano-sanchez.json"
},{
"label": "Santa Catarina", "lat": 21.577534388349523, "lng": -99.42511349514558,"info": "total: 103","children": "data/mexico/san-luis-potosi/santa-catarina.json"
},{
"label": "Armadillo de los Infante", "lat": 22.234210160919538, "lng": -100.64412448275861,"info": "total: 87","children": "data/mexico/san-luis-potosi/armadillo-de-los-infante.json"
},{
"label": "Cedral", "lat": 23.8639405511811, "lng": -100.68178205511813,"info": "total: 127","children": "data/mexico/san-luis-potosi/cedral.json"
},{
"label": "El Naranjo", "lat": 22.473681029850738, "lng": -99.34585967164182,"info": "total: 134","children": "data/mexico/san-luis-potosi/el-naranjo.json"
},{
"label": "Villa de la Paz", "lat": 23.66908307142857, "lng": -100.7250019285714,"info": "total: 14","children": "data/mexico/san-luis-potosi/villa-de-la-paz.json"
},{
"label": "Villa de Guadalupe", "lat": 23.278178538461535, "lng": -100.69698588461539,"info": "total: 104","children": "data/mexico/san-luis-potosi/villa-de-guadalupe.json"
},{
"label": "Xilitla", "lat": 21.376968353773588, "lng": -99.00078693396229,"info": "total: 212","children": "data/mexico/san-luis-potosi/xilitla.json"
},{
"label": "Zaragoza", "lat": 22.025621477272733, "lng": -100.68977034659088,"info": "total: 176","children": "data/mexico/san-luis-potosi/zaragoza.json"
},{
"label": "Guadalcázar", "lat": 22.848560176470585, "lng": -100.34660788970584,"info": "total: 136","children": "data/mexico/san-luis-potosi/guadalcazar.json"
},{
"label": "Tamuín", "lat": 22.07835339544514, "lng": -98.72465514906825,"info": "total: 483","children": "data/mexico/san-luis-potosi/tamuin.json"
},{
"label": "San Ciro de Acosta", "lat": 21.599357925531912, "lng": -99.89066071276588,"info": "total: 94","children": "data/mexico/san-luis-potosi/san-ciro-de-acosta.json"
},{
"label": "Alaquines", "lat": 22.08664837931034, "lng": -99.55471567241379,"info": "total: 58","children": "data/mexico/san-luis-potosi/alaquines.json"
},{
"label": "Santa María del Río", "lat": 21.770983171745158, "lng": -100.57313926869803,"info": "total: 361","children": "data/mexico/san-luis-potosi/santa-maria-del-rio.json"
},{
"label": "Matlapa", "lat": 21.33496417391304, "lng": -98.82792846739129,"info": "total: 92","children": "data/mexico/san-luis-potosi/matlapa.json"
},{
"label": "Ahualulco", "lat": 22.460891725274724, "lng": -101.22923407692306,"info": "total: 91","children": "data/mexico/san-luis-potosi/ahualulco.json"
},{
"label": "Ciudad Fernández", "lat": 21.97583138461539, "lng": -100.13779687179488,"info": "total: 117","children": "data/mexico/san-luis-potosi/ciudad-fernandez.json"
},{
"label": "Tampamolón Corona", "lat": 21.557337142857143, "lng": -98.77933999378881,"info": "total: 161","children": "data/mexico/san-luis-potosi/tampamolon-corona.json"
},{
"label": "Villa de Arriaga", "lat": 21.95106653846155, "lng": -101.33702483846146,"info": "total: 130","children": "data/mexico/san-luis-potosi/villa-de-arriaga.json"
},{
"label": "Tamazunchale", "lat": 21.242881422535223, "lng": -98.78442111619717,"info": "total: 284","children": "data/mexico/san-luis-potosi/tamazunchale.json"
},{
"label": "San Martín Chalchicuautla", "lat": 21.39825921666666, "lng": -98.62241579999997,"info": "total: 240","children": "data/mexico/san-luis-potosi/san-martin-chalchicuautla.json"
},{
"label": "Tampacán", "lat": 21.414513540816323, "lng": -98.73873541836736,"info": "total: 98","children": "data/mexico/san-luis-potosi/tampacan.json"
},{
"label": "Cárdenas", "lat": 22.00002342857143, "lng": -99.66054674285711,"info": "total: 70","children": "data/mexico/san-luis-potosi/cardenas.json"
},{
"label": "Rioverde", "lat": 21.905628999999987, "lng": -100.0364280239362,"info": "total: 376","children": "data/mexico/san-luis-potosi/rioverde.json"
},{
"label": "Vanegas", "lat": 24.029526063291147, "lng": -100.94989031645571,"info": "total: 79","children": "data/mexico/san-luis-potosi/vanegas.json"
},{
"label": "Villa Hidalgo", "lat": 22.533812666666666, "lng": -100.66963201333331,"info": "total: 75","children": "data/mexico/san-luis-potosi/villa-hidalgo.json"
},{
"label": "Lagunillas", "lat": 21.61361124324324, "lng": -99.5962513108108,"info": "total: 74","children": "data/mexico/san-luis-potosi/lagunillas.json"
},{
"label": "Villa Juárez", "lat": 22.283024714285723, "lng": -100.21913528571427,"info": "total: 49","children": "data/mexico/san-luis-potosi/villa-juarez.json"
},{
"label": "Venado", "lat": 22.935736659420286, "lng": -101.11382976811592,"info": "total: 138","children": "data/mexico/san-luis-potosi/venado.json"
},{
"label": "Rayón", "lat": 21.837857720930238, "lng": -99.60522788372097,"info": "total: 86","children": "data/mexico/san-luis-potosi/rayon.json"
},{
"label": "Cerritos", "lat": 22.445413681818184, "lng": -100.2921855,"info": "total: 66","children": "data/mexico/san-luis-potosi/cerritos.json"
},{
"label": "Tanlajás", "lat": 21.70434651470588, "lng": -98.86231907352943,"info": "total: 136","children": "data/mexico/san-luis-potosi/tanlajas.json"
},{
"label": "Cerro de San Pedro", "lat": 22.174231520000003, "lng": -100.82973208000003,"info": "total: 25","children": "data/mexico/san-luis-potosi/cerro-de-san-pedro.json"
},{
"label": "Charcas", "lat": 23.19256518721463, "lng": -101.13496222374425,"info": "total: 219","children": "data/mexico/san-luis-potosi/charcas.json"
},{
"label": "Moctezuma", "lat": 22.690720651315797, "lng": -101.07876784210522,"info": "total: 152","children": "data/mexico/san-luis-potosi/moctezuma.json"
},{
"label": "Santo Domingo", "lat": 23.349994174311924, "lng": -101.67952696330272,"info": "total: 109","children": "data/mexico/san-luis-potosi/santo-domingo.json"
},{
"label": "San Antonio", "lat": 21.618045506493512, "lng": -98.87163838961044,"info": "total: 77","children": "data/mexico/san-luis-potosi/san-antonio.json"
},{
"label": "Catorce", "lat": 23.645316563758392, "lng": -101.007361671141,"info": "total: 149","children": "data/mexico/san-luis-potosi/catorce.json"
},{
"label": "Axtla de Terrazas", "lat": 21.437960618181823, "lng": -98.87004110909092,"info": "total: 110","children": "data/mexico/san-luis-potosi/axtla-de-terrazas.json"
},{
"label": "Matehuala", "lat": 23.577327626609456, "lng": -100.62061045064385,"info": "total: 233","children": "data/mexico/san-luis-potosi/matehuala.json"
},{
"label": "Aquismón", "lat": 21.693876195238108, "lng": -99.09879835714285,"info": "total: 210","children": "data/mexico/san-luis-potosi/aquismon.json"
},{
"label": "Ciudad del Maíz", "lat": 22.4347144137931, "lng": -99.66178575862065,"info": "total: 145","children": "data/mexico/san-luis-potosi/ciudad-del-maiz.json"
},{
"label": "Tierra Nueva", "lat": 21.659605430656946, "lng": -100.50498332116787,"info": "total: 137","children": "data/mexico/san-luis-potosi/tierra-nueva.json"
},{
"label": "Ciudad Valles", "lat": 22.033686818443815, "lng": -99.05794504034579,"info": "total: 694","children": "data/mexico/san-luis-potosi/ciudad-valles.json"
},{
"label": "San Luis Potosí", "lat": 22.33850598207886, "lng": -100.95854390681012,"info": "total: 279","children": "data/mexico/san-luis-potosi/san-luis-potosi.json"
},{
"label": "Ebano", "lat": 22.21356077173913, "lng": -98.47774468478252,"info": "total: 184","children": "data/mexico/san-luis-potosi/ebano.json"
},{
"label": "Huehuetlán", "lat": 21.521429075471694, "lng": -98.98331701886791,"info": "total: 53","children": "data/mexico/san-luis-potosi/huehuetlan.json"
}]