[{
"label": "Cruillas", "lat": 24.644271761006284, "lng": -98.40074123270443,"info": "Total: 159 <br><a target='_blank' href=\"/data/mexico/tamaulipas/cruillas.json\">Descargar JSON</a>","children": "data/mexico/tamaulipas/cruillas.json"
},{
"label": "Matamoros", "lat": 25.733287025438635, "lng": -97.59999856666667,"info": "Total: 1140 <br><a target='_blank' href=\"/data/mexico/tamaulipas/matamoros.json\">Descargar JSON</a>","children": "data/mexico/tamaulipas/matamoros.json"
},{
"label": "Burgos", "lat": 24.949995300448414, "lng": -98.81241335426012,"info": "Total: 223 <br><a target='_blank' href=\"/data/mexico/tamaulipas/burgos.json\">Descargar JSON</a>","children": "data/mexico/tamaulipas/burgos.json"
},{
"label": "Valle Hermoso", "lat": 25.69409427220631, "lng": -97.83345642979943,"info": "Total: 349 <br><a target='_blank' href=\"/data/mexico/tamaulipas/valle-hermoso.json\">Descargar JSON</a>","children": "data/mexico/tamaulipas/valle-hermoso.json"
},{
"label": "Altamira", "lat": 22.522697329087034, "lng": -98.06494799150745,"info": "Total: 471 <br><a target='_blank' href=\"/data/mexico/tamaulipas/altamira.json\">Descargar JSON</a>","children": "data/mexico/tamaulipas/altamira.json"
},{
"label": "El Mante", "lat": 22.670352922885577, "lng": -98.93613623880594,"info": "Total: 402 <br><a target='_blank' href=\"/data/mexico/tamaulipas/el-mante.json\">Descargar JSON</a>","children": "data/mexico/tamaulipas/el-mante.json"
},{
"label": "Villagrán", "lat": 24.51984555172412, "lng": -99.42216373891624,"info": "Total: 203 <br><a target='_blank' href=\"/data/mexico/tamaulipas/villagran.json\">Descargar JSON</a>","children": "data/mexico/tamaulipas/villagran.json"
},{
"label": "Méndez", "lat": 25.23191414028777, "lng": -98.4596726079137,"info": "Total: 278 <br><a target='_blank' href=\"/data/mexico/tamaulipas/mendez.json\">Descargar JSON</a>","children": "data/mexico/tamaulipas/mendez.json"
},{
"label": "Mier", "lat": 26.43052004166667, "lng": -99.23611294444441,"info": "Total: 144 <br><a target='_blank' href=\"/data/mexico/tamaulipas/mier.json\">Descargar JSON</a>","children": "data/mexico/tamaulipas/mier.json"
},{
"label": "Nuevo Morelos", "lat": 22.500180464285716, "lng": -99.20114716071434,"info": "Total: 56 <br><a target='_blank' href=\"/data/mexico/tamaulipas/nuevo-morelos.json\">Descargar JSON</a>","children": "data/mexico/tamaulipas/nuevo-morelos.json"
},{
"label": "Llera", "lat": 23.26795191315789, "lng": -98.92544647105254,"info": "Total: 380 <br><a target='_blank' href=\"/data/mexico/tamaulipas/llera.json\">Descargar JSON</a>","children": "data/mexico/tamaulipas/llera.json"
},{
"label": "Gustavo Díaz Ordaz", "lat": 26.161438357843153, "lng": -98.64117371568621,"info": "Total: 204 <br><a target='_blank' href=\"/data/mexico/tamaulipas/gustavo-diaz-ordaz.json\">Descargar JSON</a>","children": "data/mexico/tamaulipas/gustavo-diaz-ordaz.json"
},{
"label": "Río Bravo", "lat": 25.842598831715176, "lng": -98.03960509708723,"info": "Total: 618 <br><a target='_blank' href=\"/data/mexico/tamaulipas/rio-bravo.json\">Descargar JSON</a>","children": "data/mexico/tamaulipas/rio-bravo.json"
},{
"label": "San Nicolás", "lat": 24.647056166666665, "lng": -98.80530946666666,"info": "Total: 30 <br><a target='_blank' href=\"/data/mexico/tamaulipas/san-nicolas.json\">Descargar JSON</a>","children": "data/mexico/tamaulipas/san-nicolas.json"
},{
"label": "Aldama", "lat": 23.002100518037526, "lng": -98.02265601010104,"info": "Total: 693 <br><a target='_blank' href=\"/data/mexico/tamaulipas/aldama.json\">Descargar JSON</a>","children": "data/mexico/tamaulipas/aldama.json"
},{
"label": "Palmillas", "lat": 23.237760617647062, "lng": -99.55407176470588,"info": "Total: 34 <br><a target='_blank' href=\"/data/mexico/tamaulipas/palmillas.json\">Descargar JSON</a>","children": "data/mexico/tamaulipas/palmillas.json"
},{
"label": "San Carlos", "lat": 24.403274896103877, "lng": -98.98642335389603,"info": "Total: 308 <br><a target='_blank' href=\"/data/mexico/tamaulipas/san-carlos.json\">Descargar JSON</a>","children": "data/mexico/tamaulipas/san-carlos.json"
},{
"label": "Güémez", "lat": 23.90834320738637, "lng": -99.07496531818182,"info": "Total: 352 <br><a target='_blank' href=\"/data/mexico/tamaulipas/g-emez.json\">Descargar JSON</a>","children": "data/mexico/tamaulipas/g-emez.json"
},{
"label": "Miquihuana", "lat": 23.5979812, "lng": -99.77611052000002,"info": "Total: 25 <br><a target='_blank' href=\"/data/mexico/tamaulipas/miquihuana.json\">Descargar JSON</a>","children": "data/mexico/tamaulipas/miquihuana.json"
},{
"label": "Antiguo Morelos", "lat": 22.591493103896102, "lng": -99.09906893506492,"info": "Total: 154 <br><a target='_blank' href=\"/data/mexico/tamaulipas/antiguo-morelos.json\">Descargar JSON</a>","children": "data/mexico/tamaulipas/antiguo-morelos.json"
},{
"label": "Padilla", "lat": 24.057906567901227, "lng": -98.8972847489712,"info": "Total: 243 <br><a target='_blank' href=\"/data/mexico/tamaulipas/padilla.json\">Descargar JSON</a>","children": "data/mexico/tamaulipas/padilla.json"
},{
"label": "Reynosa", "lat": 25.934264759154956, "lng": -98.34784415633808,"info": "Total: 710 <br><a target='_blank' href=\"/data/mexico/tamaulipas/reynosa.json\">Descargar JSON</a>","children": "data/mexico/tamaulipas/reynosa.json"
},{
"label": "Miguel Alemán", "lat": 26.275019427536222, "lng": -99.05611860869567,"info": "Total: 138 <br><a target='_blank' href=\"/data/mexico/tamaulipas/miguel-aleman.json\">Descargar JSON</a>","children": "data/mexico/tamaulipas/miguel-aleman.json"
},{
"label": "Abasolo", "lat": 24.10785558823529, "lng": -98.30492178074864,"info": "Total: 187 <br><a target='_blank' href=\"/data/mexico/tamaulipas/abasolo.json\">Descargar JSON</a>","children": "data/mexico/tamaulipas/abasolo.json"
},{
"label": "Tampico", "lat": 22.289927714285714, "lng": -97.93513842857143,"info": "Total: 7 <br><a target='_blank' href=\"/data/mexico/tamaulipas/tampico.json\">Descargar JSON</a>","children": "data/mexico/tamaulipas/tampico.json"
},{
"label": "Gómez Farías", "lat": 22.961728485714293, "lng": -99.07799222285713,"info": "Total: 175 <br><a target='_blank' href=\"/data/mexico/tamaulipas/gomez-farias.json\">Descargar JSON</a>","children": "data/mexico/tamaulipas/gomez-farias.json"
},{
"label": "Victoria", "lat": 23.76415620689657, "lng": -99.13857754083489,"info": "Total: 551 <br><a target='_blank' href=\"/data/mexico/tamaulipas/victoria.json\">Descargar JSON</a>","children": "data/mexico/tamaulipas/victoria.json"
},{
"label": "Mainero", "lat": 24.582112125000005, "lng": -99.56706397727272,"info": "Total: 88 <br><a target='_blank' href=\"/data/mexico/tamaulipas/mainero.json\">Descargar JSON</a>","children": "data/mexico/tamaulipas/mainero.json"
},{
"label": "Ciudad Madero", "lat": 22.246279, "lng": -97.837,"info": "Total: 1 <br><a target='_blank' href=\"/data/mexico/tamaulipas/ciudad-madero.json\">Descargar JSON</a>","children": "data/mexico/tamaulipas/ciudad-madero.json"
},{
"label": "Guerrero", "lat": 26.919279842105258, "lng": -99.46488603383459,"info": "Total: 266 <br><a target='_blank' href=\"/data/mexico/tamaulipas/guerrero.json\">Descargar JSON</a>","children": "data/mexico/tamaulipas/guerrero.json"
},{
"label": "Hidalgo", "lat": 24.215014555555573, "lng": -99.36036518148141,"info": "Total: 270 <br><a target='_blank' href=\"/data/mexico/tamaulipas/hidalgo.json\">Descargar JSON</a>","children": "data/mexico/tamaulipas/hidalgo.json"
},{
"label": "Xicoténcatl", "lat": 23.011497832699618, "lng": -98.98355090494293,"info": "Total: 263 <br><a target='_blank' href=\"/data/mexico/tamaulipas/xicotencatl.json\">Descargar JSON</a>","children": "data/mexico/tamaulipas/xicotencatl.json"
},{
"label": "Jiménez", "lat": 24.26402711842106, "lng": -98.49727017105265,"info": "Total: 152 <br><a target='_blank' href=\"/data/mexico/tamaulipas/jimenez.json\">Descargar JSON</a>","children": "data/mexico/tamaulipas/jimenez.json"
},{
"label": "Nuevo Laredo", "lat": 27.454088176165808, "lng": -99.62683573057001,"info": "Total: 193 <br><a target='_blank' href=\"/data/mexico/tamaulipas/nuevo-laredo.json\">Descargar JSON</a>","children": "data/mexico/tamaulipas/nuevo-laredo.json"
},{
"label": "González", "lat": 22.761318363001745, "lng": -98.53680096858642,"info": "Total: 573 <br><a target='_blank' href=\"/data/mexico/tamaulipas/gonzalez.json\">Descargar JSON</a>","children": "data/mexico/tamaulipas/gonzalez.json"
},{
"label": "Ocampo", "lat": 22.836692770334942, "lng": -99.28503949282295,"info": "Total: 209 <br><a target='_blank' href=\"/data/mexico/tamaulipas/ocampo.json\">Descargar JSON</a>","children": "data/mexico/tamaulipas/ocampo.json"
},{
"label": "Tula", "lat": 22.968492599999998, "lng": -99.70987535757575,"info": "Total: 165 <br><a target='_blank' href=\"/data/mexico/tamaulipas/tula.json\">Descargar JSON</a>","children": "data/mexico/tamaulipas/tula.json"
},{
"label": "Jaumave", "lat": 23.449798141666665, "lng": -99.39930930833334,"info": "Total: 120 <br><a target='_blank' href=\"/data/mexico/tamaulipas/jaumave.json\">Descargar JSON</a>","children": "data/mexico/tamaulipas/jaumave.json"
},{
"label": "Soto la Marina", "lat": 23.732741355769235, "lng": -98.02908923763746,"info": "Total: 728 <br><a target='_blank' href=\"/data/mexico/tamaulipas/soto-la-marina.json\">Descargar JSON</a>","children": "data/mexico/tamaulipas/soto-la-marina.json"
},{
"label": "Casas", "lat": 23.582799739436613, "lng": -98.66993494366191,"info": "Total: 284 <br><a target='_blank' href=\"/data/mexico/tamaulipas/casas.json\">Descargar JSON</a>","children": "data/mexico/tamaulipas/casas.json"
},{
"label": "San Fernando", "lat": 24.920109970914144, "lng": -98.02534144598339,"info": "Total: 722 <br><a target='_blank' href=\"/data/mexico/tamaulipas/san-fernando.json\">Descargar JSON</a>","children": "data/mexico/tamaulipas/san-fernando.json"
},{
"label": "Bustamante", "lat": 23.330108375000005, "lng": -99.90622775000001,"info": "Total: 32 <br><a target='_blank' href=\"/data/mexico/tamaulipas/bustamante.json\">Descargar JSON</a>","children": "data/mexico/tamaulipas/bustamante.json"
},{
"label": "Camargo", "lat": 26.23381148793567, "lng": -98.84838179088467,"info": "Total: 373 <br><a target='_blank' href=\"/data/mexico/tamaulipas/camargo.json\">Descargar JSON</a>","children": "data/mexico/tamaulipas/camargo.json"
}]