[{
"label": "Cruillas", "lat": 24.644271761006284, "lng": -98.40074123270443,"info": "total: 159","children": "data/mexico/tamaulipas/cruillas.json"
},{
"label": "Matamoros", "lat": 25.733287025438635, "lng": -97.59999856666667,"info": "total: 1140","children": "data/mexico/tamaulipas/matamoros.json"
},{
"label": "Burgos", "lat": 24.949995300448414, "lng": -98.81241335426012,"info": "total: 223","children": "data/mexico/tamaulipas/burgos.json"
},{
"label": "Valle Hermoso", "lat": 25.69409427220631, "lng": -97.83345642979943,"info": "total: 349","children": "data/mexico/tamaulipas/valle-hermoso.json"
},{
"label": "Altamira", "lat": 22.522697329087034, "lng": -98.06494799150745,"info": "total: 471","children": "data/mexico/tamaulipas/altamira.json"
},{
"label": "El Mante", "lat": 22.670352922885577, "lng": -98.93613623880594,"info": "total: 402","children": "data/mexico/tamaulipas/el-mante.json"
},{
"label": "Villagrán", "lat": 24.51984555172412, "lng": -99.42216373891624,"info": "total: 203","children": "data/mexico/tamaulipas/villagran.json"
},{
"label": "Méndez", "lat": 25.23191414028777, "lng": -98.4596726079137,"info": "total: 278","children": "data/mexico/tamaulipas/mendez.json"
},{
"label": "Mier", "lat": 26.43052004166667, "lng": -99.23611294444441,"info": "total: 144","children": "data/mexico/tamaulipas/mier.json"
},{
"label": "Nuevo Morelos", "lat": 22.500180464285716, "lng": -99.20114716071434,"info": "total: 56","children": "data/mexico/tamaulipas/nuevo-morelos.json"
},{
"label": "Llera", "lat": 23.26795191315789, "lng": -98.92544647105254,"info": "total: 380","children": "data/mexico/tamaulipas/llera.json"
},{
"label": "Gustavo Díaz Ordaz", "lat": 26.161438357843153, "lng": -98.64117371568621,"info": "total: 204","children": "data/mexico/tamaulipas/gustavo-diaz-ordaz.json"
},{
"label": "Río Bravo", "lat": 25.842598831715176, "lng": -98.03960509708723,"info": "total: 618","children": "data/mexico/tamaulipas/rio-bravo.json"
},{
"label": "San Nicolás", "lat": 24.647056166666665, "lng": -98.80530946666666,"info": "total: 30","children": "data/mexico/tamaulipas/san-nicolas.json"
},{
"label": "Aldama", "lat": 23.002100518037526, "lng": -98.02265601010104,"info": "total: 693","children": "data/mexico/tamaulipas/aldama.json"
},{
"label": "Palmillas", "lat": 23.237760617647062, "lng": -99.55407176470588,"info": "total: 34","children": "data/mexico/tamaulipas/palmillas.json"
},{
"label": "San Carlos", "lat": 24.403274896103877, "lng": -98.98642335389603,"info": "total: 308","children": "data/mexico/tamaulipas/san-carlos.json"
},{
"label": "Güémez", "lat": 23.90834320738637, "lng": -99.07496531818182,"info": "total: 352","children": "data/mexico/tamaulipas/g-emez.json"
},{
"label": "Miquihuana", "lat": 23.5979812, "lng": -99.77611052000002,"info": "total: 25","children": "data/mexico/tamaulipas/miquihuana.json"
},{
"label": "Antiguo Morelos", "lat": 22.591493103896102, "lng": -99.09906893506492,"info": "total: 154","children": "data/mexico/tamaulipas/antiguo-morelos.json"
},{
"label": "Padilla", "lat": 24.057906567901227, "lng": -98.8972847489712,"info": "total: 243","children": "data/mexico/tamaulipas/padilla.json"
},{
"label": "Reynosa", "lat": 25.934264759154956, "lng": -98.34784415633808,"info": "total: 710","children": "data/mexico/tamaulipas/reynosa.json"
},{
"label": "Miguel Alemán", "lat": 26.275019427536222, "lng": -99.05611860869567,"info": "total: 138","children": "data/mexico/tamaulipas/miguel-aleman.json"
},{
"label": "Abasolo", "lat": 24.10785558823529, "lng": -98.30492178074864,"info": "total: 187","children": "data/mexico/tamaulipas/abasolo.json"
},{
"label": "Tampico", "lat": 22.289927714285714, "lng": -97.93513842857143,"info": "total: 7","children": "data/mexico/tamaulipas/tampico.json"
},{
"label": "Gómez Farías", "lat": 22.961728485714293, "lng": -99.07799222285713,"info": "total: 175","children": "data/mexico/tamaulipas/gomez-farias.json"
},{
"label": "Victoria", "lat": 23.76415620689657, "lng": -99.13857754083489,"info": "total: 551","children": "data/mexico/tamaulipas/victoria.json"
},{
"label": "Mainero", "lat": 24.582112125000005, "lng": -99.56706397727272,"info": "total: 88","children": "data/mexico/tamaulipas/mainero.json"
},{
"label": "Ciudad Madero", "lat": 22.246279, "lng": -97.837,"info": "total: 1","children": "data/mexico/tamaulipas/ciudad-madero.json"
},{
"label": "Guerrero", "lat": 26.919279842105258, "lng": -99.46488603383459,"info": "total: 266","children": "data/mexico/tamaulipas/guerrero.json"
},{
"label": "Hidalgo", "lat": 24.215014555555573, "lng": -99.36036518148141,"info": "total: 270","children": "data/mexico/tamaulipas/hidalgo.json"
},{
"label": "Xicoténcatl", "lat": 23.011497832699618, "lng": -98.98355090494293,"info": "total: 263","children": "data/mexico/tamaulipas/xicotencatl.json"
},{
"label": "Jiménez", "lat": 24.26402711842106, "lng": -98.49727017105265,"info": "total: 152","children": "data/mexico/tamaulipas/jimenez.json"
},{
"label": "Nuevo Laredo", "lat": 27.454088176165808, "lng": -99.62683573057001,"info": "total: 193","children": "data/mexico/tamaulipas/nuevo-laredo.json"
},{
"label": "González", "lat": 22.761318363001745, "lng": -98.53680096858642,"info": "total: 573","children": "data/mexico/tamaulipas/gonzalez.json"
},{
"label": "Ocampo", "lat": 22.836692770334942, "lng": -99.28503949282295,"info": "total: 209","children": "data/mexico/tamaulipas/ocampo.json"
},{
"label": "Tula", "lat": 22.968492599999998, "lng": -99.70987535757575,"info": "total: 165","children": "data/mexico/tamaulipas/tula.json"
},{
"label": "Jaumave", "lat": 23.449798141666665, "lng": -99.39930930833334,"info": "total: 120","children": "data/mexico/tamaulipas/jaumave.json"
},{
"label": "Soto la Marina", "lat": 23.732741355769235, "lng": -98.02908923763746,"info": "total: 728","children": "data/mexico/tamaulipas/soto-la-marina.json"
},{
"label": "Casas", "lat": 23.582799739436613, "lng": -98.66993494366191,"info": "total: 284","children": "data/mexico/tamaulipas/casas.json"
},{
"label": "San Fernando", "lat": 24.920109970914144, "lng": -98.02534144598339,"info": "total: 722","children": "data/mexico/tamaulipas/san-fernando.json"
},{
"label": "Bustamante", "lat": 23.330108375000005, "lng": -99.90622775000001,"info": "total: 32","children": "data/mexico/tamaulipas/bustamante.json"
},{
"label": "Camargo", "lat": 26.23381148793567, "lng": -98.84838179088467,"info": "total: 373","children": "data/mexico/tamaulipas/camargo.json"
}]