[{
"label": "Tinum", "lat": 20.70546737735849, "lng": -88.50450343396223,"info": "Total: 53 <br><a target='_blank' href=\"/data/mexico/yucatan/tinum.json\">Descargar JSON</a>","children": "data/mexico/yucatan/tinum.json"
},{
"label": "Oxkutzcab", "lat": 20.238180434343437, "lng": -89.44956831313135,"info": "Total: 99 <br><a target='_blank' href=\"/data/mexico/yucatan/oxkutzcab.json\">Descargar JSON</a>","children": "data/mexico/yucatan/oxkutzcab.json"
},{
"label": "Celestún", "lat": 20.89815971794872, "lng": -90.29793364102564,"info": "Total: 39 <br><a target='_blank' href=\"/data/mexico/yucatan/celestun.json\">Descargar JSON</a>","children": "data/mexico/yucatan/celestun.json"
},{
"label": "Dzemul", "lat": 21.247792803571436, "lng": -89.33170933928571,"info": "Total: 56 <br><a target='_blank' href=\"/data/mexico/yucatan/dzemul.json\">Descargar JSON</a>","children": "data/mexico/yucatan/dzemul.json"
},{
"label": "Muxupip", "lat": 21.045323470588233, "lng": -89.32759070588234,"info": "Total: 17 <br><a target='_blank' href=\"/data/mexico/yucatan/muxupip.json\">Descargar JSON</a>","children": "data/mexico/yucatan/muxupip.json"
},{
"label": "Ucú", "lat": 21.026248299999995, "lng": -89.7426764,"info": "Total: 20 <br><a target='_blank' href=\"/data/mexico/yucatan/ucu.json\">Descargar JSON</a>","children": "data/mexico/yucatan/ucu.json"
},{
"label": "Tekantó", "lat": 21.005727151515146, "lng": -89.10546687878788,"info": "Total: 33 <br><a target='_blank' href=\"/data/mexico/yucatan/tekanto.json\">Descargar JSON</a>","children": "data/mexico/yucatan/tekanto.json"
},{
"label": "Dzidzantún", "lat": 21.29115677777778, "lng": -89.02870984722223,"info": "Total: 72 <br><a target='_blank' href=\"/data/mexico/yucatan/dzidzantun.json\">Descargar JSON</a>","children": "data/mexico/yucatan/dzidzantun.json"
},{
"label": "Acanceh", "lat": 20.840142076923083, "lng": -89.45047561538462,"info": "Total: 65 <br><a target='_blank' href=\"/data/mexico/yucatan/acanceh.json\">Descargar JSON</a>","children": "data/mexico/yucatan/acanceh.json"
},{
"label": "Calotmul", "lat": 21.022600704225354, "lng": -88.13274407042253,"info": "Total: 71 <br><a target='_blank' href=\"/data/mexico/yucatan/calotmul.json\">Descargar JSON</a>","children": "data/mexico/yucatan/calotmul.json"
},{
"label": "Temozón", "lat": 20.862122146464635, "lng": -88.12429985353533,"info": "Total: 198 <br><a target='_blank' href=\"/data/mexico/yucatan/temozon.json\">Descargar JSON</a>","children": "data/mexico/yucatan/temozon.json"
},{
"label": "Sucilá", "lat": 21.212357434782604, "lng": -88.37774346195653,"info": "Total: 184 <br><a target='_blank' href=\"/data/mexico/yucatan/sucila.json\">Descargar JSON</a>","children": "data/mexico/yucatan/sucila.json"
},{
"label": "Tekal de Venegas", "lat": 21.01694483870968, "lng": -88.85933212903225,"info": "Total: 31 <br><a target='_blank' href=\"/data/mexico/yucatan/tekal-de-venegas.json\">Descargar JSON</a>","children": "data/mexico/yucatan/tekal-de-venegas.json"
},{
"label": "Dzitás", "lat": 20.83199448, "lng": -88.51897587999999,"info": "Total: 25 <br><a target='_blank' href=\"/data/mexico/yucatan/dzitas.json\">Descargar JSON</a>","children": "data/mexico/yucatan/dzitas.json"
},{
"label": "Kinchil", "lat": 20.88692219565217, "lng": -90.0071172826087,"info": "Total: 46 <br><a target='_blank' href=\"/data/mexico/yucatan/kinchil.json\">Descargar JSON</a>","children": "data/mexico/yucatan/kinchil.json"
},{
"label": "Cantamayec", "lat": 20.427850145454546, "lng": -89.07141065454545,"info": "Total: 55 <br><a target='_blank' href=\"/data/mexico/yucatan/cantamayec.json\">Descargar JSON</a>","children": "data/mexico/yucatan/cantamayec.json"
},{
"label": "Yaxkukul", "lat": 21.05743715625, "lng": -89.437218375,"info": "Total: 32 <br><a target='_blank' href=\"/data/mexico/yucatan/yaxkukul.json\">Descargar JSON</a>","children": "data/mexico/yucatan/yaxkukul.json"
},{
"label": "Hunucmá", "lat": 21.032499989898994, "lng": -89.87905532323232,"info": "Total: 99 <br><a target='_blank' href=\"/data/mexico/yucatan/hunucma.json\">Descargar JSON</a>","children": "data/mexico/yucatan/hunucma.json"
},{
"label": "Telchac Puerto", "lat": 21.313330124999997, "lng": -89.26766858333333,"info": "Total: 24 <br><a target='_blank' href=\"/data/mexico/yucatan/telchac-puerto.json\">Descargar JSON</a>","children": "data/mexico/yucatan/telchac-puerto.json"
},{
"label": "Chicxulub Pueblo", "lat": 21.141506441860468, "lng": -89.51147448837209,"info": "Total: 43 <br><a target='_blank' href=\"/data/mexico/yucatan/chicxulub-pueblo.json\">Descargar JSON</a>","children": "data/mexico/yucatan/chicxulub-pueblo.json"
},{
"label": "Tahdziú", "lat": 20.238860166666665, "lng": -88.91204038095238,"info": "Total: 42 <br><a target='_blank' href=\"/data/mexico/yucatan/tahdziu.json\">Descargar JSON</a>","children": "data/mexico/yucatan/tahdziu.json"
},{
"label": "Telchac Pueblo", "lat": 21.197553700000004, "lng": -89.267367425,"info": "Total: 40 <br><a target='_blank' href=\"/data/mexico/yucatan/telchac-pueblo.json\">Descargar JSON</a>","children": "data/mexico/yucatan/telchac-pueblo.json"
},{
"label": "Halachó", "lat": 20.503871450704224, "lng": -90.10894333802817,"info": "Total: 71 <br><a target='_blank' href=\"/data/mexico/yucatan/halacho.json\">Descargar JSON</a>","children": "data/mexico/yucatan/halacho.json"
},{
"label": "Buctzotz", "lat": 21.22360188549619, "lng": -88.66429182824426,"info": "Total: 262 <br><a target='_blank' href=\"/data/mexico/yucatan/buctzotz.json\">Descargar JSON</a>","children": "data/mexico/yucatan/buctzotz.json"
},{
"label": "Panabá", "lat": 21.346429991489373, "lng": -88.29887621702129,"info": "Total: 235 <br><a target='_blank' href=\"/data/mexico/yucatan/panaba.json\">Descargar JSON</a>","children": "data/mexico/yucatan/panaba.json"
},{
"label": "Umán", "lat": 20.867002778656143, "lng": -89.7574073438736,"info": "Total: 253 <br><a target='_blank' href=\"/data/mexico/yucatan/uman.json\">Descargar JSON</a>","children": "data/mexico/yucatan/uman.json"
},{
"label": "Huhí", "lat": 20.704466625, "lng": -89.15187958333333,"info": "Total: 24 <br><a target='_blank' href=\"/data/mexico/yucatan/huhi.json\">Descargar JSON</a>","children": "data/mexico/yucatan/huhi.json"
},{
"label": "Chocholá", "lat": 20.75130898591548, "lng": -89.84054904225353,"info": "Total: 71 <br><a target='_blank' href=\"/data/mexico/yucatan/chochola.json\">Descargar JSON</a>","children": "data/mexico/yucatan/chochola.json"
},{
"label": "Valladolid", "lat": 20.689057951086944, "lng": -88.12486147010871,"info": "Total: 368 <br><a target='_blank' href=\"/data/mexico/yucatan/valladolid.json\">Descargar JSON</a>","children": "data/mexico/yucatan/valladolid.json"
},{
"label": "Ticul", "lat": 20.380393976470586, "lng": -89.52532307058824,"info": "Total: 85 <br><a target='_blank' href=\"/data/mexico/yucatan/ticul.json\">Descargar JSON</a>","children": "data/mexico/yucatan/ticul.json"
},{
"label": "Mérida", "lat": 20.985881632152584, "lng": -89.62214371389649,"info": "Total: 367 <br><a target='_blank' href=\"/data/mexico/yucatan/merida.json\">Descargar JSON</a>","children": "data/mexico/yucatan/merida.json"
},{
"label": "Izamal", "lat": 20.928606372549023, "lng": -88.99086569607843,"info": "Total: 102 <br><a target='_blank' href=\"/data/mexico/yucatan/izamal.json\">Descargar JSON</a>","children": "data/mexico/yucatan/izamal.json"
},{
"label": "Muna", "lat": 20.47849592682927, "lng": -89.72531307317072,"info": "Total: 41 <br><a target='_blank' href=\"/data/mexico/yucatan/muna.json\">Descargar JSON</a>","children": "data/mexico/yucatan/muna.json"
},{
"label": "Hocabá", "lat": 20.808086312500002, "lng": -89.23683896875002,"info": "Total: 32 <br><a target='_blank' href=\"/data/mexico/yucatan/hocaba.json\">Descargar JSON</a>","children": "data/mexico/yucatan/hocaba.json"
},{
"label": "Progreso", "lat": 21.236150576923073, "lng": -89.61676134615388,"info": "Total: 52 <br><a target='_blank' href=\"/data/mexico/yucatan/progreso.json\">Descargar JSON</a>","children": "data/mexico/yucatan/progreso.json"
},{
"label": "Río Lagartos", "lat": 21.506789010989, "lng": -88.12046805494502,"info": "Total: 91 <br><a target='_blank' href=\"/data/mexico/yucatan/rio-lagartos.json\">Descargar JSON</a>","children": "data/mexico/yucatan/rio-lagartos.json"
},{
"label": "Tekit", "lat": 20.554483623188403, "lng": -89.28866204347824,"info": "Total: 69 <br><a target='_blank' href=\"/data/mexico/yucatan/tekit.json\">Descargar JSON</a>","children": "data/mexico/yucatan/tekit.json"
},{
"label": "Mama", "lat": 20.493389761904766, "lng": -89.37395671428571,"info": "Total: 21 <br><a target='_blank' href=\"/data/mexico/yucatan/mama.json\">Descargar JSON</a>","children": "data/mexico/yucatan/mama.json"
},{
"label": "Homún", "lat": 20.69794458536585, "lng": -89.25230946341465,"info": "Total: 41 <br><a target='_blank' href=\"/data/mexico/yucatan/homun.json\">Descargar JSON</a>","children": "data/mexico/yucatan/homun.json"
},{
"label": "Opichén", "lat": 20.557862538461542, "lng": -89.87506792307694,"info": "Total: 26 <br><a target='_blank' href=\"/data/mexico/yucatan/opichen.json\">Descargar JSON</a>","children": "data/mexico/yucatan/opichen.json"
},{
"label": "Peto", "lat": 20.074281269938652, "lng": -88.84179901840491,"info": "Total: 163 <br><a target='_blank' href=\"/data/mexico/yucatan/peto.json\">Descargar JSON</a>","children": "data/mexico/yucatan/peto.json"
},{
"label": "Chumayel", "lat": 20.45325152631579, "lng": -89.29563415789474,"info": "Total: 19 <br><a target='_blank' href=\"/data/mexico/yucatan/chumayel.json\">Descargar JSON</a>","children": "data/mexico/yucatan/chumayel.json"
},{
"label": "Motul", "lat": 21.12478786394558, "lng": -89.2866745238095,"info": "Total: 147 <br><a target='_blank' href=\"/data/mexico/yucatan/motul.json\">Descargar JSON</a>","children": "data/mexico/yucatan/motul.json"
},{
"label": "Quintana Roo", "lat": 20.8455379, "lng": -88.6504434,"info": "Total: 10 <br><a target='_blank' href=\"/data/mexico/yucatan/quintana-roo.json\">Descargar JSON</a>","children": "data/mexico/yucatan/quintana-roo.json"
},{
"label": "Uayma", "lat": 20.743769781250002, "lng": -88.3488749375,"info": "Total: 32 <br><a target='_blank' href=\"/data/mexico/yucatan/uayma.json\">Descargar JSON</a>","children": "data/mexico/yucatan/uayma.json"
},{
"label": "Mayapán", "lat": 20.494592258064515, "lng": -89.191031,"info": "Total: 31 <br><a target='_blank' href=\"/data/mexico/yucatan/mayapan.json\">Descargar JSON</a>","children": "data/mexico/yucatan/mayapan.json"
},{
"label": "Tekax", "lat": 20.034803956692915, "lng": -89.26400339370082,"info": "Total: 254 <br><a target='_blank' href=\"/data/mexico/yucatan/tekax.json\">Descargar JSON</a>","children": "data/mexico/yucatan/tekax.json"
},{
"label": "Teya", "lat": 21.065535428571426, "lng": -89.07094614285714,"info": "Total: 14 <br><a target='_blank' href=\"/data/mexico/yucatan/teya.json\">Descargar JSON</a>","children": "data/mexico/yucatan/teya.json"
},{
"label": "Dzoncauich", "lat": 21.099346960000002, "lng": -88.85650068,"info": "Total: 50 <br><a target='_blank' href=\"/data/mexico/yucatan/dzoncauich.json\">Descargar JSON</a>","children": "data/mexico/yucatan/dzoncauich.json"
},{
"label": "Sudzal", "lat": 20.818212189189193, "lng": -88.9043554864865,"info": "Total: 37 <br><a target='_blank' href=\"/data/mexico/yucatan/sudzal.json\">Descargar JSON</a>","children": "data/mexico/yucatan/sudzal.json"
},{
"label": "Chacsinkín", "lat": 20.189765466666664, "lng": -89.00262300000001,"info": "Total: 15 <br><a target='_blank' href=\"/data/mexico/yucatan/chacsinkin.json\">Descargar JSON</a>","children": "data/mexico/yucatan/chacsinkin.json"
},{
"label": "Tecoh", "lat": 20.69454516363636, "lng": -89.4565005818182,"info": "Total: 55 <br><a target='_blank' href=\"/data/mexico/yucatan/tecoh.json\">Descargar JSON</a>","children": "data/mexico/yucatan/tecoh.json"
},{
"label": "San Felipe", "lat": 21.461692465648856, "lng": -88.26961881679384,"info": "Total: 131 <br><a target='_blank' href=\"/data/mexico/yucatan/san-felipe.json\">Descargar JSON</a>","children": "data/mexico/yucatan/san-felipe.json"
},{
"label": "Conkal", "lat": 21.081737245283023, "lng": -89.51561856603779,"info": "Total: 106 <br><a target='_blank' href=\"/data/mexico/yucatan/conkal.json\">Descargar JSON</a>","children": "data/mexico/yucatan/conkal.json"
},{
"label": "Ixil", "lat": 21.18511029032258, "lng": -89.4763112580645,"info": "Total: 31 <br><a target='_blank' href=\"/data/mexico/yucatan/ixil.json\">Descargar JSON</a>","children": "data/mexico/yucatan/ixil.json"
},{
"label": "Samahil", "lat": 20.86494967857143, "lng": -89.9125325892857,"info": "Total: 56 <br><a target='_blank' href=\"/data/mexico/yucatan/samahil.json\">Descargar JSON</a>","children": "data/mexico/yucatan/samahil.json"
},{
"label": "Chankom", "lat": 20.54773927272727, "lng": -88.54123422727271,"info": "Total: 22 <br><a target='_blank' href=\"/data/mexico/yucatan/chankom.json\">Descargar JSON</a>","children": "data/mexico/yucatan/chankom.json"
},{
"label": "Tzucacab", "lat": 19.976127986754967, "lng": -89.03690350331122,"info": "Total: 151 <br><a target='_blank' href=\"/data/mexico/yucatan/tzucacab.json\">Descargar JSON</a>","children": "data/mexico/yucatan/tzucacab.json"
},{
"label": "Tekom", "lat": 20.53438472222222, "lng": -88.34418408333332,"info": "Total: 36 <br><a target='_blank' href=\"/data/mexico/yucatan/tekom.json\">Descargar JSON</a>","children": "data/mexico/yucatan/tekom.json"
},{
"label": "Kopomá", "lat": 20.641066954545458, "lng": -89.90966677272726,"info": "Total: 22 <br><a target='_blank' href=\"/data/mexico/yucatan/kopoma.json\">Descargar JSON</a>","children": "data/mexico/yucatan/kopoma.json"
},{
"label": "Chikindzonot", "lat": 20.2635125, "lng": -88.55423245,"info": "Total: 20 <br><a target='_blank' href=\"/data/mexico/yucatan/chikindzonot.json\">Descargar JSON</a>","children": "data/mexico/yucatan/chikindzonot.json"
},{
"label": "Kaua", "lat": 20.61894063157895, "lng": -88.42659868421055,"info": "Total: 19 <br><a target='_blank' href=\"/data/mexico/yucatan/kaua.json\">Descargar JSON</a>","children": "data/mexico/yucatan/kaua.json"
},{
"label": "Seyé", "lat": 20.853233692307704, "lng": -89.37616839999998,"info": "Total: 65 <br><a target='_blank' href=\"/data/mexico/yucatan/seye.json\">Descargar JSON</a>","children": "data/mexico/yucatan/seye.json"
},{
"label": "Tahmek", "lat": 20.88172575, "lng": -89.28381132500002,"info": "Total: 40 <br><a target='_blank' href=\"/data/mexico/yucatan/tahmek.json\">Descargar JSON</a>","children": "data/mexico/yucatan/tahmek.json"
},{
"label": "Chapab", "lat": 20.4923768, "lng": -89.47997146666667,"info": "Total: 15 <br><a target='_blank' href=\"/data/mexico/yucatan/chapab.json\">Descargar JSON</a>","children": "data/mexico/yucatan/chapab.json"
},{
"label": "Hoctún", "lat": 20.876547280000004, "lng": -89.19547812,"info": "Total: 25 <br><a target='_blank' href=\"/data/mexico/yucatan/hoctun.json\">Descargar JSON</a>","children": "data/mexico/yucatan/hoctun.json"
},{
"label": "Tunkás", "lat": 20.889203736842102, "lng": -88.7528989122807,"info": "Total: 57 <br><a target='_blank' href=\"/data/mexico/yucatan/tunkas.json\">Descargar JSON</a>","children": "data/mexico/yucatan/tunkas.json"
},{
"label": "Cacalchén", "lat": 20.989322400000006, "lng": -89.23903391111111,"info": "Total: 45 <br><a target='_blank' href=\"/data/mexico/yucatan/cacalchen.json\">Descargar JSON</a>","children": "data/mexico/yucatan/cacalchen.json"
},{
"label": "Sinanché", "lat": 21.282244625000004, "lng": -89.2015133125,"info": "Total: 32 <br><a target='_blank' href=\"/data/mexico/yucatan/sinanche.json\">Descargar JSON</a>","children": "data/mexico/yucatan/sinanche.json"
},{
"label": "Cuncunul", "lat": 20.62936711764706, "lng": -88.34282135294119,"info": "Total: 17 <br><a target='_blank' href=\"/data/mexico/yucatan/cuncunul.json\">Descargar JSON</a>","children": "data/mexico/yucatan/cuncunul.json"
},{
"label": "Suma", "lat": 21.107809944444444, "lng": -89.15457038888889,"info": "Total: 18 <br><a target='_blank' href=\"/data/mexico/yucatan/suma.json\">Descargar JSON</a>","children": "data/mexico/yucatan/suma.json"
},{
"label": "Espita", "lat": 21.037381122137393, "lng": -88.36655624427482,"info": "Total: 131 <br><a target='_blank' href=\"/data/mexico/yucatan/espita.json\">Descargar JSON</a>","children": "data/mexico/yucatan/espita.json"
},{
"label": "Tixmehuac", "lat": 20.2685860625, "lng": -89.08049053124999,"info": "Total: 32 <br><a target='_blank' href=\"/data/mexico/yucatan/tixmehuac.json\">Descargar JSON</a>","children": "data/mexico/yucatan/tixmehuac.json"
},{
"label": "Cansahcab", "lat": 21.167551935483875, "lng": -89.0887431935484,"info": "Total: 31 <br><a target='_blank' href=\"/data/mexico/yucatan/cansahcab.json\">Descargar JSON</a>","children": "data/mexico/yucatan/cansahcab.json"
},{
"label": "Yaxcabá", "lat": 20.474026855172415, "lng": -88.77715833793098,"info": "Total: 145 <br><a target='_blank' href=\"/data/mexico/yucatan/yaxcaba.json\">Descargar JSON</a>","children": "data/mexico/yucatan/yaxcaba.json"
},{
"label": "Kantunil", "lat": 20.780888565217396, "lng": -88.99333052173914,"info": "Total: 23 <br><a target='_blank' href=\"/data/mexico/yucatan/kantunil.json\">Descargar JSON</a>","children": "data/mexico/yucatan/kantunil.json"
},{
"label": "Tetiz", "lat": 20.969334162790698, "lng": -89.95425344186047,"info": "Total: 43 <br><a target='_blank' href=\"/data/mexico/yucatan/tetiz.json\">Descargar JSON</a>","children": "data/mexico/yucatan/tetiz.json"
},{
"label": "Kanasín", "lat": 20.919304125, "lng": -89.53157338281252,"info": "Total: 128 <br><a target='_blank' href=\"/data/mexico/yucatan/kanasin.json\">Descargar JSON</a>","children": "data/mexico/yucatan/kanasin.json"
},{
"label": "Santa Elena", "lat": 20.31442852173913, "lng": -89.71152721739129,"info": "Total: 23 <br><a target='_blank' href=\"/data/mexico/yucatan/santa-elena.json\">Descargar JSON</a>","children": "data/mexico/yucatan/santa-elena.json"
},{
"label": "Tixcacalcupul", "lat": 20.434712603773587, "lng": -88.30477720754718,"info": "Total: 53 <br><a target='_blank' href=\"/data/mexico/yucatan/tixcacalcupul.json\">Descargar JSON</a>","children": "data/mexico/yucatan/tixcacalcupul.json"
},{
"label": "Dzán", "lat": 20.39175256521739, "lng": -89.46304295652175,"info": "Total: 23 <br><a target='_blank' href=\"/data/mexico/yucatan/dzan.json\">Descargar JSON</a>","children": "data/mexico/yucatan/dzan.json"
},{
"label": "Timucuy", "lat": 20.831371879999995, "lng": -89.52843315999999,"info": "Total: 50 <br><a target='_blank' href=\"/data/mexico/yucatan/timucuy.json\">Descargar JSON</a>","children": "data/mexico/yucatan/timucuy.json"
},{
"label": "Dzilam González", "lat": 21.337094541401264, "lng": -88.71430563694268,"info": "Total: 157 <br><a target='_blank' href=\"/data/mexico/yucatan/dzilam-gonzalez.json\">Descargar JSON</a>","children": "data/mexico/yucatan/dzilam-gonzalez.json"
},{
"label": "Maní", "lat": 20.370723162790703, "lng": -89.37558593023257,"info": "Total: 43 <br><a target='_blank' href=\"/data/mexico/yucatan/mani.json\">Descargar JSON</a>","children": "data/mexico/yucatan/mani.json"
},{
"label": "Xocchel", "lat": 20.81907661111111, "lng": -89.15287416666666,"info": "Total: 18 <br><a target='_blank' href=\"/data/mexico/yucatan/xocchel.json\">Descargar JSON</a>","children": "data/mexico/yucatan/xocchel.json"
},{
"label": "Chemax", "lat": 20.727149925764213, "lng": -87.87496678602622,"info": "Total: 229 <br><a target='_blank' href=\"/data/mexico/yucatan/chemax.json\">Descargar JSON</a>","children": "data/mexico/yucatan/chemax.json"
},{
"label": "Tixkokob", "lat": 20.985022037499995, "lng": -89.38082022500002,"info": "Total: 80 <br><a target='_blank' href=\"/data/mexico/yucatan/tixkokob.json\">Descargar JSON</a>","children": "data/mexico/yucatan/tixkokob.json"
},{
"label": "Cenotillo", "lat": 21.06235212903225, "lng": -88.58650813978497,"info": "Total: 93 <br><a target='_blank' href=\"/data/mexico/yucatan/cenotillo.json\">Descargar JSON</a>","children": "data/mexico/yucatan/cenotillo.json"
},{
"label": "Sotuta", "lat": 20.60269629032258, "lng": -89.0079803655914,"info": "Total: 93 <br><a target='_blank' href=\"/data/mexico/yucatan/sotuta.json\">Descargar JSON</a>","children": "data/mexico/yucatan/sotuta.json"
},{
"label": "Maxcanú", "lat": 20.624416936619728, "lng": -90.05160220422536,"info": "Total: 142 <br><a target='_blank' href=\"/data/mexico/yucatan/maxcanu.json\">Descargar JSON</a>","children": "data/mexico/yucatan/maxcanu.json"
},{
"label": "Baca", "lat": 21.11566591304348, "lng": -89.40125049999997,"info": "Total: 92 <br><a target='_blank' href=\"/data/mexico/yucatan/baca.json\">Descargar JSON</a>","children": "data/mexico/yucatan/baca.json"
},{
"label": "Dzilam de Bravo", "lat": 21.393622366336636, "lng": -88.75450094059407,"info": "Total: 101 <br><a target='_blank' href=\"/data/mexico/yucatan/dzilam-de-bravo.json\">Descargar JSON</a>","children": "data/mexico/yucatan/dzilam-de-bravo.json"
},{
"label": "Tepakán", "lat": 21.060428666666667, "lng": -89.02260633333334,"info": "Total: 18 <br><a target='_blank' href=\"/data/mexico/yucatan/tepakan.json\">Descargar JSON</a>","children": "data/mexico/yucatan/tepakan.json"
},{
"label": "Tixpéhual", "lat": 20.96814788461538, "lng": -89.46996392307689,"info": "Total: 52 <br><a target='_blank' href=\"/data/mexico/yucatan/tixpehual.json\">Descargar JSON</a>","children": "data/mexico/yucatan/tixpehual.json"
},{
"label": "Tizimín", "lat": 21.236101867857126, "lng": -87.94827217380953,"info": "Total: 840 <br><a target='_blank' href=\"/data/mexico/yucatan/tizimin.json\">Descargar JSON</a>","children": "data/mexico/yucatan/tizimin.json"
},{
"label": "Chichimilá", "lat": 20.47285665217391, "lng": -88.18378960869563,"info": "Total: 46 <br><a target='_blank' href=\"/data/mexico/yucatan/chichimila.json\">Descargar JSON</a>","children": "data/mexico/yucatan/chichimila.json"
},{
"label": "Akil", "lat": 20.264945636363624, "lng": -89.34963627272728,"info": "Total: 33 <br><a target='_blank' href=\"/data/mexico/yucatan/akil.json\">Descargar JSON</a>","children": "data/mexico/yucatan/akil.json"
},{
"label": "Teabo", "lat": 20.38695072, "lng": -89.24017641333333,"info": "Total: 75 <br><a target='_blank' href=\"/data/mexico/yucatan/teabo.json\">Descargar JSON</a>","children": "data/mexico/yucatan/teabo.json"
},{
"label": "Cuzamá", "lat": 20.73151441666667, "lng": -89.33575116666667,"info": "Total: 12 <br><a target='_blank' href=\"/data/mexico/yucatan/cuzama.json\">Descargar JSON</a>","children": "data/mexico/yucatan/cuzama.json"
},{
"label": "Abalá", "lat": 20.666348351351356, "lng": -89.65806545945948,"info": "Total: 37 <br><a target='_blank' href=\"/data/mexico/yucatan/abala.json\">Descargar JSON</a>","children": "data/mexico/yucatan/abala.json"
},{
"label": "Sacalum", "lat": 20.51285407692308, "lng": -89.60785903846153,"info": "Total: 26 <br><a target='_blank' href=\"/data/mexico/yucatan/sacalum.json\">Descargar JSON</a>","children": "data/mexico/yucatan/sacalum.json"
},{
"label": "Sanahcat", "lat": 20.777011, "lng": -89.21416950000001,"info": "Total: 6 <br><a target='_blank' href=\"/data/mexico/yucatan/sanahcat.json\">Descargar JSON</a>","children": "data/mexico/yucatan/sanahcat.json"
},{
"label": "Temax", "lat": 21.161914225, "lng": -88.90098097500004,"info": "Total: 80 <br><a target='_blank' href=\"/data/mexico/yucatan/temax.json\">Descargar JSON</a>","children": "data/mexico/yucatan/temax.json"
},{
"label": "Bokobá", "lat": 21.007131533333336, "lng": -89.17628513333332,"info": "Total: 15 <br><a target='_blank' href=\"/data/mexico/yucatan/bokoba.json\">Descargar JSON</a>","children": "data/mexico/yucatan/bokoba.json"
},{
"label": "Mocochá", "lat": 21.111526083333327, "lng": -89.453596625,"info": "Total: 48 <br><a target='_blank' href=\"/data/mexico/yucatan/mococha.json\">Descargar JSON</a>","children": "data/mexico/yucatan/mococha.json"
},{
"label": "Yobaín", "lat": 21.28420165116279, "lng": -89.1205031627907,"info": "Total: 43 <br><a target='_blank' href=\"/data/mexico/yucatan/yobain.json\">Descargar JSON</a>","children": "data/mexico/yucatan/yobain.json"
}]