[{
"label": "La Luna", "lat": 19.339642, "lng": -102.503317
},{
"label": "Zimanca", "lat": 19.139886, "lng": -102.55029
},{
"label": "Bomba Tres (San Efraín)", "lat": 19.218089, "lng": -102.699156
},{
"label": "Corral de Piedra", "lat": 19.261996, "lng": -102.575153
},{
"label": "La Huellera (La Bueyera)", "lat": 19.246159, "lng": -102.502133
},{
"label": "El Timbiriche", "lat": 19.370304, "lng": -102.501567
},{
"label": "La Huina Dos", "lat": 19.128302, "lng": -102.510772
},{
"label": "Cueramo", "lat": 19.311478, "lng": -102.513114
},{
"label": "La Nueva", "lat": 19.121551, "lng": -102.529746
},{
"label": "El Dorado", "lat": 19.057478, "lng": -102.61649
},{
"label": "El Paraíso", "lat": 19.07068, "lng": -102.536886
},{
"label": "El Quince", "lat": 19.202774, "lng": -102.736408
},{
"label": "San Isidro", "lat": 19.408147, "lng": -102.532084
},{
"label": "El Calichal", "lat": 19.075393, "lng": -102.657327
},{
"label": "Las Gaviotas", "lat": 19.065098, "lng": -102.542107
},{
"label": "Huarachita", "lat": 19.058607, "lng": -102.58781
},{
"label": "El Hule", "lat": 19.215057, "lng": -102.68192
},{
"label": "Las Carreras", "lat": 19.336571, "lng": -102.535656
},{
"label": "El Tescalame", "lat": 19.318422, "lng": -102.60513
},{
"label": "Pizarro Nuevo", "lat": 19.062615, "lng": -102.599278
},{
"label": "Pachicua", "lat": 19.259148, "lng": -102.534018
},{
"label": "La Huina (La Huina Uno)", "lat": 19.107684, "lng": -102.518921
},{
"label": "Ajuanato", "lat": 19.215965, "lng": -102.755943
},{
"label": "El Niño", "lat": 19.04588, "lng": -102.585185
},{
"label": "24 de Febrero [Banco de Arena]", "lat": 19.145593, "lng": -102.470672
},{
"label": "Felipe Carrillo Puerto (La Ruana)", "lat": 19.160928, "lng": -102.708826
},{
"label": "San Isidro (Capullo)", "lat": 19.215566, "lng": -102.605871
},{
"label": "Los Dos Potrillos", "lat": 19.117703, "lng": -102.525081
},{
"label": "El Guayabal", "lat": 19.321389, "lng": -102.531667
},{
"label": "El Pinzán", "lat": 19.16979, "lng": -102.458855
},{
"label": "El Capiri [Rancho]", "lat": 19.229641, "lng": -102.592081
},{
"label": "El Zopilote", "lat": 19.099499, "lng": -102.718016
},{
"label": "Paraje el Seis", "lat": 19.289945, "lng": -102.558749
},{
"label": "Las Paredes del Ahogado", "lat": 19.276465, "lng": -102.518189
},{
"label": "Catalinas Viejas", "lat": 19.062026, "lng": -102.58836
},{
"label": "El Tepehuaje", "lat": 19.391364, "lng": -102.560546
},{
"label": "Las Colonias de la Luna", "lat": 19.3343, "lng": -102.507364
},{
"label": "Los Tamarindos", "lat": 19.112184, "lng": -102.699746
},{
"label": "Santa Catalina (San Carlos)", "lat": 19.076138, "lng": -102.590696
},{
"label": "El Ventorrillo", "lat": 19.325289, "lng": -102.517949
},{
"label": "La Fábrica", "lat": 19.238599, "lng": -102.569306
},{
"label": "El Veinticinco", "lat": 19.176742, "lng": -102.553353
},{
"label": "La Pista", "lat": 19.205967, "lng": -102.621278
},{
"label": "Razo del Órgano (Veintiuno de Mayo)", "lat": 19.042684, "lng": -102.513789
},{
"label": "El Ojo de Agua", "lat": 19.276998, "lng": -102.564761
},{
"label": "Dieciocho de Marzo", "lat": 19.232108, "lng": -102.705956
},{
"label": "El Chingadazo", "lat": 19.14488, "lng": -102.549423
},{
"label": "Fracción Querusto", "lat": 19.21145, "lng": -102.691184
},{
"label": "El Tambache", "lat": 19.198072, "lng": -102.681718
},{
"label": "El Salate Negro", "lat": 19.085065, "lng": -102.539231
},{
"label": "La Esmeralda", "lat": 19.181691, "lng": -102.694381
},{
"label": "El Limón de la Luna", "lat": 19.341666, "lng": -102.517748
},{
"label": "Airón [Criadero Intensivo]", "lat": 19.115927, "lng": -102.705181
},{
"label": "San José Piedras Blancas", "lat": 19.238228, "lng": -102.766037
},{
"label": "El Nopal", "lat": 19.179291, "lng": -102.429186
},{
"label": "Vergel", "lat": 19.194839, "lng": -102.647156
},{
"label": "Catalinas (Francisco Villa)", "lat": 19.095609, "lng": -102.579428
},{
"label": "El Guayabo", "lat": 19.315211, "lng": -102.580169
},{
"label": "Zirapetiro", "lat": 19.158056, "lng": -102.478805
},{
"label": "Miramar", "lat": 19.203056, "lng": -102.656822
},{
"label": "Vicente Guerrero", "lat": 19.073498, "lng": -102.541505
},{
"label": "Los Últimos", "lat": 19.184808, "lng": -102.540985
},{
"label": "Benito Juárez", "lat": 19.218735, "lng": -102.679362
},{
"label": "Buenavista Tomatlán", "lat": 19.211735, "lng": -102.587891
},{
"label": "El Porvenir", "lat": 19.142639, "lng": -102.504297
},{
"label": "Churumbel", "lat": 19.210255, "lng": -102.628683
},{
"label": "Los Charcos", "lat": 19.022462, "lng": -102.508811
},{
"label": "La Angostura", "lat": 19.363492, "lng": -102.496279
},{
"label": "Bomba Dos", "lat": 19.216519, "lng": -102.691058
},{
"label": "San Joaquín", "lat": 19.167638, "lng": -102.533446
},{
"label": "Punta del Agua", "lat": 19.095689, "lng": -102.667318
},{
"label": "La Aurora", "lat": 19.212156, "lng": -102.579024
},{
"label": "El Cuatro", "lat": 19.273309, "lng": -102.561352
},{
"label": "El Tamarindo Uno", "lat": 19.179976, "lng": -102.565916
},{
"label": "San Miguel", "lat": 19.196399, "lng": -102.664607
},{
"label": "El Mirador", "lat": 19.213829, "lng": -102.657485
},{
"label": "Cinco de Mayo (El Limón)", "lat": 19.285814, "lng": -102.55911
},{
"label": "Chichoato", "lat": 19.160839, "lng": -102.519953
},{
"label": "La Parota", "lat": 19.206486, "lng": -102.623781
},{
"label": "El Ahogado", "lat": 19.286093, "lng": -102.532567
},{
"label": "El Chamizal (Flor de Mayo)", "lat": 19.078333, "lng": -102.600556
},{
"label": "Dos Hermanos (El Pinal)", "lat": 19.192536, "lng": -102.666193
},{
"label": "Amalia [Rancho]", "lat": 19.053019, "lng": -102.586373
},{
"label": "División del Norte [Crucero de Catalinas]", "lat": 19.081153, "lng": -102.610838
},{
"label": "Cruz de Caminos", "lat": 19.307006, "lng": -102.511061
},{
"label": "La Providencia", "lat": 19.21932, "lng": -102.608307
},{
"label": "Purépero", "lat": 19.100772, "lng": -102.542363
},{
"label": "El Cirián", "lat": 19.241536, "lng": -102.46184
},{
"label": "Eréndira", "lat": 19.101615, "lng": -102.561198
},{
"label": "Felipe Ángeles (El Pujido)", "lat": 19.099637, "lng": -102.680597
},{
"label": "Los Mojos", "lat": 19.015341, "lng": -102.537584
},{
"label": "La Cuchilla", "lat": 19.270058, "lng": -102.555297
},{
"label": "La Higuerita", "lat": 19.292938, "lng": -102.503188
},{
"label": "Piedras Blancas", "lat": 19.245789, "lng": -102.77018
},{
"label": "Las Joyas del Pajal", "lat": 19.206284, "lng": -102.419102
},{
"label": "La Providencia Dos", "lat": 19.200161, "lng": -102.662023
},{
"label": "Las Cahuingas", "lat": 19.210278, "lng": -102.683663
},{
"label": "El Pinal", "lat": 19.328289, "lng": -102.508585
},{
"label": "El Mezquital", "lat": 19.194449, "lng": -102.722928
},{
"label": "San Pablo", "lat": 19.191266, "lng": -102.588461
},{
"label": "Pueblo Viejo", "lat": 19.241161, "lng": -102.581307
},{
"label": "El Catorce", "lat": 19.190436, "lng": -102.734479
},{
"label": "Pizándaro", "lat": 19.109003, "lng": -102.542175
},{
"label": "Agrícola Popular [Colonia]", "lat": 19.222664, "lng": -102.578001
},{
"label": "Corongoro", "lat": 19.214431, "lng": -102.596842
},{
"label": "Buenavistilla (La Garita)", "lat": 19.088125, "lng": -102.627269
},{
"label": "El Caracol", "lat": 19.326041, "lng": -102.49796
},{
"label": "El Cerritillo", "lat": 19.347421, "lng": -102.555541
},{
"label": "El Cóbano", "lat": 19.148366, "lng": -102.529669
},{
"label": "Los Laureles", "lat": 19.209928, "lng": -102.639996
},{
"label": "El Castillo", "lat": 19.190907, "lng": -102.44872
},{
"label": "Puerta de Llave", "lat": 19.202358, "lng": -102.443902
},{
"label": "El Vergel", "lat": 19.203723, "lng": -102.641056
},{
"label": "Cerrito Colorado", "lat": 19.34394, "lng": -102.554071
},{
"label": "El Caimán", "lat": 19.173679, "lng": -102.695399
},{
"label": "Paredes Dos", "lat": 19.092528, "lng": -102.530539
},{
"label": "Potosí", "lat": 19.10471, "lng": -102.532609
},{
"label": "Rosa Morada (Las Iguanas)", "lat": 19.10464, "lng": -102.607255
},{
"label": "La Laguna (Lagunitas)", "lat": 19.396713, "lng": -102.518673
},{
"label": "Jalpa", "lat": 19.137462, "lng": -102.539075
},{
"label": "Paraíso", "lat": 19.008547, "lng": -102.543269
},{
"label": "El Terrero", "lat": 19.05321, "lng": -102.649567
},{
"label": "El Tizate", "lat": 19.329193, "lng": -102.533483
},{
"label": "La Esperanza", "lat": 19.108058, "lng": -102.528956
},{
"label": "Díaz [Báscula]", "lat": 19.206637, "lng": -102.599124
},{
"label": "El Salate", "lat": 19.200556, "lng": -102.573056
},{
"label": "El Pilón", "lat": 19.378571, "lng": -102.545619
},{
"label": "La Unión", "lat": 19.197989, "lng": -102.654106
},{
"label": "Santa Ana Amatlán", "lat": 19.161289, "lng": -102.539321
},{
"label": "Loma Bonita", "lat": 19.025912, "lng": -102.543255
},{
"label": "Tres Potrancas", "lat": 19.107573, "lng": -102.695589
},{
"label": "Puerta del Sol", "lat": 19.205602, "lng": -102.690608
},{
"label": "San Mateo", "lat": 19.031972, "lng": -102.568838
}]