[{
"label": "Ninguno [Ejido Coahuayana]", "lat": 18.737591, "lng": -103.669203
},{
"label": "San Miguel del Río (Lo de Luna)", "lat": 18.870114, "lng": -103.578879
},{
"label": "La Palmita", "lat": 18.743729, "lng": -103.561159
},{
"label": "El Vado", "lat": 18.746551, "lng": -103.64655
},{
"label": "Los Lobos", "lat": 18.739582, "lng": -103.698724
},{
"label": "Zapotán", "lat": 18.70937, "lng": -103.598587
},{
"label": "La Limonera", "lat": 18.719954, "lng": -103.695914
},{
"label": "Los Potrillos", "lat": 18.712172, "lng": -103.662398
},{
"label": "Picapiedra", "lat": 18.704826, "lng": -103.689876
},{
"label": "Las Hoyas", "lat": 18.746248, "lng": -103.651864
},{
"label": "La Curva", "lat": 18.681559, "lng": -103.693459
},{
"label": "Chacalapa", "lat": 18.824815, "lng": -103.578939
},{
"label": "Almendra", "lat": 18.709238, "lng": -103.709232
},{
"label": "Jaravia [Rancho]", "lat": 18.707934, "lng": -103.681035
},{
"label": "El Camalote", "lat": 18.75113, "lng": -103.641931
},{
"label": "Rancho Mendoza", "lat": 18.701739, "lng": -103.64699
},{
"label": "Rancho Alegre (El Zapotal)", "lat": 18.657254, "lng": -103.670062
},{
"label": "El Indio", "lat": 18.737346, "lng": -103.618985
},{
"label": "Rancho de los Capomo", "lat": 18.690673, "lng": -103.629591
},{
"label": "Rancho Leonarda", "lat": 18.741477, "lng": -103.677381
},{
"label": "El Guamúchil", "lat": 18.713599, "lng": -103.542978
},{
"label": "Ninguno", "lat": 18.677648, "lng": -103.686803
},{
"label": "Manuel Farías [Rancho]", "lat": 18.741834, "lng": -103.658366
},{
"label": "El Ticuiz", "lat": 18.663877, "lng": -103.685131
},{
"label": "Palos Marías", "lat": 18.81189, "lng": -103.540368
},{
"label": "La Escondida", "lat": 18.684167, "lng": -103.578611
},{
"label": "El Palmar", "lat": 18.694153, "lng": -103.722691
},{
"label": "Valle Verde", "lat": 18.716093, "lng": -103.700675
},{
"label": "Arroyo Seco (Don Goyo González)", "lat": 18.701036, "lng": -103.639014
},{
"label": "Los Alacranes", "lat": 18.744582, "lng": -103.675788
},{
"label": "Los Pelones", "lat": 18.743781, "lng": -103.64165
},{
"label": "Coahuayana Viejo", "lat": 18.753075, "lng": -103.668411
},{
"label": "Paso de los Gringos (Los Parajes)", "lat": 18.743406, "lng": -103.614477
},{
"label": "El Tortugario", "lat": 18.656804, "lng": -103.703903
},{
"label": "La Cobanera", "lat": 18.728394, "lng": -103.661904
},{
"label": "La Peña del Mar", "lat": 18.703039, "lng": -103.720512
},{
"label": "Playa Mezcala", "lat": 18.650456, "lng": -103.698502
},{
"label": "Buenos Aires", "lat": 18.830117, "lng": -103.574875
},{
"label": "La Mojonera", "lat": 18.690547, "lng": -103.615162
},{
"label": "El Crucero del Ticuiz", "lat": 18.67461, "lng": -103.679813
},{
"label": "El Contagio", "lat": 18.712417, "lng": -103.678279
},{
"label": "Santa María Miramar", "lat": 18.734722, "lng": -103.585278
},{
"label": "El Maguey", "lat": 18.741978, "lng": -103.520271
},{
"label": "San Rafael", "lat": 18.743345, "lng": -103.657366
},{
"label": "La Zorrillera", "lat": 18.640222, "lng": -103.652736
},{
"label": "El Pabellón", "lat": 18.689069, "lng": -103.580483
},{
"label": "Las Crucitas", "lat": 18.820145, "lng": -103.575489
},{
"label": "Las Tablas", "lat": 18.734167, "lng": -103.535833
},{
"label": "La Hacienda", "lat": 18.733457, "lng": -103.690991
},{
"label": "Ojo de Agua de San Telmo", "lat": 18.625379, "lng": -103.674447
},{
"label": "La Guayabera", "lat": 18.67826, "lng": -103.584058
},{
"label": "El Árbol de la Virgen", "lat": 18.667141, "lng": -103.66981
},{
"label": "Quinta Rosario", "lat": 18.712773, "lng": -103.704568
},{
"label": "Rancho Efraín González", "lat": 18.689591, "lng": -103.669761
},{
"label": "La Genética [Granja]", "lat": 18.669098, "lng": -103.671204
},{
"label": "El Porvenir", "lat": 18.715728, "lng": -103.634184
},{
"label": "Los Ciruelos", "lat": 18.74248, "lng": -103.655051
},{
"label": "Rancho Nuevo", "lat": 18.718667, "lng": -103.698372
},{
"label": "La Ocotera", "lat": 18.777769, "lng": -103.528724
},{
"label": "Playa el Naranjo", "lat": 18.862546, "lng": -103.627408
},{
"label": "El Amatique", "lat": 18.7778, "lng": -103.614735
},{
"label": "Salsipuedes", "lat": 18.852879, "lng": -103.621474
},{
"label": "El Chorumo", "lat": 18.712589, "lng": -103.577921
},{
"label": "Rancho Altamira", "lat": 18.711386, "lng": -103.707462
},{
"label": "Agua Fría", "lat": 18.686834, "lng": -103.603237
},{
"label": "Palmita", "lat": 18.738726, "lng": -103.553606
},{
"label": "La Estrella", "lat": 18.665054, "lng": -103.671439
},{
"label": "La Calzada del Gallo", "lat": 18.677522, "lng": -103.683315
},{
"label": "Elías López Mendoza [Rancho]", "lat": 18.845642, "lng": -103.597199
},{
"label": "La Parota (Los Ruices)", "lat": 18.759172, "lng": -103.641011
},{
"label": "San Telmo", "lat": 18.62606, "lng": -103.684097
},{
"label": "El Ahijadero", "lat": 18.678819, "lng": -103.610136
},{
"label": "El Zapotal", "lat": 18.661576, "lng": -103.670828
},{
"label": "La Vainilla", "lat": 18.670556, "lng": -103.595
},{
"label": "El Llano de Chacalapa (El Anonal)", "lat": 18.811971, "lng": -103.583947
},{
"label": "Colonia Veinte de Noviembre (El Camalote)", "lat": 18.767822, "lng": -103.630217
},{
"label": "Los Pérez", "lat": 18.717737, "lng": -103.701794
},{
"label": "COMACO [Empacadora]", "lat": 18.706224, "lng": -103.673934
},{
"label": "Chocoquillo", "lat": 18.690464, "lng": -103.695805
},{
"label": "Los Pinos", "lat": 18.772778, "lng": -103.615833
},{
"label": "El Parotal", "lat": 18.740515, "lng": -103.569573
},{
"label": "Los Martínez", "lat": 18.713602, "lng": -103.706093
},{
"label": "El Palenque", "lat": 18.671234, "lng": -103.683205
},{
"label": "Comercializadora Agropecuaria de Coahuayana", "lat": 18.684658, "lng": -103.669344
},{
"label": "El Sifón", "lat": 18.751909, "lng": -103.658826
},{
"label": "San Vicente", "lat": 18.727517, "lng": -103.686475
},{
"label": "Las Meloneras", "lat": 18.733518, "lng": -103.632378
},{
"label": "Rancho de Rojas", "lat": 18.741992, "lng": -103.64984
},{
"label": "La Ceiba", "lat": 18.741811, "lng": -103.693083
},{
"label": "El Jabalí", "lat": 18.71684, "lng": -103.595894
},{
"label": "El Saucito", "lat": 18.743213, "lng": -103.536099
},{
"label": "La Peña", "lat": 18.827609, "lng": -103.618356
},{
"label": "Lázaro Cárdenas del Río (El Órgano)", "lat": 18.855927, "lng": -103.59195
},{
"label": "El Chocoquillo", "lat": 18.697358, "lng": -103.698326
},{
"label": "El Achoque", "lat": 18.673086, "lng": -103.607638
},{
"label": "Puerto el Chacayote", "lat": 18.719133, "lng": -103.54491
},{
"label": "El Nance", "lat": 18.807924, "lng": -103.545227
},{
"label": "El Oasis", "lat": 18.739896, "lng": -103.641445
},{
"label": "Achotán", "lat": 18.747237, "lng": -103.594046
},{
"label": "La Esperanza", "lat": 18.691837, "lng": -103.656716
},{
"label": "Las Alazanas", "lat": 18.714516, "lng": -103.621081
},{
"label": "Las Guásimas", "lat": 18.847282, "lng": -103.579551
},{
"label": "Coahuayana de Hidalgo", "lat": 18.702474, "lng": -103.662931
},{
"label": "La Huizachera", "lat": 18.744074, "lng": -103.577065
},{
"label": "Guanay", "lat": 18.67916, "lng": -103.694105
},{
"label": "El Valle", "lat": 18.749548, "lng": -103.606994
},{
"label": "Boca de Apiza", "lat": 18.685044, "lng": -103.734908
},{
"label": "Agua de Orozco", "lat": 18.769861, "lng": -103.558792
}]