[{
"label": "Los Nogales", "lat": 20.095019, "lng": -102.146649
},{
"label": "Rincón Grande", "lat": 20.2174, "lng": -102.172693
},{
"label": "Las Torcazas", "lat": 20.094556, "lng": -102.265055
},{
"label": "Moreno de Valencia", "lat": 20.095164, "lng": -102.175305
},{
"label": "La Estancia de Gómez", "lat": 20.125253, "lng": -102.274646
},{
"label": "Ecuandureo", "lat": 20.162616, "lng": -102.194566
},{
"label": "Las Fuentes", "lat": 20.159722, "lng": -102.218333
},{
"label": "Las Majadas (La Florida)", "lat": 20.133201, "lng": -102.268397
},{
"label": "Las Maravillas", "lat": 20.135531, "lng": -102.284498
},{
"label": "La Galera", "lat": 20.182075, "lng": -102.207667
},{
"label": "La Barranca", "lat": 20.223959, "lng": -102.172331
},{
"label": "Potrero Nuevo", "lat": 20.210217, "lng": -102.163883
},{
"label": "El Cuervo", "lat": 20.117842, "lng": -102.259925
},{
"label": "Puerta de Vargas", "lat": 20.177152, "lng": -102.301218
},{
"label": "La Caja", "lat": 20.180397, "lng": -102.215261
},{
"label": "Parque Industrial Zamora", "lat": 20.110556, "lng": -102.265278
},{
"label": "El Cerrito de la Arena", "lat": 20.178444, "lng": -102.16825
},{
"label": "La Cañada de Moreno", "lat": 20.113333, "lng": -102.158056
},{
"label": "El Capulín", "lat": 20.181706, "lng": -102.188158
},{
"label": "El Tarengo", "lat": 20.216186, "lng": -102.178158
},{
"label": "Los Ocales", "lat": 20.168792, "lng": -102.217458
},{
"label": "San José Aramútaro", "lat": 20.108847, "lng": -102.158943
},{
"label": "San Francisco de Asís", "lat": 20.189168, "lng": -102.192978
},{
"label": "El Torreón", "lat": 20.140346, "lng": -102.296694
},{
"label": "Rancho del Sol", "lat": 20.172989, "lng": -102.285436
},{
"label": "La Chinela", "lat": 20.142587, "lng": -102.35722
},{
"label": "La Sauceda", "lat": 20.102794, "lng": -102.346406
},{
"label": "Ucácuaro", "lat": 20.154397, "lng": -102.240749
},{
"label": "Moreno de Bravo", "lat": 20.093054, "lng": -102.168338
},{
"label": "La Soledad", "lat": 20.224928, "lng": -102.211327
},{
"label": "Colesio", "lat": 20.147169, "lng": -102.300993
},{
"label": "Quiringuicharo (La Hacienda)", "lat": 20.210297, "lng": -102.178994
},{
"label": "La Nopalera", "lat": 20.119219, "lng": -102.266201
},{
"label": "Ojo de Agua", "lat": 20.159172, "lng": -102.186897
}]