[{
"label": "Porumbo", "lat": 19.575181, "lng": -101.739413
},{
"label": "San Miguel Nocutzepo", "lat": 19.529656, "lng": -101.698374
},{
"label": "La Zarzamora", "lat": 19.608586, "lng": -101.759156
},{
"label": "La Flor de la Esperanza", "lat": 19.594697, "lng": -101.713464
},{
"label": "Napízaro", "lat": 19.596977, "lng": -101.6922
},{
"label": "Erongarícuaro", "lat": 19.588253, "lng": -101.720086
},{
"label": "Ex-Hacienda de Charahuén", "lat": 19.526507, "lng": -101.707536
},{
"label": "La Montufa", "lat": 19.602283, "lng": -101.724976
},{
"label": "La Huerta", "lat": 19.579996, "lng": -101.748781
},{
"label": "San José Oponguio", "lat": 19.645126, "lng": -101.649079
},{
"label": "Los Tepetates", "lat": 19.601184, "lng": -101.720091
},{
"label": "Jarácuaro", "lat": 19.560833, "lng": -101.6775
},{
"label": "Las Canoas", "lat": 19.598656, "lng": -101.735391
},{
"label": "San Francisco Uricho", "lat": 19.572422, "lng": -101.716383
},{
"label": "Arócutin", "lat": 19.556419, "lng": -101.696721
},{
"label": "Puácuaro", "lat": 19.601719, "lng": -101.673664
},{
"label": "Colonia Revolución (La Ortiga)", "lat": 19.59811, "lng": -101.683035
},{
"label": "Colonia Lázaro Cárdenas", "lat": 19.681566, "lng": -101.746019
},{
"label": "Tocuaro", "lat": 19.538704, "lng": -101.694434
},{
"label": "Mirador del Lago [Fraccionamiento]", "lat": 19.580626, "lng": -101.726854
},{
"label": "La Laja", "lat": 19.580331, "lng": -101.741634
},{
"label": "Yotátiro", "lat": 19.602996, "lng": -101.742481
},{
"label": "El Bailón", "lat": 19.576982, "lng": -101.742579
},{
"label": "Madroño", "lat": 19.595032, "lng": -101.75155
},{
"label": "Paso del Muerto", "lat": 19.593418, "lng": -101.728845
},{
"label": "Zinciro", "lat": 19.670699, "lng": -101.740397
},{
"label": "El Bambilete", "lat": 19.658908, "lng": -101.752624
}]