[{
"label": "Cristo Rey", "lat": 19.707515, "lng": -100.463836
},{
"label": "Guadalupe [Colonia]", "lat": 19.704583, "lng": -100.488729
},{
"label": "Chupio", "lat": 19.669396, "lng": -100.434697
},{
"label": "Cañada de la Ardilla", "lat": 19.726492, "lng": -100.495814
},{
"label": "San Miguel el Alto", "lat": 19.676962, "lng": -100.422459
},{
"label": "Jaripeo", "lat": 19.654551, "lng": -100.488244
},{
"label": "San Vicente el Chico (Manzana de San Vicente)", "lat": 19.77733, "lng": -100.480922
},{
"label": "Los Cedros [Colonia]", "lat": 19.700151, "lng": -100.491593
},{
"label": "San Francisco Epunguio", "lat": 19.700354, "lng": -100.438477
},{
"label": "El Salto", "lat": 19.696515, "lng": -100.413116
},{
"label": "San Antonio Tarichado", "lat": 19.690126, "lng": -100.426183
},{
"label": "Estación Irimbo", "lat": 19.708682, "lng": -100.448913
},{
"label": "San Nicolás", "lat": 19.683889, "lng": -100.45979
},{
"label": "El Llano de Epunguio", "lat": 19.685944, "lng": -100.437575
},{
"label": "San Lorenzo Queréndaro", "lat": 19.667313, "lng": -100.490456
},{
"label": "Los Marzos Pequeña", "lat": 19.725459, "lng": -100.454376
},{
"label": "Los Hoyos (El Tinaco)", "lat": 19.711862, "lng": -100.478802
},{
"label": "La Frontera", "lat": 19.760103, "lng": -100.465448
},{
"label": "Tzintzingareo", "lat": 19.764058, "lng": -100.486003
},{
"label": "El Salitre", "lat": 19.672335, "lng": -100.495052
},{
"label": "La Joya", "lat": 19.680561, "lng": -100.428522
},{
"label": "Antorcha Magallanes", "lat": 19.692245, "lng": -100.500321
},{
"label": "Las Surtadas (Las Hurtadas)", "lat": 19.738907, "lng": -100.467093
},{
"label": "La Alhaja", "lat": 19.697485, "lng": -100.428036
},{
"label": "Concharrás", "lat": 19.779419, "lng": -100.443984
},{
"label": "Los Mogotes", "lat": 19.755873, "lng": -100.472424
},{
"label": "Loma de Chupio", "lat": 19.667667, "lng": -100.449064
},{
"label": "San Miguel la Virgen", "lat": 19.680879, "lng": -100.451712
},{
"label": "La Cuajada", "lat": 19.748363, "lng": -100.462577
},{
"label": "El Colorín (Seis de Junio)", "lat": 19.69549, "lng": -100.493109
},{
"label": "Llano Grande", "lat": 19.777056, "lng": -100.514706
},{
"label": "San José de Magallanes", "lat": 19.688563, "lng": -100.502567
},{
"label": "Epunguio el Viejo", "lat": 19.70975, "lng": -100.4145
},{
"label": "Balvaneda", "lat": 19.743783, "lng": -100.449749
},{
"label": "Garambullo", "lat": 19.692028, "lng": -100.44527
},{
"label": "Irimbo", "lat": 19.697488, "lng": -100.479101
},{
"label": "El Azafrán", "lat": 19.647964, "lng": -100.471804
},{
"label": "Ninguno [El Deshuesadero]", "lat": 19.697586, "lng": -100.490711
},{
"label": "El Zorillo (Parícuaro Curimba)", "lat": 19.769508, "lng": -100.490921
},{
"label": "Las Joyas", "lat": 19.639708, "lng": -100.47592
},{
"label": "El Obraje", "lat": 19.706573, "lng": -100.459101
},{
"label": "Cerrito Blanco", "lat": 19.759397, "lng": -100.454379
},{
"label": "Los Marzos Ejido", "lat": 19.724111, "lng": -100.459668
},{
"label": "Santa Inés", "lat": 19.700919, "lng": -100.464515
}]