[{
"label": "El Rincón", "lat": 19.897049, "lng": -102.692604
},{
"label": "Los Amoles", "lat": 20.028218, "lng": -102.847416
},{
"label": "Santa Bárbara", "lat": 19.970264, "lng": -102.777989
},{
"label": "Francisco Sarabia (Cerrito Pelón)", "lat": 20.030213, "lng": -102.702557
},{
"label": "Rancho de Otero", "lat": 19.977292, "lng": -102.739918
},{
"label": "La Casa Blanca", "lat": 19.969034, "lng": -102.724693
},{
"label": "El Salto", "lat": 19.987552, "lng": -102.768485
},{
"label": "Ninguno [Equipo de Bombeo Número Uno de Totolán]", "lat": 19.995971, "lng": -102.679011
},{
"label": "Rancho de José María Barragán", "lat": 20.019306, "lng": -102.800453
},{
"label": "La Yerbabuena [Pozo de Agua]", "lat": 20.032089, "lng": -102.710619
},{
"label": "La Loma del Pastor [Fraccionamiento]", "lat": 19.98553, "lng": -102.688645
},{
"label": "Los Chiqueros", "lat": 19.936346, "lng": -102.762202
},{
"label": "La Purísima", "lat": 19.972579, "lng": -102.797511
},{
"label": "Rancho Alegre (Colonia Loma del Pastor)", "lat": 19.984615, "lng": -102.689129
},{
"label": "José Abadiano (Los Altos)", "lat": 19.994177, "lng": -102.871793
},{
"label": "La Lobera", "lat": 20.015563, "lng": -102.682958
},{
"label": "San Martín Totolán", "lat": 19.986246, "lng": -102.680623
},{
"label": "La Beneficencia (La Morena)", "lat": 19.996188, "lng": -102.685326
},{
"label": "El Capulín", "lat": 19.916779, "lng": -102.722944
},{
"label": "La Bueyera", "lat": 20.005207, "lng": -102.792257
},{
"label": "Rancho de Adán Gálvez", "lat": 20.028474, "lng": -102.799562
},{
"label": "Loza", "lat": 19.908962, "lng": -102.682199
},{
"label": "El Colgado (La Sorpresa)", "lat": 19.988333, "lng": -102.695278
},{
"label": "Los Cerritos", "lat": 20.008677, "lng": -102.796618
},{
"label": "Rancho de José Magaña", "lat": 20.025572, "lng": -102.793485
},{
"label": "Jiquilpan de Juárez", "lat": 19.989719, "lng": -102.718563
},{
"label": "El Junco", "lat": 19.957664, "lng": -102.71818
},{
"label": "Las Pajas (El Tubo)", "lat": 20.028133, "lng": -102.790572
},{
"label": "Niños Héroes", "lat": 20.038107, "lng": -102.713873
},{
"label": "El Ramireño (La Noria)", "lat": 20.016331, "lng": -102.716202
},{
"label": "Las Ánimas", "lat": 19.961025, "lng": -102.777219
},{
"label": "Las Puentes", "lat": 20.010307, "lng": -102.843249
},{
"label": "Lata Chica (La Tachica)", "lat": 20.030649, "lng": -102.840976
},{
"label": "Cerro de San Francisco", "lat": 19.948689, "lng": -102.695986
},{
"label": "Los Laureles", "lat": 19.955496, "lng": -102.753506
},{
"label": "Las Fuentes", "lat": 20.002952, "lng": -102.840212
},{
"label": "Lagunita", "lat": 19.907802, "lng": -102.708975
},{
"label": "Los Remedios", "lat": 19.976838, "lng": -102.679421
},{
"label": "El Vergel [Rancho]", "lat": 19.987508, "lng": -102.79759
},{
"label": "Paredones", "lat": 19.896839, "lng": -102.685149
},{
"label": "La Bolsa", "lat": 20.014884, "lng": -102.83538
},{
"label": "Paso del Buey (Paso de la Cañada)", "lat": 19.968056, "lng": -102.767245
},{
"label": "Los Tábanos", "lat": 19.97626, "lng": -102.827885
},{
"label": "La Cantera", "lat": 19.929945, "lng": -102.725919
},{
"label": "Abadiano (Los Bajos)", "lat": 19.997591, "lng": -102.861637
},{
"label": "Los Tres Ríos", "lat": 19.972711, "lng": -102.743638
},{
"label": "La Cofradía", "lat": 19.992444, "lng": -102.782387
},{
"label": "La Breña", "lat": 19.949074, "lng": -102.771057
},{
"label": "El Fresno", "lat": 19.994964, "lng": -102.803728
},{
"label": "La Mesa", "lat": 20.000319, "lng": -102.748333
},{
"label": "Palos Altos", "lat": 20.008358, "lng": -102.689814
},{
"label": "Las Jaras (La Jara)", "lat": 19.942904, "lng": -102.716029
},{
"label": "Rancho de Alfonso Amezcua", "lat": 20.010836, "lng": -102.788334
},{
"label": "Las Violetas", "lat": 20.013532, "lng": -102.796743
}]