[{
"label": "Loma Linda (El Chapiral)", "lat": 20.221881, "lng": -101.61205
},{
"label": "San Isidro Tierras Blancas", "lat": 20.323921, "lng": -101.555406
},{
"label": "El Corral de las Tijeras", "lat": 20.280835, "lng": -101.622116
},{
"label": "El Potrero de Abajo", "lat": 20.313156, "lng": -101.483294
},{
"label": "Las Tablas [Ejido]", "lat": 20.300807, "lng": -101.609883
},{
"label": "Pastor Ortiz", "lat": 20.302184, "lng": -101.596856
},{
"label": "Mancera", "lat": 20.318039, "lng": -101.521261
},{
"label": "La Milpa", "lat": 20.329144, "lng": -101.476016
},{
"label": "Casa Blanca", "lat": 20.322278, "lng": -101.462197
},{
"label": "El Arco", "lat": 20.254881, "lng": -101.572156
},{
"label": "Zapote de Parras", "lat": 20.240139, "lng": -101.642229
},{
"label": "Colonia Morelos", "lat": 20.302041, "lng": -101.531735
},{
"label": "San Martín", "lat": 20.215554, "lng": -101.61667
},{
"label": "Héroes de Chapultepec (Rodeo de San Antonio)", "lat": 20.311949, "lng": -101.504107
},{
"label": "Tres Mezquites", "lat": 20.263656, "lng": -101.625767
},{
"label": "Tafolla (José María Tafolla)", "lat": 20.249801, "lng": -101.552641
},{
"label": "San José Huipana", "lat": 20.27863, "lng": -101.469369
},{
"label": "Santa Rosa de Lima (El Armadillo)", "lat": 20.225267, "lng": -101.584508
},{
"label": "El Montesillo", "lat": 20.308676, "lng": -101.574576
},{
"label": "Lázaro Cárdenas (Busburu)", "lat": 20.282604, "lng": -101.59584
},{
"label": "Los Ángeles", "lat": 20.228878, "lng": -101.619313
},{
"label": "La Calera (Nacimientos)", "lat": 20.275248, "lng": -101.574646
},{
"label": "El Campo", "lat": 20.285835, "lng": -101.630198
},{
"label": "El Jaral", "lat": 20.242056, "lng": -101.625703
},{
"label": "Granja de los Arroyo", "lat": 20.295208, "lng": -101.496025
},{
"label": "Colonia Melchor Ocampo", "lat": 20.310618, "lng": -101.460887
},{
"label": "Gildardo Magaña", "lat": 20.23684, "lng": -101.645957
},{
"label": "Agua Caliente de San Sebastián", "lat": 20.308433, "lng": -101.476622
},{
"label": "Los Corrales", "lat": 20.315641, "lng": -101.571368
},{
"label": "La Loma", "lat": 20.302051, "lng": -101.484649
},{
"label": "Colonia Balbuena", "lat": 20.295498, "lng": -101.532759
},{
"label": "La Pasión de Cristo", "lat": 20.292545, "lng": -101.631507
},{
"label": "Mezquite Gordo", "lat": 20.281266, "lng": -101.528142
},{
"label": "La Estación de los Ángeles", "lat": 20.211942, "lng": -101.629268
},{
"label": "Ninguno", "lat": 20.283133, "lng": -101.474972
},{
"label": "Los Vázquez (Las Casitas)", "lat": 20.265833, "lng": -101.545556
},{
"label": "La Cajita de Chávez", "lat": 20.303019, "lng": -101.504806
},{
"label": "Godino", "lat": 20.231926, "lng": -101.57701
},{
"label": "Unión Juárez (Agua Gorda)", "lat": 20.182914, "lng": -101.611812
},{
"label": "Colonia José J. Múgica", "lat": 20.296706, "lng": -101.596633
}]