[{
"label": "Las Pilas", "lat": 19.274909, "lng": -100.483988
},{
"label": "El Aguaje", "lat": 19.285665, "lng": -100.433278
},{
"label": "La Camelina", "lat": 19.335568, "lng": -100.406267
},{
"label": "El Cabrito", "lat": 19.266021, "lng": -100.443764
},{
"label": "Las Mesitas", "lat": 19.336619, "lng": -100.388227
},{
"label": "El Aventurero", "lat": 19.319444, "lng": -100.379674
},{
"label": "El Mirador", "lat": 19.321825, "lng": -100.456781
},{
"label": "Buenavista de Zapata (El Atorón)", "lat": 19.301998, "lng": -100.448986
},{
"label": "Mesa Alta (Pinzanera)", "lat": 19.340757, "lng": -100.424115
},{
"label": "La Parota", "lat": 19.257815, "lng": -100.444399
},{
"label": "Chumbítaro", "lat": 19.328673, "lng": -100.420526
},{
"label": "Agua de la Piedra", "lat": 19.272234, "lng": -100.396268
},{
"label": "Rodeo", "lat": 19.306082, "lng": -100.471218
},{
"label": "Cerro Colorado", "lat": 19.316608, "lng": -100.465045
},{
"label": "Irapeo de Madero", "lat": 19.299178, "lng": -100.502065
},{
"label": "Orocutín de Serdán", "lat": 19.265564, "lng": -100.471663
},{
"label": "Ninguno [CBTA]", "lat": 19.298414, "lng": -100.432299
},{
"label": "Trincheras", "lat": 19.33222, "lng": -100.41163
},{
"label": "Santa María", "lat": 19.263816, "lng": -100.483856
},{
"label": "Ninguno", "lat": 19.309884, "lng": -100.437515
},{
"label": "El Salitrillo (El Salitre)", "lat": 19.328377, "lng": -100.403431
},{
"label": "La Escondida", "lat": 19.332737, "lng": -100.399746
},{
"label": "Dos Ríos", "lat": 19.340196, "lng": -100.396408
},{
"label": "Santa Cruz", "lat": 19.321418, "lng": -100.452206
},{
"label": "Las Ceibillas", "lat": 19.251445, "lng": -100.489711
},{
"label": "Ojo de Agua", "lat": 19.314866, "lng": -100.453794
},{
"label": "Zicata Chico (Zicata Chico de Morelos)", "lat": 19.314174, "lng": -100.393979
},{
"label": "La Empacadora", "lat": 19.320997, "lng": -100.442422
},{
"label": "Las Camelinas", "lat": 19.333611, "lng": -100.4075
},{
"label": "Loma Linda", "lat": 19.276377, "lng": -100.415393
},{
"label": "Zicata de Morelos (Zicata Grande de Morelos)", "lat": 19.331086, "lng": -100.390123
},{
"label": "El paraíso", "lat": 19.320269, "lng": -100.456319
},{
"label": "El Ojo de Agua", "lat": 19.3332, "lng": -100.383863
},{
"label": "Enandio", "lat": 19.333457, "lng": -100.429836
},{
"label": "Puerto de los Laureles", "lat": 19.32124, "lng": -100.431648
},{
"label": "Las Carretas", "lat": 19.302542, "lng": -100.442555
},{
"label": "Guanoro", "lat": 19.339645, "lng": -100.401617
},{
"label": "Linda Vista", "lat": 19.261833, "lng": -100.463316
},{
"label": "Laguna Verde", "lat": 19.291788, "lng": -100.439194
},{
"label": "Las Paredes", "lat": 19.292366, "lng": -100.433166
},{
"label": "El Llano", "lat": 19.302846, "lng": -100.404849
},{
"label": "Timbuscatío", "lat": 19.271114, "lng": -100.502699
},{
"label": "Landero", "lat": 19.316639, "lng": -100.382151
},{
"label": "López Ríos (Casa de Piedra Dos) [Rancho]", "lat": 19.294118, "lng": -100.431268
},{
"label": "Parícuaro", "lat": 19.264173, "lng": -100.457236
},{
"label": "El Limoncito", "lat": 19.298757, "lng": -100.425894
},{
"label": "El Paraíso (Hoyo del Dinero)", "lat": 19.290825, "lng": -100.428537
},{
"label": "Benito Juárez", "lat": 19.312258, "lng": -100.433516
},{
"label": "Santa Ana de Guerrero (El Cascabel)", "lat": 19.276999, "lng": -100.441797
},{
"label": "Puerto de Timbuscatío (La Alcantarilla)", "lat": 19.267452, "lng": -100.484893
},{
"label": "El Puertecito", "lat": 19.321468, "lng": -100.391357
},{
"label": "Puente de Fierro", "lat": 19.325556, "lng": -100.422376
}]