[{
"label": "San José del Salto", "lat": 19.107259, "lng": -101.856234
},{
"label": "Las Pilas", "lat": 19.231667, "lng": -101.85
},{
"label": "Tepenahua", "lat": 19.168109, "lng": -101.851327
},{
"label": "Colonia Nueva", "lat": 19.172779, "lng": -101.898534
},{
"label": "El Pinal", "lat": 19.078131, "lng": -101.820243
},{
"label": "San Vicente", "lat": 19.274886, "lng": -101.846531
},{
"label": "Las Ánimas", "lat": 19.062078, "lng": -101.845977
},{
"label": "Soromutal (Sorumutal)", "lat": 19.202513, "lng": -101.886123
},{
"label": "El Calvario", "lat": 19.209954, "lng": -101.831371
},{
"label": "San Joaquín", "lat": 19.070569, "lng": -101.778776
},{
"label": "El Arroyo Seco", "lat": 19.166749, "lng": -101.858227
},{
"label": "Oval (El Uval)", "lat": 19.088368, "lng": -101.824759
},{
"label": "El Salto", "lat": 19.118908, "lng": -101.897457
},{
"label": "Tipítaro", "lat": 19.256427, "lng": -101.850851
},{
"label": "El Platanillo", "lat": 19.068966, "lng": -101.827789
},{
"label": "Villa Eréndira (El Tres)", "lat": 19.175135, "lng": -101.89192
},{
"label": "Los Otates", "lat": 19.173389, "lng": -101.826268
},{
"label": "Chachalaca", "lat": 19.227317, "lng": -101.840017
},{
"label": "Agua Fría", "lat": 19.084057, "lng": -101.91168
},{
"label": "El Mirador", "lat": 19.189416, "lng": -101.859878
},{
"label": "El Tejabán", "lat": 19.205781, "lng": -101.901675
},{
"label": "El Capirito", "lat": 19.225968, "lng": -101.834409
},{
"label": "La Jicotera", "lat": 19.042222, "lng": -101.819167
},{
"label": "El Purgatorio", "lat": 19.171556, "lng": -101.884183
},{
"label": "Tierras Coloradas", "lat": 19.21692, "lng": -101.894992
},{
"label": "El Ranchito", "lat": 19.196307, "lng": -101.914665
},{
"label": "La Parota", "lat": 19.202455, "lng": -101.894145
},{
"label": "San Isidro", "lat": 19.200395, "lng": -101.908318
},{
"label": "Nuevo Urecho", "lat": 19.165872, "lng": -101.868847
},{
"label": "El Cablotillo", "lat": 19.096687, "lng": -101.821501
},{
"label": "Manchones", "lat": 19.189604, "lng": -101.885923
},{
"label": "La Guadalupe", "lat": 19.208548, "lng": -101.879823
},{
"label": "San Juan", "lat": 19.193469, "lng": -101.879058
},{
"label": "El Naranjo", "lat": 19.128056, "lng": -101.909167
},{
"label": "Santa Efigenia", "lat": 19.051154, "lng": -101.815232
},{
"label": "La Ibérica (La Gotera)", "lat": 19.16511, "lng": -101.916259
},{
"label": "Las Trojas (Las Trojes)", "lat": 19.096194, "lng": -101.827008
},{
"label": "Cacanguio", "lat": 19.138448, "lng": -101.916876
},{
"label": "El Refugio", "lat": 19.067567, "lng": -101.787697
},{
"label": "Los Sabinos", "lat": 19.062665, "lng": -101.794172
},{
"label": "Leoncitos", "lat": 19.180233, "lng": -101.921123
},{
"label": "Paso Verde", "lat": 19.052619, "lng": -101.850191
},{
"label": "Ichachico", "lat": 19.213821, "lng": -101.872005
},{
"label": "La Cebadilla (Las Pitas)", "lat": 19.119423, "lng": -101.834034
},{
"label": "Rancho Nuevo", "lat": 19.273333, "lng": -101.917222
},{
"label": "El Banco", "lat": 19.093856, "lng": -101.801931
}]