[{
"label": "Peribán", "lat": 20.126848, "lng": -102.539309
},{
"label": "Edeumitem (Las Granjas)", "lat": 20.120171, "lng": -102.581699
},{
"label": "El Sabinito", "lat": 20.175278, "lng": -102.525278
},{
"label": "La Culebra (La Galera)", "lat": 20.183913, "lng": -102.478305
},{
"label": "Las Malvinas (El Salate)", "lat": 20.119526, "lng": -102.596624
},{
"label": "Las Pajitas", "lat": 20.157778, "lng": -102.526944
},{
"label": "El Chacolote", "lat": 20.110413, "lng": -102.543203
},{
"label": "La Higuera", "lat": 20.134631, "lng": -102.473122
},{
"label": "El Paracho", "lat": 20.108155, "lng": -102.522553
},{
"label": "Fray Domínguez (Los Zapotes)", "lat": 20.101667, "lng": -102.564722
},{
"label": "Pajacuarán", "lat": 20.116894, "lng": -102.565513
},{
"label": "La Luz", "lat": 20.152208, "lng": -102.484397
},{
"label": "La Moreña Dos (La Reserva)", "lat": 20.157254, "lng": -102.492778
},{
"label": "Los Quiotes", "lat": 20.135855, "lng": -102.495998
},{
"label": "Paso de Limón (Colonia Amado Nervo)", "lat": 20.120353, "lng": -102.58697
},{
"label": "El Cometa", "lat": 20.097901, "lng": -102.537932
},{
"label": "Los Dolores (La Mulita)", "lat": 20.110833, "lng": -102.485556
},{
"label": "San Gregorio", "lat": 20.194406, "lng": -102.549508
},{
"label": "Tecomatán", "lat": 20.115047, "lng": -102.499021
},{
"label": "Rancho Nuevo", "lat": 20.112249, "lng": -102.550843
},{
"label": "Santa Martha", "lat": 20.1825, "lng": -102.448611
}]