[{
"label": "Irancuátaro", "lat": 19.965833, "lng": -101.746389
},{
"label": "Piritzio (Piricho)", "lat": 19.963765, "lng": -101.833776
},{
"label": "San Vicente", "lat": 19.977319, "lng": -101.721891
},{
"label": "Las Cuatro Milpas", "lat": 19.996262, "lng": -101.730199
},{
"label": "Corucha", "lat": 20.076196, "lng": -101.814749
},{
"label": "San Diego Amécuaro", "lat": 19.982034, "lng": -101.736361
},{
"label": "Colonia del Cerro Prieto (Colonia de Guadalupe)", "lat": 20.068096, "lng": -101.825099
},{
"label": "Aguanato (Aguanuato)", "lat": 19.973846, "lng": -101.831035
},{
"label": "Botello (Altamira)", "lat": 19.979973, "lng": -101.733741
},{
"label": "Curimeo", "lat": 20.02046, "lng": -101.695424
},{
"label": "Ojo de Agua de Señora", "lat": 20.033611, "lng": -101.805556
},{
"label": "La Medina", "lat": 19.990833, "lng": -101.812778
},{
"label": "Estación de Curimeo (El Cerrito)", "lat": 20.039227, "lng": -101.727881
},{
"label": "Orapóndiro", "lat": 19.990716, "lng": -101.751106
},{
"label": "El Ranchito", "lat": 20.023889, "lng": -101.743611
},{
"label": "Los Alvarados", "lat": 20.036307, "lng": -101.750454
},{
"label": "Los Arreguines", "lat": 20.063413, "lng": -101.82208
},{
"label": "La Córdoba", "lat": 19.978813, "lng": -101.716083
},{
"label": "Ex-Hacienda de Curimeo", "lat": 20.033078, "lng": -101.711066
},{
"label": "El Zapote", "lat": 20.059444, "lng": -101.803333
},{
"label": "Ejido de Panindícuaro", "lat": 19.985092, "lng": -101.746231
},{
"label": "Rubalcabo", "lat": 20.016397, "lng": -101.684074
},{
"label": "La Luz", "lat": 19.980649, "lng": -101.654969
},{
"label": "Urequío", "lat": 19.978967, "lng": -101.689122
},{
"label": "El Fresno de la Reforma", "lat": 19.957778, "lng": -101.764167
},{
"label": "Pomácuaro", "lat": 20.023056, "lng": -101.747222
},{
"label": "La Cofradía", "lat": 20.064753, "lng": -101.8284
},{
"label": "La Cañada", "lat": 19.993543, "lng": -101.695323
},{
"label": "Panindícuaro", "lat": 19.983959, "lng": -101.76146
},{
"label": "Ninguno", "lat": 19.977275, "lng": -101.764904
},{
"label": "La Piedad Chiquita", "lat": 19.945539, "lng": -101.765098
},{
"label": "La Vinata", "lat": 19.96591, "lng": -101.749125
},{
"label": "Bella Vista", "lat": 20.000789, "lng": -101.824276
},{
"label": "J. Trinidad Regalado (La Colonia)", "lat": 20.029449, "lng": -101.748668
},{
"label": "Tanguato", "lat": 19.988361, "lng": -101.801474
},{
"label": "Ranchos de Epejan (La Loma)", "lat": 20.099026, "lng": -101.814626
},{
"label": "San Miguel Epejan", "lat": 20.067598, "lng": -101.815428
},{
"label": "La Lomita", "lat": 20.059503, "lng": -101.827057
},{
"label": "Agua Blanca", "lat": 19.993611, "lng": -101.7475
}]