[{
"label": "Rancho de Don Ramiro", "lat": 19.658056, "lng": -102.055069
},{
"label": "Aranza (Arantzán)", "lat": 19.663063, "lng": -102.02464
},{
"label": "El Arenal", "lat": 19.630278, "lng": -102.055833
},{
"label": "Opacuaro [Rancho]", "lat": 19.626626, "lng": -102.068628
},{
"label": "La Criva", "lat": 19.62175, "lng": -102.071249
},{
"label": "Antena de Microondas", "lat": 19.654444, "lng": -102.119167
},{
"label": "La Cuevita (Los Pozos Grandes)", "lat": 19.648657, "lng": -102.034129
},{
"label": "Rancho Ottón Caro", "lat": 19.657308, "lng": -102.05393
},{
"label": "Nurio", "lat": 19.655381, "lng": -102.130467
},{
"label": "Rancho Barriga", "lat": 19.639561, "lng": -102.043105
},{
"label": "Rancho Hernández (Kilómetro Veinte)", "lat": 19.703192, "lng": -101.999917
},{
"label": "Paracho de Verduzco", "lat": 19.647297, "lng": -102.048468
},{
"label": "El Cerrito Pelón", "lat": 19.661396, "lng": -102.0469
},{
"label": "La Primavera [Colonia]", "lat": 19.660239, "lng": -102.119647
},{
"label": "La Cancha", "lat": 19.585425, "lng": -102.007183
},{
"label": "Arato", "lat": 19.639051, "lng": -102.096141
},{
"label": "Rancho Mercado", "lat": 19.659013, "lng": -102.048513
},{
"label": "Escuela Secundaria Técnica Número 69", "lat": 19.652035, "lng": -102.121683
},{
"label": "Pomacuarán (Pomocuarán)", "lat": 19.622356, "lng": -102.103151
},{
"label": "Club Cinegético Morelos [Campo de Tiro]", "lat": 19.605556, "lng": -102.089444
},{
"label": "Villa Imelda", "lat": 19.623874, "lng": -102.067484
},{
"label": "Los Reyes", "lat": 19.639736, "lng": -102.042075
},{
"label": "Ahuirán", "lat": 19.665833, "lng": -102.073056
},{
"label": "Tata Vasco [Parque Comunal]", "lat": 19.63121, "lng": -102.059578
},{
"label": "Cerro del Águila", "lat": 19.596606, "lng": -102.004741
},{
"label": "Santa María Urapicho", "lat": 19.681626, "lng": -102.112424
},{
"label": "Materialista [Colonia]", "lat": 19.630556, "lng": -102.051389
},{
"label": "Ninguno", "lat": 19.63473, "lng": -102.125084
},{
"label": "Rancho Carranza (Quinta Chin)", "lat": 19.659381, "lng": -102.049455
},{
"label": "Rancho de Gonzalo Blas (Rancho Luis Garibay)", "lat": 19.649795, "lng": -102.059205
},{
"label": "Nazaret (Cumbuen)", "lat": 19.655556, "lng": -102.051389
},{
"label": "Rancho de Chano", "lat": 19.623649, "lng": -102.068884
},{
"label": "La Orilla", "lat": 19.586631, "lng": -102.005444
},{
"label": "El Ánima (El Ánima Sola)", "lat": 19.675808, "lng": -102.040268
},{
"label": "Cherán Atzicuirín (Cheranástico)", "lat": 19.698982, "lng": -102.015566
},{
"label": "Rancho Garibay (Guamilpas)", "lat": 19.643288, "lng": -102.059315
},{
"label": "Quinceo", "lat": 19.594099, "lng": -102.000541
},{
"label": "Rancho Jesús Madrigal", "lat": 19.646743, "lng": -102.060905
}]