[{
"label": "Colonia Nueva Puerta de Cadena", "lat": 19.536869, "lng": -101.529735
},{
"label": "Colonia la Cantera", "lat": 19.493939, "lng": -101.511555
},{
"label": "Joconol", "lat": 19.528361, "lng": -101.546123
},{
"label": "El Naranjero", "lat": 19.459435, "lng": -101.611406
},{
"label": "El Manzanillal (Colonia Enrique Ramírez)", "lat": 19.533004, "lng": -101.577141
},{
"label": "La Casa en el Bosque", "lat": 19.533065, "lng": -101.604968
},{
"label": "Hacienda Mariposas", "lat": 19.483525, "lng": -101.59632
},{
"label": "La Noria", "lat": 19.450749, "lng": -101.477275
},{
"label": "Potrero de Gutiérrez", "lat": 19.504322, "lng": -101.637439
},{
"label": "Xorhio", "lat": 19.494378, "lng": -101.504736
},{
"label": "Tzentzénguaro", "lat": 19.534286, "lng": -101.642991
},{
"label": "Astilladora (Rancho Cañón)", "lat": 19.465627, "lng": -101.60699
},{
"label": "Molino del Refugio", "lat": 19.484053, "lng": -101.606782
},{
"label": "Los Tanques", "lat": 19.479523, "lng": -101.601726
},{
"label": "Buenavista", "lat": 19.556626, "lng": -101.538285
},{
"label": "Pueblo Nuevo", "lat": 19.492878, "lng": -101.493661
},{
"label": "Debanand Yoga Ashram", "lat": 19.481139, "lng": -101.586422
},{
"label": "Colonia Vista Bella (Lomas del Peaje)", "lat": 19.489577, "lng": -101.593835
},{
"label": "Joya de los Molinos", "lat": 19.491359, "lng": -101.601581
},{
"label": "El Pozo de San José", "lat": 19.502937, "lng": -101.588084
},{
"label": "Llano de San José", "lat": 19.495919, "lng": -101.590186
},{
"label": "Corazón de Durazno", "lat": 19.475457, "lng": -101.607649
},{
"label": "San Miguel Charahuén", "lat": 19.469091, "lng": -101.701435
},{
"label": "Urandén Carián", "lat": 19.543758, "lng": -101.632528
},{
"label": "Santa María Huiramangaro (San Juan Tumbio)", "lat": 19.512841, "lng": -101.766394
},{
"label": "El Estribo Grande", "lat": 19.512971, "lng": -101.632275
},{
"label": "La Quinta Maravilla (Mesa de San José)", "lat": 19.501593, "lng": -101.592324
},{
"label": "Quinta Atzimba", "lat": 19.533442, "lng": -101.606667
},{
"label": "La Vitela (Los Pozos)", "lat": 19.4942, "lng": -101.562048
},{
"label": "Pátzcuaro", "lat": 19.513598, "lng": -101.610116
},{
"label": "Los Pinos (El Club)", "lat": 19.498379, "lng": -101.592373
},{
"label": "Agua Nueva", "lat": 19.442303, "lng": -101.454134
},{
"label": "La Cofradía (Piedra Rodada)", "lat": 19.408223, "lng": -101.493424
},{
"label": "La Longaniza (Los Pureco)", "lat": 19.506976, "lng": -101.640271
},{
"label": "Colonia Miguel Hidalgo (La Cadenita)", "lat": 19.540745, "lng": -101.539976
},{
"label": "Los Sagrero", "lat": 19.509952, "lng": -101.63432
},{
"label": "Las Palmitas", "lat": 19.436889, "lng": -101.541511
},{
"label": "Isla Yunuén", "lat": 19.599884, "lng": -101.648131
},{
"label": "Curine (Cuartel Dos)", "lat": 19.484748, "lng": -101.519789
},{
"label": "Lomas del Calvario", "lat": 19.51396, "lng": -101.628644
},{
"label": "Santa Juana", "lat": 19.428968, "lng": -101.562816
},{
"label": "Linda Vista", "lat": 19.492174, "lng": -101.554278
},{
"label": "Unguarán (Inguarán)", "lat": 19.472867, "lng": -101.480286
},{
"label": "La Planta", "lat": 19.54653, "lng": -101.62498
},{
"label": "El Refugio", "lat": 19.469413, "lng": -101.491206
},{
"label": "Ranchito los Corrales", "lat": 19.425916, "lng": -101.556852
},{
"label": "Rincón de los Pinos", "lat": 19.501829, "lng": -101.598057
},{
"label": "Urandén de Morales (Urandén Chico)", "lat": 19.543932, "lng": -101.639164
},{
"label": "Zurumútaro (Tzurumútaro)", "lat": 19.546497, "lng": -101.589671
},{
"label": "Rancho de Álvarez", "lat": 19.541389, "lng": -101.500556
},{
"label": "La Mesa", "lat": 19.502755, "lng": -101.59467
},{
"label": "El Tabardillal", "lat": 19.488879, "lng": -101.582642
},{
"label": "La Valenciana", "lat": 19.520704, "lng": -101.621993
},{
"label": "Condémbaro", "lat": 19.466374, "lng": -101.446995
},{
"label": "Libertad [Fraccionamiento]", "lat": 19.530414, "lng": -101.549026
},{
"label": "San Pedrito", "lat": 19.547288, "lng": -101.623788
},{
"label": "Lázaro Cárdenas (San Bartolo Pareo)", "lat": 19.527697, "lng": -101.678977
},{
"label": "La Lagunita", "lat": 19.532728, "lng": -101.523085
},{
"label": "El Mirador", "lat": 19.500651, "lng": -101.595582
},{
"label": "Fraccionamiento Bosques de Pátzcuaro", "lat": 19.529964, "lng": -101.573391
},{
"label": "La Tinaja", "lat": 19.533463, "lng": -101.511239
},{
"label": "Socobio", "lat": 19.532995, "lng": -101.659347
},{
"label": "Finca las Puchungas", "lat": 19.483075, "lng": -101.597556
},{
"label": "Rancho de los Botello", "lat": 19.476894, "lng": -101.58401
},{
"label": "Las Tres G", "lat": 19.492283, "lng": -101.586141
},{
"label": "El Puente", "lat": 19.494594, "lng": -101.595368
},{
"label": "El Zapote", "lat": 19.531118, "lng": -101.488424
},{
"label": "Puerta de Cadena", "lat": 19.53049, "lng": -101.539027
},{
"label": "Llano de la Virgen", "lat": 19.499291, "lng": -101.623446
},{
"label": "Cuanajo", "lat": 19.485789, "lng": -101.508791
},{
"label": "Los Contreras", "lat": 19.508471, "lng": -101.631018
},{
"label": "Camino Real a Tzurumútaro", "lat": 19.52859, "lng": -101.584263
},{
"label": "El Crucero de Chapultepec", "lat": 19.566188, "lng": -101.511973
},{
"label": "Canacucho", "lat": 19.479722, "lng": -101.491944
},{
"label": "La Ciénega", "lat": 19.553889, "lng": -101.553889
},{
"label": "El Pinal", "lat": 19.507417, "lng": -101.574239
},{
"label": "Las Trojes del Durazno", "lat": 19.532324, "lng": -101.564771
},{
"label": "La Pilita", "lat": 19.490262, "lng": -101.604826
},{
"label": "Ajuno", "lat": 19.513044, "lng": -101.723048
},{
"label": "Colonia Primero de Mayo", "lat": 19.528919, "lng": -101.580952
},{
"label": "San José (El Cerrito)", "lat": 19.524601, "lng": -101.62139
},{
"label": "El Durazno", "lat": 19.543073, "lng": -101.555128
},{
"label": "Potrero Viejo", "lat": 19.486518, "lng": -101.594172
},{
"label": "Isla de Tecuena", "lat": 19.586147, "lng": -101.650283
},{
"label": "Yuretzio", "lat": 19.454444, "lng": -101.490556
},{
"label": "Huecorio", "lat": 19.538546, "lng": -101.633085
},{
"label": "Estación de Ajuno (Santa Isabel Ajuno)", "lat": 19.483294, "lng": -101.743355
},{
"label": "La Vitela (Abasto)", "lat": 19.503198, "lng": -101.579363
},{
"label": "El Querendal", "lat": 19.499248, "lng": -101.620259
},{
"label": "Ampliación Buena Vista", "lat": 19.548551, "lng": -101.55018
},{
"label": "Ex-Hacienda la Tinaja", "lat": 19.531217, "lng": -101.522269
},{
"label": "Campestre la Güera (Los Pinos)", "lat": 19.537785, "lng": -101.533543
},{
"label": "Santa Ana Chapitiro", "lat": 19.526111, "lng": -101.6525
},{
"label": "Chapultepec", "lat": 19.565543, "lng": -101.522083
},{
"label": "El Tigre (Rincón de Catácuaro)", "lat": 19.469475, "lng": -101.506278
},{
"label": "San Pedro Pareo", "lat": 19.533206, "lng": -101.67026
},{
"label": "El Aguacate", "lat": 19.52497, "lng": -101.504573
},{
"label": "Colonia Melchor Ocampo (Tercera Ampliación)", "lat": 19.506685, "lng": -101.631559
},{
"label": "Quercus", "lat": 19.486129, "lng": -101.591536
},{
"label": "Urandén de Morelos (Isla Urandén de Morelos)", "lat": 19.542036, "lng": -101.644676
},{
"label": "Ojos de Agua", "lat": 19.431515, "lng": -101.525978
},{
"label": "La Pequeña Tinajita", "lat": 19.528526, "lng": -101.519689
},{
"label": "Janitzio (Isla Janitzio)", "lat": 19.574069, "lng": -101.651883
},{
"label": "Bonilla", "lat": 19.498237, "lng": -101.705029
}]