[{
"label": "La Chicharra", "lat": 20.054984, "lng": -102.762442
},{
"label": "Huanimban", "lat": 20.01, "lng": -102.71827
},{
"label": "El Teniente (La Esperanza)", "lat": 20.066584, "lng": -102.738326
},{
"label": "San Miguel [Fraccionamiento]", "lat": 20.071199, "lng": -102.686828
},{
"label": "El Pasamanos", "lat": 20.050945, "lng": -102.698464
},{
"label": "Lomas del Valle Dos [Fraccionamiento]", "lat": 20.083501, "lng": -102.757465
},{
"label": "Lomas del Pedregal", "lat": 20.006713, "lng": -102.730693
},{
"label": "La Raya", "lat": 20.050556, "lng": -102.859444
},{
"label": "Kilómetro 3.5 Carretera Sahuayo Jiquilpan", "lat": 20.030624, "lng": -102.717786
},{
"label": "Sahuayo [El Balneario]", "lat": 20.086664, "lng": -102.707769
},{
"label": "Las Gallinas (El Poblado de las Gallinas)", "lat": 20.067778, "lng": -102.840833
},{
"label": "La Presa [Fraccionamiento]", "lat": 20.085091, "lng": -102.767109
},{
"label": "Rancho Dorado [Fraccionamiento]", "lat": 20.070937, "lng": -102.736554
},{
"label": "El Añil", "lat": 20.047314, "lng": -102.800027
},{
"label": "Colinas Universidad [Fraccionamiento]", "lat": 20.0165, "lng": -102.730561
},{
"label": "La Flor del Agua (El Molino)", "lat": 20.056151, "lng": -102.752195
},{
"label": "Flamingos", "lat": 20.072107, "lng": -102.681702
},{
"label": "El Monte", "lat": 20.075952, "lng": -102.704159
},{
"label": "Barranca del Soyate", "lat": 20.053858, "lng": -102.791288
},{
"label": "El Moral", "lat": 20.037358, "lng": -102.805748
},{
"label": "Sahuayo de Morelos", "lat": 20.057684, "lng": -102.716797
},{
"label": "La Uva", "lat": 20.05422, "lng": -102.786405
},{
"label": "Loma Dorada [Fraccionamiento]", "lat": 20.073899, "lng": -102.737869
},{
"label": "Rancho Alegre", "lat": 20.085278, "lng": -102.705
},{
"label": "18 de Marzo [Fraccionamiento]", "lat": 20.004963, "lng": -102.720693
},{
"label": "San Antonio", "lat": 20.083936, "lng": -102.704906
},{
"label": "El Aguacate (Barranca del Aguacate)", "lat": 20.056771, "lng": -102.773991
},{
"label": "El Güirio", "lat": 20.051712, "lng": -102.835748
},{
"label": "Colonia Cuauhtémoc", "lat": 20.019279, "lng": -102.723209
},{
"label": "Rincón de San Andrés", "lat": 20.066226, "lng": -102.748688
},{
"label": "La Calzonuda", "lat": 20.086213, "lng": -102.731223
},{
"label": "Ninguno", "lat": 20.055819, "lng": -102.739423
},{
"label": "La Barranca (La Barranca de la Gloria)", "lat": 20.044167, "lng": -102.803333
},{
"label": "La Yerbabuena", "lat": 20.032546, "lng": -102.721903
},{
"label": "Tuna Manza", "lat": 20.078534, "lng": -102.772279
},{
"label": "El Mogote de Victoria", "lat": 20.081969, "lng": -102.815804
},{
"label": "Las Gallinas (La Hacienda)", "lat": 20.072799, "lng": -102.842818
},{
"label": "Sin Agua", "lat": 20.055191, "lng": -102.828555
},{
"label": "La Cabaña", "lat": 20.069026, "lng": -102.730204
},{
"label": "Potrero Higuerillas de Margarito", "lat": 20.090157, "lng": -102.710711
},{
"label": "Lomas del Bosque [Fraccionamiento]", "lat": 20.081454, "lng": -102.767939
},{
"label": "Colonia Independencia (Coyacho)", "lat": 20.005205, "lng": -102.723925
},{
"label": "La Casa de Campo", "lat": 20.081919, "lng": -102.702222
}]