[{
"label": "Segunda Manzana de Chincua", "lat": 19.781667, "lng": -100.296944
},{
"label": "Los Sauces", "lat": 19.753611, "lng": -100.379444
},{
"label": "San José Soto", "lat": 19.781944, "lng": -100.334722
},{
"label": "La Capilla de Ocotlán", "lat": 19.734444, "lng": -100.295278
},{
"label": "Cerro Pelón", "lat": 19.765263, "lng": -100.412462
},{
"label": "La Hortaliza", "lat": 19.731708, "lng": -100.363122
},{
"label": "Santa Ana", "lat": 19.755556, "lng": -100.298056
},{
"label": "Cuartel Tercero (Tupátaro)", "lat": 19.798569, "lng": -100.308617
},{
"label": "Cerro del Tecomate", "lat": 19.778539, "lng": -100.316316
},{
"label": "El Calabozo Segunda Fracción", "lat": 19.766389, "lng": -100.347778
},{
"label": "Segunda Manzana de Carindapaz", "lat": 19.724167, "lng": -100.345278
},{
"label": "La Toma de Agua", "lat": 19.732666, "lng": -100.286378
},{
"label": "La Lagunita", "lat": 19.736111, "lng": -100.2975
},{
"label": "El Mayorazgo", "lat": 19.71685, "lng": -100.360208
},{
"label": "San Nicolás Tarimoro", "lat": 19.740556, "lng": -100.399167
},{
"label": "El Calabocito", "lat": 19.775711, "lng": -100.327103
},{
"label": "Hacienda de San Antonio (Segunda de San Antonio)", "lat": 19.726389, "lng": -100.341389
},{
"label": "San Juan Huerta", "lat": 19.796257, "lng": -100.406014
},{
"label": "Rosa Azul", "lat": 19.727488, "lng": -100.260906
},{
"label": "San Rafael (El Tote) [Rancho]", "lat": 19.724676, "lng": -100.364831
},{
"label": "Emiliano Zapata (La Cuajada)", "lat": 19.754722, "lng": -100.416667
},{
"label": "Las Polvillas", "lat": 19.744444, "lng": -100.276667
},{
"label": "Chamangareo", "lat": 19.713786, "lng": -100.3292
},{
"label": "San Pedro", "lat": 19.811944, "lng": -100.373056
},{
"label": "Tarimoro Villamar", "lat": 19.758381, "lng": -100.437462
},{
"label": "Manzana de Carindapaz Uno", "lat": 19.743884, "lng": -100.374551
},{
"label": "El Cuartel Quinto (Colegio del Cuartel)", "lat": 19.790556, "lng": -100.295278
},{
"label": "El Tejocote", "lat": 19.735864, "lng": -100.317861
},{
"label": "Los Membrillos", "lat": 19.721697, "lng": -100.338514
},{
"label": "Los Ailes (Río de los Ailes)", "lat": 19.743566, "lng": -100.326439
},{
"label": "Tarimoro", "lat": 19.741944, "lng": -100.426111
},{
"label": "La Palma", "lat": 19.712697, "lng": -100.340833
},{
"label": "Santa María del Pueblito (El Monasterio) [Hermitorio Casa de Retiro]", "lat": 19.710922, "lng": -100.3271
},{
"label": "El Malacate", "lat": 19.716207, "lng": -100.275103
},{
"label": "El Tejón", "lat": 19.697547, "lng": -100.347425
},{
"label": "La Ortiga", "lat": 19.707472, "lng": -100.334833
},{
"label": "Guadalupe (Rancho de Guadalupe)", "lat": 19.725031, "lng": -100.357728
},{
"label": "Cambaye", "lat": 19.733944, "lng": -100.335014
},{
"label": "Pichardo Peña Blanca", "lat": 19.753611, "lng": -100.268889
},{
"label": "Las Cruces", "lat": 19.748081, "lng": -100.319061
},{
"label": "José María Morelos (Manzana Guadalupe)", "lat": 19.790343, "lng": -100.368348
},{
"label": "Llano del Lobo", "lat": 19.718739, "lng": -100.348
},{
"label": "San Antonio Primera Fracción", "lat": 19.745218, "lng": -100.356699
},{
"label": "El Puerto", "lat": 19.756737, "lng": -100.393087
},{
"label": "La Torre", "lat": 19.732121, "lng": -100.312708
},{
"label": "Ex-Hacienda de Soto", "lat": 19.781318, "lng": -100.34379
},{
"label": "El Calabozo Primera Fracción", "lat": 19.770223, "lng": -100.343314
},{
"label": "Canedo", "lat": 19.804853, "lng": -100.393788
},{
"label": "Chincua (Colonia Emiliano Zapata)", "lat": 19.757652, "lng": -100.2853
},{
"label": "El Resumidero (El Silo)", "lat": 19.782974, "lng": -100.363823
},{
"label": "La Loma", "lat": 19.746389, "lng": -100.285833
},{
"label": "El Salitrillo", "lat": 19.756667, "lng": -100.305
},{
"label": "Peña Blanca", "lat": 19.743333, "lng": -100.271944
},{
"label": "San Rafael", "lat": 19.76997, "lng": -100.372896
},{
"label": "Senguio", "lat": 19.73323, "lng": -100.352378
},{
"label": "Acebuches", "lat": 19.808333, "lng": -100.405556
},{
"label": "Tupátaro", "lat": 19.813778, "lng": -100.307354
},{
"label": "El Huérfano (Emiliano Zapata)", "lat": 19.774444, "lng": -100.304444
},{
"label": "Milpillas", "lat": 19.793611, "lng": -100.318889
},{
"label": "Guadalupe Carindapaz", "lat": 19.737222, "lng": -100.368611
},{
"label": "Cachivi", "lat": 19.803305, "lng": -100.355536
},{
"label": "Senguio [Parador Turístico]", "lat": 19.718158, "lng": -100.337139
}]