[{
"label": "Bodega Uno (Rancho de la Gloria de Camarena)", "lat": 19.890025, "lng": -102.19768
},{
"label": "Colonia Ejidal", "lat": 19.870399, "lng": -102.220139
},{
"label": "La Lomita [Colonia]", "lat": 19.935424, "lng": -102.251904
},{
"label": "Los Longares", "lat": 19.799641, "lng": -102.289056
},{
"label": "La Rojeña (San Pastor)", "lat": 19.925303, "lng": -102.243158
},{
"label": "Colonia Verónica López González", "lat": 19.903708, "lng": -102.183339
},{
"label": "La Raya (El Chocolate)", "lat": 19.852096, "lng": -102.209668
},{
"label": "Las Cañas", "lat": 19.795784, "lng": -102.375778
},{
"label": "Colonia Junguarán", "lat": 19.879984, "lng": -102.220263
},{
"label": "Camécuaro Río Adentro (Camecuarillo)", "lat": 19.905671, "lng": -102.204281
},{
"label": "Pelillo de López [Rancho]", "lat": 19.889136, "lng": -102.192595
},{
"label": "Las Granjas", "lat": 19.848662, "lng": -102.347545
},{
"label": "Los Vaca", "lat": 19.858507, "lng": -102.206438
},{
"label": "Los Lobos", "lat": 19.868054, "lng": -102.356009
},{
"label": "San Antonio Ocampo", "lat": 19.934968, "lng": -102.138346
},{
"label": "El Canindo", "lat": 19.889972, "lng": -102.178744
},{
"label": "Junguaran [Establo]", "lat": 19.893056, "lng": -102.221944
},{
"label": "El Pedregal", "lat": 19.900959, "lng": -102.217265
},{
"label": "Guarachanillo (Guarachanillo de Arriba)", "lat": 19.825031, "lng": -102.376795
},{
"label": "Villas de Camécuaro", "lat": 19.898918, "lng": -102.211201
},{
"label": "Tepacho", "lat": 19.824136, "lng": -102.244906
},{
"label": "Colonia Emiliano Zapata", "lat": 19.946261, "lng": -102.135333
},{
"label": "Colonia José Guadalupe M.", "lat": 19.904303, "lng": -102.177441
},{
"label": "Buena Vista", "lat": 19.931203, "lng": -102.169506
},{
"label": "El Pantano", "lat": 19.893601, "lng": -102.194817
},{
"label": "Las Ordeñas", "lat": 19.862167, "lng": -102.394605
},{
"label": "El Charco (San Isidro)", "lat": 19.8775, "lng": -102.207222
},{
"label": "Camécuaro (Lago de Camécuaro) [Parque Nacional]", "lat": 19.901649, "lng": -102.209168
},{
"label": "Gutiérrez [Colonia]", "lat": 19.879248, "lng": -102.200282
},{
"label": "Valle de Guadalupe", "lat": 19.911497, "lng": -102.139579
},{
"label": "Tierras Blancas", "lat": 19.944716, "lng": -102.160403
},{
"label": "Gómez Farías", "lat": 19.920026, "lng": -102.162528
},{
"label": "Santa Anita [Grupo Solidario]", "lat": 19.877969, "lng": -102.216297
},{
"label": "La Cunta", "lat": 19.796475, "lng": -102.292405
},{
"label": "Rancho del Gringo", "lat": 19.890556, "lng": -102.224444
},{
"label": "El Paraíso (El Edén)[Colonia]", "lat": 19.915409, "lng": -102.22248
},{
"label": "Central Regional de Abastos", "lat": 19.935353, "lng": -102.239875
},{
"label": "La Guayabera (El Varal)", "lat": 19.941704, "lng": -102.261014
},{
"label": "Ninguno", "lat": 19.888987, "lng": -102.198596
},{
"label": "La Cuchilla", "lat": 19.93856, "lng": -102.257954
},{
"label": "Rancho del Diablo", "lat": 19.887454, "lng": -102.233625
},{
"label": "Rincón del Tepetate", "lat": 19.938201, "lng": -102.148418
},{
"label": "General Dámaso Cárdenas (Páramo)", "lat": 19.846609, "lng": -102.281018
},{
"label": "Tangancícuaro de Arista", "lat": 19.888234, "lng": -102.208453
},{
"label": "Aranza", "lat": 19.817849, "lng": -102.358664
},{
"label": "Las Adjuntas", "lat": 19.913026, "lng": -102.203402
},{
"label": "La Sabinera", "lat": 19.941449, "lng": -102.262001
},{
"label": "Vista Hermosa", "lat": 19.807533, "lng": -102.296033
},{
"label": "Duarte [Rancho]", "lat": 19.879464, "lng": -102.206177
},{
"label": "La Florida", "lat": 19.884321, "lng": -102.228349
},{
"label": "La Palma", "lat": 19.854868, "lng": -102.189929
},{
"label": "La Chingada", "lat": 19.947961, "lng": -102.25817
},{
"label": "Etúcuaro", "lat": 19.892036, "lng": -102.131081
},{
"label": "Las Tejerías", "lat": 19.874091, "lng": -102.196965
},{
"label": "Prados de Zamora", "lat": 19.945722, "lng": -102.238889
},{
"label": "Potrero la Capilla", "lat": 19.872798, "lng": -102.219208
},{
"label": "Valle Verde [Fraccionamiento]", "lat": 19.901127, "lng": -102.229027
},{
"label": "Adolfo Ruiz Cortinez (Capricho)", "lat": 19.835411, "lng": -102.220698
},{
"label": "Cuitzillo", "lat": 19.870516, "lng": -102.204144
},{
"label": "Luis Méndez [Establo]", "lat": 19.89143, "lng": -102.221093
},{
"label": "Tengüecho", "lat": 19.837662, "lng": -102.3427
},{
"label": "Patamban (Patambam)", "lat": 19.80437, "lng": -102.288084
},{
"label": "El Puentecito", "lat": 19.906673, "lng": -102.21145
},{
"label": "La Vega", "lat": 19.861798, "lng": -102.188461
},{
"label": "Noroto (Loma de Noroto)", "lat": 19.859904, "lng": -102.17151
},{
"label": "Las Lomas (El Mirador)", "lat": 19.866791, "lng": -102.240042
},{
"label": "La Golondrina (Tucusguansune)", "lat": 19.804603, "lng": -102.245126
},{
"label": "Francisco J. Mújica (La Guaracha)", "lat": 19.913494, "lng": -102.163754
},{
"label": "San Isidro [Bodega]", "lat": 19.879167, "lng": -102.210833
},{
"label": "Tres Marías [Rancho]", "lat": 19.857169, "lng": -102.213081
},{
"label": "Llano de Pejo", "lat": 19.854457, "lng": -102.201609
},{
"label": "San José de Gracia (San José Ocumicho)", "lat": 19.822202, "lng": -102.226254
},{
"label": "Las Quintas", "lat": 19.940322, "lng": -102.259413
},{
"label": "El Coyote", "lat": 19.916581, "lng": -102.146734
},{
"label": "El Molino Viejo (La Huarucha)", "lat": 19.904699, "lng": -102.191259
},{
"label": "Loma Verde [Vivero]", "lat": 19.944321, "lng": -102.258869
},{
"label": "Las Malvinas (Antorcha)[Colonia]", "lat": 19.879501, "lng": -102.224693
},{
"label": "El Sabino", "lat": 19.859402, "lng": -102.20079
},{
"label": "El Nuevo Sauz de Guzmán", "lat": 19.879444, "lng": -102.390266
},{
"label": "La García", "lat": 19.832003, "lng": -102.33957
},{
"label": "Sauz de Guzmán", "lat": 19.858984, "lng": -102.364706
},{
"label": "Pallares", "lat": 19.873217, "lng": -102.196161
},{
"label": "La Parrilla", "lat": 19.894311, "lng": -102.198765
},{
"label": "El Encanto", "lat": 19.938611, "lng": -102.238889
}]