[{
"label": "Tarimoro", "lat": 20.239599, "lng": -102.335676
},{
"label": "La Laguna (Colonia Santa Clara)", "lat": 20.274731, "lng": -102.387039
},{
"label": "JEHERSA [Hortícola]", "lat": 20.343346, "lng": -102.308246
},{
"label": "El Campeño", "lat": 20.287778, "lng": -102.340556
},{
"label": "El Calvario (El Barreno)", "lat": 20.296996, "lng": -102.327246
},{
"label": "Los Charcos", "lat": 20.265775, "lng": -102.407304
},{
"label": "Tinaja de Vargas", "lat": 20.208453, "lng": -102.294287
},{
"label": "La Presa", "lat": 20.278046, "lng": -102.286096
},{
"label": "Las Tortugas", "lat": 20.263067, "lng": -102.384003
},{
"label": "Las Cieneguitas", "lat": 20.247673, "lng": -102.24378
},{
"label": "El Sicuicho", "lat": 20.331668, "lng": -102.357959
},{
"label": "Colonia Ejidal Agua Gruesa", "lat": 20.282708, "lng": -102.314669
},{
"label": "El Nopal", "lat": 20.30311, "lng": -102.381638
},{
"label": "Villanueva (Villa Nueva)", "lat": 20.323243, "lng": -102.356988
},{
"label": "Tanhuato de Guerrero", "lat": 20.283811, "lng": -102.327641
},{
"label": "San José de Vargas", "lat": 20.200327, "lng": -102.281699
},{
"label": "Los Tepetates", "lat": 20.291565, "lng": -102.368572
},{
"label": "Las Palmas (San Isidro de Ocampo)", "lat": 20.345311, "lng": -102.322675
},{
"label": "La Frontera", "lat": 20.345275, "lng": -102.327856
},{
"label": "Rancho Nuevo", "lat": 20.279566, "lng": -102.368948
},{
"label": "Rancho Manuel Guillén (Los Aceites)", "lat": 20.273782, "lng": -102.380808
},{
"label": "El Venado", "lat": 20.284351, "lng": -102.360566
},{
"label": "Los Mogotes (Los Tres Valles)", "lat": 20.304585, "lng": -102.330946
}]