[{
"label": "México 86", "lat": 20.178058, "lng": -102.002858
},{
"label": "Santa Bárbara", "lat": 20.194714, "lng": -102.016925
},{
"label": "Zipaquío", "lat": 20.219113, "lng": -102.066476
},{
"label": "La Peña del Fraile", "lat": 20.144015, "lng": -102.022086
},{
"label": "Llano los Salgado", "lat": 20.168634, "lng": -102.010299
},{
"label": "Los Nogales", "lat": 20.183959, "lng": -101.995868
},{
"label": "El Pedregal [Potrero los Orozcos]", "lat": 20.173972, "lng": -102.011447
},{
"label": "Las Golondrinas", "lat": 20.161741, "lng": -101.984259
},{
"label": "Jalapa", "lat": 20.172434, "lng": -102.030158
},{
"label": "Los Tabacos", "lat": 20.167806, "lng": -102.006761
},{
"label": "Rancho Delcia", "lat": 20.142828, "lng": -101.969138
},{
"label": "El Ojo de Agua del Sauz", "lat": 20.140963, "lng": -101.984659
},{
"label": "El Tigre (El Refugio)", "lat": 20.11995, "lng": -101.983004
},{
"label": "Ninguno", "lat": 20.231335, "lng": -101.981248
},{
"label": "Zináparo", "lat": 20.173189, "lng": -101.998774
},{
"label": "El Carrizo", "lat": 20.218134, "lng": -101.990238
},{
"label": "El Salvador", "lat": 20.150459, "lng": -101.985013
},{
"label": "La Soledad", "lat": 20.125991, "lng": -101.971641
},{
"label": "Santa Eduwiges (La Hacienda)", "lat": 20.199018, "lng": -102.005028
},{
"label": "La Pajita", "lat": 20.13019, "lng": -101.969008
}]