[{
"label": "La Lupita", "lat": 20.280045, "lng": -89.345863
},{
"label": "San Víctor", "lat": 20.250893, "lng": -89.339566
},{
"label": "La Ceiba", "lat": 20.280242, "lng": -89.365125
},{
"label": "Ox-Ac II", "lat": 20.269495, "lng": -89.369085
},{
"label": "San Diego", "lat": 20.255979, "lng": -89.362509
},{
"label": "Técnica Treinta y Uno [Escuela]", "lat": 20.272989, "lng": -89.331919
},{
"label": "San Anastacio", "lat": 20.2392, "lng": -89.343824
},{
"label": "Nabanché", "lat": 20.211931, "lng": -89.368625
},{
"label": "San Nicolás", "lat": 20.285779, "lng": -89.335698
},{
"label": "Santa Rita", "lat": 20.280549, "lng": -89.344773
},{
"label": "Buenavista", "lat": 20.218291, "lng": -89.371954
},{
"label": "Luis Echeverría Álvarez", "lat": 20.276796, "lng": -89.339108
},{
"label": "San Pablo Tres", "lat": 20.270889, "lng": -89.320086
},{
"label": "Plan Chac Pozo Cuatro", "lat": 20.25083, "lng": -89.317927
},{
"label": "Ox-Ac III", "lat": 20.272538, "lng": -89.362263
},{
"label": "Plan Chac Pozo Tres", "lat": 20.248463, "lng": -89.323739
},{
"label": "San Bernardino", "lat": 20.306565, "lng": -89.346854
},{
"label": "Plan Chac Pozo Cinco", "lat": 20.258113, "lng": -89.314377
},{
"label": "Santa Teresa", "lat": 20.25854, "lng": -89.357751
},{
"label": "San Ausencio", "lat": 20.297851, "lng": -89.343496
},{
"label": "Morelos", "lat": 20.275984, "lng": -89.360745
},{
"label": "San Gabriel", "lat": 20.276644, "lng": -89.342311
},{
"label": "Cinco de Mayo", "lat": 20.27734, "lng": -89.351462
},{
"label": "Plan Chac Uno y Dos", "lat": 20.241553, "lng": -89.329129
},{
"label": "Akil", "lat": 20.267053, "lng": -89.346826
},{
"label": "Ox-Ac IV", "lat": 20.260778, "lng": -89.3676
},{
"label": "San Esteban", "lat": 20.279154, "lng": -89.337892
},{
"label": "Juguera de Akil [Procesadora de Cítricos]", "lat": 20.287608, "lng": -89.382995
},{
"label": "Benito Juárez", "lat": 20.229443, "lng": -89.38074
},{
"label": "San Fernando", "lat": 20.31562, "lng": -89.358231
},{
"label": "Santa Cruz", "lat": 20.287519, "lng": -89.347024
},{
"label": "San Román", "lat": 20.215118, "lng": -89.375316
},{
"label": "San Bernardo", "lat": 20.243414, "lng": -89.353184
}]