[{
"label": "Chacanteil", "lat": 20.512692, "lng": -89.050438
},{
"label": "Campi [Granja]", "lat": 20.431944, "lng": -89.166917
},{
"label": "Chichicab", "lat": 20.410026, "lng": -89.077077
},{
"label": "Jesús María", "lat": 20.461206, "lng": -89.098708
},{
"label": "Chacmultún", "lat": 20.370087, "lng": -89.001997
},{
"label": "Xauchel", "lat": 20.410652, "lng": -89.160224
},{
"label": "Yuyumal", "lat": 20.525208, "lng": -89.052767
},{
"label": "Samaria", "lat": 20.403789, "lng": -89.047737
},{
"label": "Kulkaba [Granja]", "lat": 20.40979, "lng": -88.984218
},{
"label": "San Miguel", "lat": 20.411969, "lng": -89.152214
},{
"label": "Sahcadzonot", "lat": 20.517881, "lng": -89.057097
},{
"label": "Kocholá", "lat": 20.455808, "lng": -89.081286
},{
"label": "Huntulchac", "lat": 20.335472, "lng": -88.99569
},{
"label": "San Isidro", "lat": 20.462902, "lng": -89.120041
},{
"label": "Sambulá", "lat": 20.464025, "lng": -89.051371
},{
"label": "Nenelá", "lat": 20.349726, "lng": -89.020437
},{
"label": "Chac-Dzan", "lat": 20.427883, "lng": -89.022889
},{
"label": "Cantamayec", "lat": 20.470556, "lng": -89.080944
},{
"label": "Polkeil", "lat": 20.330223, "lng": -88.973062
},{
"label": "San Pedro", "lat": 20.405187, "lng": -89.026609
},{
"label": "Xnicteil", "lat": 20.492796, "lng": -89.089806
},{
"label": "Huntochac", "lat": 20.361654, "lng": -89.053203
},{
"label": "San Pablo Holcá", "lat": 20.394378, "lng": -89.065101
},{
"label": "Chan Chuchub", "lat": 20.357707, "lng": -89.075854
},{
"label": "San Francisco Hu-Kal", "lat": 20.455864, "lng": -89.172258
},{
"label": "Yaxché", "lat": 20.38979, "lng": -89.006196
},{
"label": "Santa Cruz", "lat": 20.408905, "lng": -89.130399
},{
"label": "Santa Elena", "lat": 20.395362, "lng": -89.044753
},{
"label": "Tab-Ek", "lat": 20.451618, "lng": -89.142922
},{
"label": "Dolores", "lat": 20.447793, "lng": -89.14204
},{
"label": "Sinitún", "lat": 20.386015, "lng": -89.070909
},{
"label": "San Miguel Yokdzonot", "lat": 20.37684, "lng": -88.993951
},{
"label": "San Martín", "lat": 20.41222, "lng": -89.058718
},{
"label": "Kankabchén", "lat": 20.361719, "lng": -88.991867
},{
"label": "Tzutzil", "lat": 20.45873, "lng": -89.033118
},{
"label": "Husumal", "lat": 20.493992, "lng": -89.130928
},{
"label": "Chimay", "lat": 20.499744, "lng": -89.055038
},{
"label": "San Juan", "lat": 20.401079, "lng": -89.016189
},{
"label": "Tixcacal Dzonot", "lat": 20.482558, "lng": -89.023777
},{
"label": "Santa Catalina", "lat": 20.339848, "lng": -89.023837
},{
"label": "San Antonio", "lat": 20.478234, "lng": -89.097781
},{
"label": "Dzidzilché", "lat": 20.49068, "lng": -89.06074
},{
"label": "Santa Trinidad", "lat": 20.446639, "lng": -89.1528
},{
"label": "La Luz", "lat": 20.462015, "lng": -89.123168
},{
"label": "San José Tzab", "lat": 20.451623, "lng": -89.000162
},{
"label": "San Esteban", "lat": 20.409163, "lng": -89.135694
},{
"label": "San Ignacio", "lat": 20.464729, "lng": -89.074773
},{
"label": "San Antonio Cal-Ulmi", "lat": 20.377449, "lng": -89.070901
},{
"label": "Cruz Yah", "lat": 20.365506, "lng": -88.961891
},{
"label": "San Juan Chuc", "lat": 20.349032, "lng": -88.975269
},{
"label": "Huan-Ká", "lat": 20.423939, "lng": -89.140098
},{
"label": "San Pedro Hu-Kal", "lat": 20.455855, "lng": -89.177515
},{
"label": "Cholul", "lat": 20.442622, "lng": -89.154461
},{
"label": "Tixcacal Pérez", "lat": 20.512752, "lng": -89.102654
},{
"label": "Subiná", "lat": 20.465882, "lng": -89.157092
}]