[{
"label": "X-Canabail", "lat": 20.608656, "lng": -87.992114
},{
"label": "Pisté (Nohoch Pisté)", "lat": 20.566163, "lng": -87.856559
},{
"label": "Xcauich", "lat": 20.685645, "lng": -87.791601
},{
"label": "San Alfonso", "lat": 20.943439, "lng": -87.817909
},{
"label": "X-Cocom", "lat": 20.694838, "lng": -87.882802
},{
"label": "Kochilá", "lat": 20.599192, "lng": -87.869519
},{
"label": "Coxlei (Kochila)", "lat": 20.614174, "lng": -87.861273
},{
"label": "Santa Martha", "lat": 20.655972, "lng": -87.96088
},{
"label": "Santa María Copoil", "lat": 20.541904, "lng": -87.889835
},{
"label": "San José Xcuch", "lat": 20.774116, "lng": -87.995118
},{
"label": "Kunché", "lat": 20.735429, "lng": -87.926788
},{
"label": "Chumpich", "lat": 20.830863, "lng": -87.840405
},{
"label": "San Luis", "lat": 20.601751, "lng": -87.969439
},{
"label": "San José X-Can", "lat": 20.914803, "lng": -87.680642
},{
"label": "Ramonal", "lat": 20.76381, "lng": -87.805353
},{
"label": "Kixmó", "lat": 20.619528, "lng": -87.924518
},{
"label": "X-Treinta y Cinco", "lat": 20.965065, "lng": -87.663194
},{
"label": "Xalaú (X-Alau)", "lat": 20.677379, "lng": -88.006424
},{
"label": "San Agustín", "lat": 20.708235, "lng": -87.850305
},{
"label": "Xuxcab", "lat": 20.654606, "lng": -88.020419
},{
"label": "San Román", "lat": 20.957126, "lng": -87.730241
},{
"label": "Chechmil", "lat": 20.772653, "lng": -87.96436
},{
"label": "Xuneb", "lat": 20.699183, "lng": -88.002113
},{
"label": "Yaxchén", "lat": 20.706509, "lng": -88.019603
},{
"label": "Nakuché", "lat": 20.610308, "lng": -87.974631
},{
"label": "Palo Verde", "lat": 20.790153, "lng": -87.860138
},{
"label": "Cruzché", "lat": 20.635122, "lng": -87.864626
},{
"label": "Pénjamo", "lat": 20.658942, "lng": -87.968865
},{
"label": "Piedra Blanca", "lat": 20.548698, "lng": -87.88776
},{
"label": "Juan Diego", "lat": 20.653699, "lng": -87.921399
},{
"label": "Cocoyol", "lat": 20.79189, "lng": -87.75139
},{
"label": "San Alfonso Chile Seco", "lat": 20.933536, "lng": -87.814603
},{
"label": "Uicab", "lat": 20.717213, "lng": -87.955957
},{
"label": "Santa Clara", "lat": 20.772571, "lng": -87.879202
},{
"label": "San Severo", "lat": 20.767289, "lng": -87.835391
},{
"label": "Santa Librada", "lat": 20.768189, "lng": -87.874028
},{
"label": "X-Can", "lat": 20.858001, "lng": -87.668874
},{
"label": "Chan Santa Rosa (Chan Akachén)", "lat": 20.674918, "lng": -87.978183
},{
"label": "Melesio Tah Tah", "lat": 20.638652, "lng": -87.927402
},{
"label": "Kilómetro Catorce", "lat": 20.897781, "lng": -87.763733
},{
"label": "X-Poop", "lat": 20.659076, "lng": -87.954316
},{
"label": "X-Catil", "lat": 20.67722, "lng": -87.95054
},{
"label": "X-Catíl", "lat": 20.600778, "lng": -87.958994
},{
"label": "Yax Hom", "lat": 20.694892, "lng": -87.950727
},{
"label": "San Isidro Dos", "lat": 20.587042, "lng": -87.846744
},{
"label": "Cuernavaca (X-Haas)", "lat": 20.649021, "lng": -87.846001
},{
"label": "Papagayo", "lat": 20.907318, "lng": -87.779649
},{
"label": "Yaxdzonot", "lat": 20.861192, "lng": -87.790553
},{
"label": "Chunjujub", "lat": 20.795463, "lng": -87.859426
},{
"label": "Tixcancal", "lat": 20.7055, "lng": -87.903029
},{
"label": "X-Texas", "lat": 20.874708, "lng": -87.76401
},{
"label": "Dothilá", "lat": 20.781664, "lng": -87.956861
},{
"label": "Santa María Panyo (Santa María Panorama)", "lat": 20.941152, "lng": -87.809106
},{
"label": "Xmabén de Catzín", "lat": 20.801841, "lng": -87.857945
},{
"label": "Hoteoch", "lat": 20.694357, "lng": -87.816622
},{
"label": "Pabalam", "lat": 20.736958, "lng": -87.829317
},{
"label": "Kulinché", "lat": 20.787581, "lng": -87.89886
},{
"label": "X-Jujilchén", "lat": 20.671163, "lng": -88.000334
},{
"label": "San José (San José Balam)", "lat": 20.577641, "lng": -87.858938
},{
"label": "San Miguel", "lat": 20.658272, "lng": -87.948506
},{
"label": "Yunchén", "lat": 20.730474, "lng": -87.967714
},{
"label": "X-Cotmay", "lat": 20.927281, "lng": -87.7688
},{
"label": "Tulín", "lat": 20.659808, "lng": -88.008498
},{
"label": "Xtabil", "lat": 20.642223, "lng": -87.99304
},{
"label": "Bethel", "lat": 20.638124, "lng": -87.912528
},{
"label": "Chen X-Pil", "lat": 20.778056, "lng": -87.875
},{
"label": "Poolyuc", "lat": 20.607756, "lng": -87.86893
},{
"label": "Chan Kom", "lat": 20.663307, "lng": -87.989455
},{
"label": "San Pastor", "lat": 20.725016, "lng": -87.989211
},{
"label": "Tusick", "lat": 20.735815, "lng": -87.845515
},{
"label": "Nueva Italia", "lat": 20.55515, "lng": -87.895166
},{
"label": "Chacté", "lat": 20.792783, "lng": -87.857495
},{
"label": "Kondzonot", "lat": 20.874626, "lng": -87.782101
},{
"label": "Santa María", "lat": 20.533337, "lng": -87.895524
},{
"label": "Chenchén", "lat": 20.752318, "lng": -87.94661
},{
"label": "Cutzán", "lat": 20.827681, "lng": -87.815224
},{
"label": "El Polvorín", "lat": 20.803793, "lng": -87.914275
},{
"label": "Blanca Flor", "lat": 20.782238, "lng": -87.888011
},{
"label": "Chachadzonot", "lat": 20.803643, "lng": -87.781685
},{
"label": "Hoxcab", "lat": 20.806897, "lng": -87.827783
},{
"label": "San Federico", "lat": 20.592582, "lng": -87.905031
},{
"label": "San Pedro Chemax", "lat": 20.944767, "lng": -87.787913
},{
"label": "X-Mab", "lat": 20.758131, "lng": -87.866603
},{
"label": "Lirios", "lat": 20.700069, "lng": -87.944612
},{
"label": "Chemax", "lat": 20.655016, "lng": -87.937328
},{
"label": "San José Timas", "lat": 20.725006, "lng": -87.984701
},{
"label": "Dzitnup", "lat": 20.562053, "lng": -87.886214
},{
"label": "Poxil Número Dos", "lat": 20.602953, "lng": -87.909161
},{
"label": "Jujilchén", "lat": 20.638566, "lng": -87.840144
},{
"label": "Yokdzadz", "lat": 20.887639, "lng": -87.739769
},{
"label": "Santo Domingo", "lat": 20.931193, "lng": -87.778489
},{
"label": "Canabé", "lat": 20.616809, "lng": -87.879896
},{
"label": "San Antonio Texas", "lat": 20.872582, "lng": -87.763428
},{
"label": "Dzuca", "lat": 20.678403, "lng": -87.889201
},{
"label": "San Francisco", "lat": 20.58754, "lng": -87.903371
},{
"label": "Kumdzonot", "lat": 20.520854, "lng": -87.913847
},{
"label": "Grano de Oro", "lat": 20.833887, "lng": -87.936635
},{
"label": "Konsahcab", "lat": 20.599968, "lng": -87.936066
},{
"label": "Primitivo Gómez López", "lat": 20.859588, "lng": -87.657606
},{
"label": "Kantó", "lat": 20.704798, "lng": -87.998246
},{
"label": "X-Thobil", "lat": 20.514902, "lng": -87.93072
},{
"label": "Yodzonot", "lat": 20.766326, "lng": -87.895367
},{
"label": "Yaaxdzonot", "lat": 20.80924, "lng": -87.915568
},{
"label": "Santa Argelia", "lat": 20.672593, "lng": -87.941456
},{
"label": "X-Gota", "lat": 20.643031, "lng": -88.013315
},{
"label": "San Diego", "lat": 20.781818, "lng": -87.771968
},{
"label": "San Isidro (Yoh-Actún)", "lat": 20.716665, "lng": -87.757086
},{
"label": "Actunxoch", "lat": 20.82103, "lng": -87.94648
},{
"label": "San Juan Chen", "lat": 20.926178, "lng": -87.733085
},{
"label": "Buenavista", "lat": 20.790963, "lng": -87.712232
},{
"label": "San Juan Texas (X-Haas)", "lat": 20.649656, "lng": -87.84535
},{
"label": "Kuxeb", "lat": 20.856898, "lng": -87.870416
},{
"label": "San Isidro", "lat": 20.80624, "lng": -87.754248
},{
"label": "Texas Dos", "lat": 20.878323, "lng": -87.763232
},{
"label": "Koopchén", "lat": 20.703663, "lng": -87.894132
},{
"label": "Santa Teresa", "lat": 20.849873, "lng": -87.7646
},{
"label": "Noh-Pich", "lat": 20.57695, "lng": -87.878173
},{
"label": "Xkilim", "lat": 20.648918, "lng": -87.89598
},{
"label": "San Lorenzo", "lat": 20.64682, "lng": -88.027654
},{
"label": "Dzinic Balam", "lat": 20.608206, "lng": -87.90479
},{
"label": "Chulután", "lat": 20.567045, "lng": -87.962919
},{
"label": "Xcanahaltún", "lat": 20.643543, "lng": -87.827661
},{
"label": "Akachén", "lat": 20.758725, "lng": -88.008947
},{
"label": "Pixoy", "lat": 20.767455, "lng": -87.845597
},{
"label": "San Cosme", "lat": 20.774833, "lng": -87.787376
},{
"label": "Aroba", "lat": 20.729773, "lng": -87.766105
},{
"label": "Santa Cruz Uayah-Té", "lat": 20.929935, "lng": -87.790416
},{
"label": "San Esteban (Nueva Italia)", "lat": 20.560715, "lng": -87.888026
},{
"label": "Chenep (Chioplé)", "lat": 20.727678, "lng": -87.899365
},{
"label": "Santa Rosa", "lat": 20.662138, "lng": -87.980165
},{
"label": "X-Actún", "lat": 20.79042, "lng": -87.915814
},{
"label": "San Ramón", "lat": 20.605074, "lng": -87.872532
},{
"label": "Dzibil", "lat": 20.610685, "lng": -87.910085
},{
"label": "Maíz de Chulután", "lat": 20.558652, "lng": -87.946801
},{
"label": "Xkanté", "lat": 20.705633, "lng": -87.823132
},{
"label": "Panabá", "lat": 20.699417, "lng": -87.856239
},{
"label": "Dzonot", "lat": 20.693804, "lng": -87.842298
},{
"label": "X-Cauich", "lat": 20.676034, "lng": -87.956029
},{
"label": "Santa María Ancla", "lat": 20.536124, "lng": -87.890678
},{
"label": "Chocholá", "lat": 20.625603, "lng": -87.904934
},{
"label": "X-Catzín (Catzín)", "lat": 20.716929, "lng": -87.866241
},{
"label": "Santa María [Finca]", "lat": 20.707331, "lng": -87.846518
},{
"label": "Xockín", "lat": 20.748449, "lng": -87.920786
},{
"label": "Santa Rita", "lat": 20.76289, "lng": -87.694273
},{
"label": "San Nicolás", "lat": 20.74959, "lng": -87.80468
},{
"label": "Emilio Kinil [Kixmoch]", "lat": 20.629513, "lng": -87.926262
},{
"label": "Pol Chon", "lat": 20.677888, "lng": -87.922436
},{
"label": "Sodzil", "lat": 20.697764, "lng": -87.868347
},{
"label": "Kulché", "lat": 20.815966, "lng": -87.934785
},{
"label": "Akché", "lat": 20.828826, "lng": -87.957653
},{
"label": "X-Mohoch Onil", "lat": 20.667497, "lng": -87.865832
},{
"label": "Chiquix", "lat": 20.841162, "lng": -87.768996
},{
"label": "San Antonio", "lat": 20.727421, "lng": -87.907001
},{
"label": "Uspibil", "lat": 20.768823, "lng": -88.004194
},{
"label": "Kom", "lat": 20.749259, "lng": -87.968653
},{
"label": "San Rafael", "lat": 20.732214, "lng": -87.860274
},{
"label": "Chacán", "lat": 20.712461, "lng": -87.936573
},{
"label": "Platanal", "lat": 20.784209, "lng": -87.740817
},{
"label": "Pueblo Fantasma", "lat": 20.790403, "lng": -87.860406
},{
"label": "Cholul", "lat": 20.773389, "lng": -87.793852
},{
"label": "X-Onil", "lat": 20.680123, "lng": -87.872403
},{
"label": "X-Ebtún", "lat": 20.716719, "lng": -87.914669
},{
"label": "San José", "lat": 20.838611, "lng": -87.941275
},{
"label": "Pistemax", "lat": 20.578616, "lng": -87.867741
},{
"label": "Mariposa", "lat": 20.685425, "lng": -87.902221
},{
"label": "San José (Subtoc)", "lat": 20.635768, "lng": -87.927271
},{
"label": "Santa Ana", "lat": 20.819573, "lng": -87.80882
},{
"label": "San Felipe", "lat": 20.74871, "lng": -87.793896
},{
"label": "X-Huech", "lat": 20.71836, "lng": -87.958568
},{
"label": "Kuncheil", "lat": 20.601673, "lng": -87.87949
},{
"label": "Puzcam", "lat": 20.604774, "lng": -87.924553
},{
"label": "Koochá", "lat": 20.47612, "lng": -87.937949
},{
"label": "X-Polol", "lat": 20.853994, "lng": -87.914202
},{
"label": "Miraflores", "lat": 20.737998, "lng": -87.830408
},{
"label": "Dzonkeil", "lat": 20.638831, "lng": -87.847491
},{
"label": "Champolín", "lat": 20.720971, "lng": -87.805412
},{
"label": "X-Pehaltún", "lat": 20.640381, "lng": -87.975675
},{
"label": "X-Haas", "lat": 20.716057, "lng": -87.896795
},{
"label": "Sisbichén", "lat": 20.822988, "lng": -87.924461
},{
"label": "Acapulco", "lat": 20.739096, "lng": -87.781828
},{
"label": "X-Yaxdzonot", "lat": 20.802299, "lng": -87.816994
},{
"label": "Miraflor", "lat": 20.942141, "lng": -87.78704
},{
"label": "San Pedro", "lat": 20.780979, "lng": -87.885692
},{
"label": "Estrella", "lat": 20.807816, "lng": -87.737777
},{
"label": "Xim-Há", "lat": 20.930764, "lng": -87.680471
},{
"label": "Akabchén", "lat": 20.880767, "lng": -87.758853
},{
"label": "Yaxché", "lat": 20.799607, "lng": -87.950779
},{
"label": "Santa Cruz", "lat": 20.849763, "lng": -87.747861
},{
"label": "Calvario", "lat": 20.582281, "lng": -87.912412
},{
"label": "Tzeek", "lat": 20.708659, "lng": -87.946111
},{
"label": "Santa Elena", "lat": 20.732232, "lng": -87.768884
},{
"label": "Kanasín", "lat": 20.792222, "lng": -87.861667
},{
"label": "San José Konlún", "lat": 20.654065, "lng": -87.925876
},{
"label": "Rancho Bonito", "lat": 20.768118, "lng": -87.879786
},{
"label": "Colonchán", "lat": 20.789245, "lng": -87.937812
},{
"label": "Kankabal", "lat": 20.762842, "lng": -87.961675
},{
"label": "San Vicente", "lat": 20.876888, "lng": -87.748994
},{
"label": "Dzalá (Yohdzonot)", "lat": 20.736744, "lng": -87.938838
},{
"label": "San Pablo", "lat": 20.715048, "lng": -87.772409
},{
"label": "Chanyokdzonot", "lat": 20.853601, "lng": -87.765102
},{
"label": "San Javier", "lat": 20.912704, "lng": -87.781327
},{
"label": "Echeverría", "lat": 20.823137, "lng": -87.714346
},{
"label": "Subinché", "lat": 20.560121, "lng": -87.949739
},{
"label": "Sal Si Puedes", "lat": 20.939476, "lng": -87.822869
},{
"label": "San Isidro Pedregal", "lat": 20.586348, "lng": -87.906387
},{
"label": "Chan Pistemax", "lat": 20.579303, "lng": -87.856143
},{
"label": "Palomares", "lat": 20.762611, "lng": -87.716969
},{
"label": "Dzibichén", "lat": 20.809056, "lng": -87.95806
},{
"label": "Santa Isabel", "lat": 20.750573, "lng": -87.798559
},{
"label": "San Marcos", "lat": 20.78267, "lng": -87.961381
},{
"label": "San Isidro Uno", "lat": 20.595973, "lng": -87.841787
},{
"label": "San Juan", "lat": 20.703542, "lng": -88.014307
},{
"label": "Paraíso", "lat": 20.83598, "lng": -87.744588
},{
"label": "Katanzel", "lat": 20.631643, "lng": -87.874127
},{
"label": "Dzidzilché", "lat": 20.688835, "lng": -87.83283
},{
"label": "Kantirixché", "lat": 20.78956, "lng": -87.959685
},{
"label": "La Esperanza", "lat": 20.990668, "lng": -87.63839
},{
"label": "X-Poxil", "lat": 20.598529, "lng": -87.907786
},{
"label": "Aka Che'en", "lat": 20.707136, "lng": -87.878234
},{
"label": "San José Chahuay", "lat": 20.75526, "lng": -87.838382
},{
"label": "Mucel", "lat": 20.895737, "lng": -87.838673
},{
"label": "X-Cuc", "lat": 20.789574, "lng": -87.941869
},{
"label": "Lol-Bé", "lat": 20.501071, "lng": -87.923083
},{
"label": "Yokdzonot", "lat": 20.55868, "lng": -87.97179
},{
"label": "Tamtza", "lat": 20.6278, "lng": -87.948606
},{
"label": "Kulché Tres", "lat": 20.81105, "lng": -87.932718
},{
"label": "Kotichén (Koti)", "lat": 20.725916, "lng": -87.939207
},{
"label": "Santa Rosa Dos", "lat": 20.6669, "lng": -87.921943
},{
"label": "San Mateo", "lat": 20.639478, "lng": -88.014998
}]