[{
"label": "Santa Catalina", "lat": 20.423318, "lng": -89.307464
},{
"label": "Santa Margarita", "lat": 20.432724, "lng": -89.288164
},{
"label": "Santa Bárbara", "lat": 20.525806, "lng": -89.281905
},{
"label": "San Antonio", "lat": 20.460276, "lng": -89.316672
},{
"label": "Noh-Bec", "lat": 20.465614, "lng": -89.246725
},{
"label": "San Pedro Chacsinkín", "lat": 20.441523, "lng": -89.329778
},{
"label": "Holoch Chí", "lat": 20.509431, "lng": -89.251531
},{
"label": "Santa Ana", "lat": 20.459436, "lng": -89.24979
},{
"label": "San Pablo", "lat": 20.458271, "lng": -89.311303
},{
"label": "San Pedro", "lat": 20.469566, "lng": -89.290019
},{
"label": "Xauchel", "lat": 20.430078, "lng": -89.328856
},{
"label": "San Diego", "lat": 20.424689, "lng": -89.311276
},{
"label": "San Miguel", "lat": 20.443688, "lng": -89.270698
},{
"label": "La Guadalupana", "lat": 20.432004, "lng": -89.307824
},{
"label": "Traviesas Uno", "lat": 20.448113, "lng": -89.303479
},{
"label": "Chumayel", "lat": 20.429535, "lng": -89.302519
},{
"label": "Sinkilá", "lat": 20.474305, "lng": -89.298009
},{
"label": "Santa Elena", "lat": 20.453714, "lng": -89.308891
},{
"label": "Rancho Seco", "lat": 20.429688, "lng": -89.312146
}]