[{
"label": "René Estrada Cetina", "lat": 21.250401, "lng": -89.054471
},{
"label": "San José", "lat": 21.260658, "lng": -89.004973
},{
"label": "Dzithox", "lat": 21.242042, "lng": -89.059142
},{
"label": "Tunich Luum", "lat": 21.259457, "lng": -89.041119
},{
"label": "Santa Ana", "lat": 21.249321, "lng": -89.067368
},{
"label": "San Felipe", "lat": 21.36582, "lng": -88.969988
},{
"label": "Loreto", "lat": 21.363702, "lng": -88.963739
},{
"label": "Dzidzantún", "lat": 21.246678, "lng": -89.042975
},{
"label": "Trinidad", "lat": 21.278894, "lng": -89.03825
},{
"label": "San Alejandro", "lat": 21.308896, "lng": -89.060427
},{
"label": "Veinte de Noviembre", "lat": 21.303744, "lng": -89.030125
},{
"label": "Xbalam", "lat": 21.290529, "lng": -89.005703
},{
"label": "San Cristóbal", "lat": 21.268463, "lng": -89.069695
},{
"label": "La Rosita", "lat": 21.335949, "lng": -89.025043
},{
"label": "San Diego Chumul", "lat": 21.25535, "lng": -89.068531
},{
"label": "San Luis", "lat": 21.260751, "lng": -89.03985
},{
"label": "San Pedro", "lat": 21.28808, "lng": -89.053987
},{
"label": "Xculul", "lat": 21.302889, "lng": -88.994559
},{
"label": "Villa de Guadalupe", "lat": 21.347434, "lng": -88.965522
},{
"label": "El Grillo", "lat": 21.280593, "lng": -89.031186
},{
"label": "Valdez", "lat": 21.238848, "lng": -89.031205
},{
"label": "Lácteos Dos Mil", "lat": 21.234757, "lng": -89.053038
},{
"label": "San Agustín", "lat": 21.320176, "lng": -89.014633
},{
"label": "Alberto Coral Coral", "lat": 21.260205, "lng": -89.04603
},{
"label": "Dzonotcay", "lat": 21.286764, "lng": -89.015484
},{
"label": "San Jorge", "lat": 21.341674, "lng": -89.021453
},{
"label": "Santa Cruz", "lat": 21.228528, "lng": -89.077557
},{
"label": "José Luis Aguilar", "lat": 21.244178, "lng": -89.055302
},{
"label": "Santa Elena", "lat": 21.350583, "lng": -89.018177
},{
"label": "San Genaro", "lat": 21.331453, "lng": -89.067138
},{
"label": "Santa Rosa", "lat": 21.269243, "lng": -89.038158
},{
"label": "Lázaro Cárdenas", "lat": 21.231887, "lng": -89.054861
},{
"label": "Santa Elena [Anexa]", "lat": 21.348591, "lng": -89.01929
},{
"label": "Tercera Generación", "lat": 21.228729, "lng": -89.058944
},{
"label": "Guadalupe", "lat": 21.242433, "lng": -89.057924
},{
"label": "Santa Margarita", "lat": 21.302835, "lng": -89.003584
},{
"label": "La Ilusión", "lat": 21.267913, "lng": -89.060502
},{
"label": "San Gregorio X-Luch", "lat": 21.322008, "lng": -88.99003
},{
"label": "X-Luuch", "lat": 21.326296, "lng": -89.001619
},{
"label": "Santa Isabel Chen Chay", "lat": 21.321115, "lng": -89.04984
},{
"label": "Chaltún Pujuy", "lat": 21.292055, "lng": -89.027756
},{
"label": "San Martín", "lat": 21.312152, "lng": -89.04491
},{
"label": "Santa Clara", "lat": 21.37382, "lng": -89.013754
},{
"label": "San Juan Aguilar Tres", "lat": 21.304627, "lng": -88.980266
},{
"label": "Mina de Oro", "lat": 21.376982, "lng": -88.984884
},{
"label": "Santa Rita", "lat": 21.309898, "lng": -89.030055
},{
"label": "Santa Rosalía", "lat": 21.306921, "lng": -89.038989
},{
"label": "San Antonio Uno", "lat": 21.330095, "lng": -89.026971
},{
"label": "Santa Isabel", "lat": 21.296027, "lng": -89.031238
},{
"label": "Dalila", "lat": 21.237252, "lng": -89.046563
},{
"label": "Haltún Há", "lat": 21.229972, "lng": -89.057598
},{
"label": "San Francisco Manzanilla", "lat": 21.253222, "lng": -89.022986
},{
"label": "San Felipe Chuylem", "lat": 21.238426, "lng": -89.039115
},{
"label": "Xaan", "lat": 21.346854, "lng": -89.007774
},{
"label": "Santo Domingo", "lat": 21.35035, "lng": -89.025472
},{
"label": "San Juan", "lat": 21.255486, "lng": -89.063199
},{
"label": "San Enrique", "lat": 21.299312, "lng": -89.007936
},{
"label": "San Honorio", "lat": 21.342229, "lng": -89.015489
},{
"label": "San Antonio", "lat": 21.317668, "lng": -89.029975
},{
"label": "El Laurel", "lat": 21.257658, "lng": -89.006683
},{
"label": "CRIDI", "lat": 21.30979, "lng": -89.014223
},{
"label": "Dzidzantún [Rastro Municipal]", "lat": 21.236751, "lng": -89.050204
},{
"label": "Cornelio Aguilar Puc", "lat": 21.254028, "lng": -89.047499
},{
"label": "San Francisco", "lat": 21.257329, "lng": -89.023749
},{
"label": "Faller", "lat": 21.257595, "lng": -89.012052
},{
"label": "Manuel Gorocica Celis", "lat": 21.261189, "lng": -89.043334
},{
"label": "El Porvenir", "lat": 21.372106, "lng": -89.036271
},{
"label": "Texaan", "lat": 21.352169, "lng": -88.992687
},{
"label": "Dzidzantún Vegetal", "lat": 21.263991, "lng": -89.041962
},{
"label": "Saapech", "lat": 21.365377, "lng": -88.959325
},{
"label": "Valdez Tercero", "lat": 21.239396, "lng": -89.033512
},{
"label": "San Juan Aguilar Uno", "lat": 21.304694, "lng": -88.989256
}]