[{
"label": "Pascual Córdoba", "lat": 21.366525, "lng": -88.870686
},{
"label": "La Mano Poderosa", "lat": 21.48519, "lng": -88.496778
},{
"label": "San Julián", "lat": 21.375478, "lng": -88.657048
},{
"label": "Jorge Peraza", "lat": 21.3776, "lng": -88.900153
},{
"label": "El Paraíso", "lat": 21.375809, "lng": -88.833702
},{
"label": "Geguajepama", "lat": 21.375776, "lng": -88.885269
},{
"label": "San Esteban [Rancho]", "lat": 21.477568, "lng": -88.488441
},{
"label": "Pueblo Nuevo", "lat": 21.382669, "lng": -88.890731
},{
"label": "San Isidro", "lat": 21.355178, "lng": -88.925943
},{
"label": "Arizona", "lat": 21.42577, "lng": -88.532523
},{
"label": "Montana", "lat": 21.400151, "lng": -88.672661
},{
"label": "Santa Teresa", "lat": 21.365831, "lng": -88.901202
},{
"label": "San Luis", "lat": 21.43729, "lng": -88.540626
},{
"label": "Los Tres Compadres", "lat": 21.345542, "lng": -88.794111
},{
"label": "San Salvador Tres", "lat": 21.450032, "lng": -88.541236
},{
"label": "El Ceibito", "lat": 21.374346, "lng": -88.853933
},{
"label": "Las Conchitas", "lat": 21.387782, "lng": -88.91368
},{
"label": "GMG [Empresa]", "lat": 21.386445, "lng": -88.918665
},{
"label": "San Osorio", "lat": 21.351706, "lng": -88.688588
},{
"label": "Ninguno", "lat": 21.348634, "lng": -88.772252
},{
"label": "Don Cáceres", "lat": 21.36515, "lng": -88.816171
},{
"label": "Cenote Avelino", "lat": 21.430496, "lng": -88.598906
},{
"label": "San Fernando", "lat": 21.45052, "lng": -88.534159
},{
"label": "Dzonot Pich", "lat": 21.381937, "lng": -88.753958
},{
"label": "Santa Rosa", "lat": 21.478774, "lng": -88.49542
},{
"label": "Xkan-Há", "lat": 21.450578, "lng": -88.504886
},{
"label": "Tres Reyes", "lat": 21.485368, "lng": -88.510334
},{
"label": "Los Coquitos", "lat": 21.377042, "lng": -88.89754
},{
"label": "Kennedy [Ejido]", "lat": 21.474965, "lng": -88.489904
},{
"label": "Rancho California", "lat": 21.368783, "lng": -88.852853
},{
"label": "Don Chucho", "lat": 21.376962, "lng": -88.896588
},{
"label": "La Casa de las Flores", "lat": 21.378991, "lng": -88.8957
},{
"label": "Rancho San Luis", "lat": 21.359566, "lng": -88.658541
},{
"label": "Santa Librada", "lat": 21.424041, "lng": -88.536493
},{
"label": "El Zorgo", "lat": 21.371709, "lng": -88.896848
},{
"label": "San Carlos", "lat": 21.342976, "lng": -88.724677
},{
"label": "San Pedro Tres", "lat": 21.349496, "lng": -88.784679
},{
"label": "Chimay", "lat": 21.355211, "lng": -88.904094
},{
"label": "Villa Mercedes", "lat": 21.390135, "lng": -88.904269
},{
"label": "Mariano Peraza", "lat": 21.385833, "lng": -88.926389
},{
"label": "San Rafael", "lat": 21.379174, "lng": -88.78203
},{
"label": "Chun-Xaan", "lat": 21.344064, "lng": -88.675926
},{
"label": "San Luis Dos", "lat": 21.445873, "lng": -88.537124
},{
"label": "Opezca", "lat": 21.376434, "lng": -88.895341
},{
"label": "Cachira", "lat": 21.377638, "lng": -88.896405
},{
"label": "Los Tres Reyes", "lat": 21.37255, "lng": -88.820915
},{
"label": "San José", "lat": 21.363689, "lng": -88.880285
},{
"label": "San José Dos", "lat": 21.364744, "lng": -88.801259
},{
"label": "San Emilio", "lat": 21.349826, "lng": -88.756764
},{
"label": "El Cielo", "lat": 21.384454, "lng": -88.933611
},{
"label": "San Andrés", "lat": 21.352749, "lng": -88.818983
},{
"label": "San Juan Bautista", "lat": 21.353908, "lng": -88.858776
},{
"label": "San Miguel", "lat": 21.429745, "lng": -88.516101
},{
"label": "Alcocer [Trituradora]", "lat": 21.354035, "lng": -88.900289
},{
"label": "Asociación Ganadera", "lat": 21.360395, "lng": -88.898379
},{
"label": "X-Toldzonot", "lat": 21.375025, "lng": -88.780371
},{
"label": "San Gregorio", "lat": 21.371979, "lng": -88.813029
},{
"label": "San Israel", "lat": 21.345775, "lng": -88.943791
},{
"label": "Buena Esperanza", "lat": 21.454142, "lng": -88.520608
},{
"label": "Boquinete y Hoo-Chakan [Granja de Tilapia]", "lat": 21.362278, "lng": -88.898612
},{
"label": "Rancho Grande", "lat": 21.419748, "lng": -88.646182
},{
"label": "Alemar", "lat": 21.35374, "lng": -88.827534
},{
"label": "La Providencia", "lat": 21.480888, "lng": -88.503163
},{
"label": "Santa Naybi Belén", "lat": 21.361906, "lng": -88.870505
},{
"label": "San Pedro", "lat": 21.37395, "lng": -88.805499
},{
"label": "Rancho Don Li", "lat": 21.355352, "lng": -88.854649
},{
"label": "Sinkeuel", "lat": 21.465851, "lng": -88.577954
},{
"label": "Santa María", "lat": 21.371122, "lng": -88.797843
},{
"label": "Cabaña Villa Flores", "lat": 21.386495, "lng": -88.926299
},{
"label": "Las Chayas", "lat": 21.384279, "lng": -88.934741
},{
"label": "San Jorge", "lat": 21.420923, "lng": -88.62784
},{
"label": "Xlabon-Subín", "lat": 21.356904, "lng": -88.653881
},{
"label": "Santa Elena", "lat": 21.359069, "lng": -88.927049
},{
"label": "San Judas", "lat": 21.363582, "lng": -88.796811
},{
"label": "San Salvador Dos", "lat": 21.456654, "lng": -88.559397
},{
"label": "San Martin", "lat": 21.488546, "lng": -88.490134
},{
"label": "San Vicente", "lat": 21.353788, "lng": -88.911837
},{
"label": "Villa San Pedro", "lat": 21.383691, "lng": -88.938035
},{
"label": "San Pablo", "lat": 21.439293, "lng": -88.575085
},{
"label": "San Martín", "lat": 21.373674, "lng": -88.839004
},{
"label": "Pérez Flores [Cocal]", "lat": 21.387273, "lng": -88.913798
},{
"label": "San Judas Tadeo", "lat": 21.480921, "lng": -88.513083
},{
"label": "Dzilam de Bravo [Unidad Habitacional]", "lat": 21.375413, "lng": -88.895969
},{
"label": "Limbo", "lat": 21.387237, "lng": -88.918853
},{
"label": "Chenpay Tres", "lat": 21.365581, "lng": -88.922649
},{
"label": "San Juan", "lat": 21.351868, "lng": -88.817692
},{
"label": "Las Iguanitas", "lat": 21.389546, "lng": -88.910079
},{
"label": "Santa Úrsula", "lat": 21.345639, "lng": -88.744317
},{
"label": "FONDEN [Unidad Habitacional]", "lat": 21.378253, "lng": -88.89538
},{
"label": "Dzilam de Bravo", "lat": 21.393229, "lng": -88.89188
},{
"label": "Ongay [Rancho]", "lat": 21.473112, "lng": -88.477502
},{
"label": "Bramadero", "lat": 21.370759, "lng": -88.652239
},{
"label": "San Francisco", "lat": 21.422748, "lng": -88.574157
},{
"label": "Socorro", "lat": 21.423732, "lng": -88.612655
},{
"label": "Maichkil", "lat": 21.436189, "lng": -88.627139
},{
"label": "San Esteban", "lat": 21.465741, "lng": -88.579509
},{
"label": "San Manuel", "lat": 21.440578, "lng": -88.507664
},{
"label": "Sinaloa", "lat": 21.416695, "lng": -88.663225
},{
"label": "El Sauce", "lat": 21.365634, "lng": -88.83297
},{
"label": "Marrufo Godoy", "lat": 21.377475, "lng": -88.897961
},{
"label": "Montecristo", "lat": 21.396449, "lng": -88.703196
}]