[{
"label": "Kancabchén", "lat": 20.525927, "lng": -90.138144
},{
"label": "Moyel [Maquiladora]", "lat": 20.505124, "lng": -90.07271
},{
"label": "Doña Paula", "lat": 20.455, "lng": -90.089167
},{
"label": "Eliasal Mut Cantún", "lat": 20.490627, "lng": -90.096372
},{
"label": "San Valentín", "lat": 20.619189, "lng": -90.219449
},{
"label": "Concepción", "lat": 20.512831, "lng": -90.183489
},{
"label": "San Francisco Uno", "lat": 20.490742, "lng": -90.065841
},{
"label": "Los Naranjos", "lat": 20.52686, "lng": -90.069944
},{
"label": "Pet-Ak", "lat": 20.670923, "lng": -90.259105
},{
"label": "San Diego", "lat": 20.437434, "lng": -90.107109
},{
"label": "San Carlos I", "lat": 20.519322, "lng": -90.083941
},{
"label": "Kuncheil", "lat": 20.450899, "lng": -90.054899
},{
"label": "Unidad Cervera", "lat": 20.509444, "lng": -90.0725
},{
"label": "San Lorenzo [Rancho]", "lat": 20.503236, "lng": -90.07141
},{
"label": "San Isidro", "lat": 20.516909, "lng": -90.115915
},{
"label": "San Sebastián", "lat": 20.488056, "lng": -90.043222
},{
"label": "Chulilá", "lat": 20.465816, "lng": -90.060872
},{
"label": "San Alberto", "lat": 20.454084, "lng": -90.089338
},{
"label": "Cortez", "lat": 20.560174, "lng": -90.134615
},{
"label": "Sihó", "lat": 20.486624, "lng": -90.16311
},{
"label": "El Naranjo", "lat": 20.640808, "lng": -90.245833
},{
"label": "Bachoco [Granja]", "lat": 20.499696, "lng": -90.163773
},{
"label": "X-Kú Paloma", "lat": 20.473333, "lng": -90.055982
},{
"label": "Santa Camila", "lat": 20.457097, "lng": -90.088209
},{
"label": "Cepeda", "lat": 20.506149, "lng": -90.109612
},{
"label": "San Pedro", "lat": 20.447681, "lng": -90.087747
},{
"label": "Álvaro Bacab", "lat": 20.502516, "lng": -90.071459
},{
"label": "Cervera Uno [Unidad Agrícola]", "lat": 20.504815, "lng": -90.080054
},{
"label": "San Salvador Uno", "lat": 20.463549, "lng": -90.087271
},{
"label": "Ninguno", "lat": 20.534221, "lng": -90.149129
},{
"label": "Santa María", "lat": 20.455974, "lng": -90.087877
},{
"label": "San Jacinto [Unidad Agrícola]", "lat": 20.522407, "lng": -90.076928
},{
"label": "San Fernando", "lat": 20.534065, "lng": -90.178389
},{
"label": "Felipe Carrillo Puerto", "lat": 20.487189, "lng": -90.06023
},{
"label": "Guadalupe [Rancho]", "lat": 20.534374, "lng": -90.134486
},{
"label": "Chunbec", "lat": 20.476749, "lng": -90.045781
},{
"label": "Santa Rosa", "lat": 20.478568, "lng": -90.100003
},{
"label": "Miguel Pacheco", "lat": 20.506407, "lng": -90.070633
},{
"label": "San Salvador Dos", "lat": 20.462305, "lng": -90.086991
},{
"label": "San Vicente", "lat": 20.502621, "lng": -90.070291
},{
"label": "Halachó", "lat": 20.477756, "lng": -90.082148
},{
"label": "Monte de los Olimpos", "lat": 20.487436, "lng": -90.05861
},{
"label": "Santa Sofía", "lat": 20.549023, "lng": -90.200405
},{
"label": "San Luis Holcá", "lat": 20.485204, "lng": -90.097716
},{
"label": "San Joaquín Chumpich", "lat": 20.484413, "lng": -90.103519
},{
"label": "San Martín", "lat": 20.463011, "lng": -90.143583
},{
"label": "Nuestra Señora de Guadalupe", "lat": 20.476634, "lng": -90.100123
},{
"label": "Ku Polón", "lat": 20.504456, "lng": -90.214959
},{
"label": "Cuch Holoch", "lat": 20.435434, "lng": -90.097453
},{
"label": "Valdivia", "lat": 20.451619, "lng": -90.074074
},{
"label": "Monte Oreb", "lat": 20.513868, "lng": -90.116644
},{
"label": "Miguel Kep Tucuch", "lat": 20.465425, "lng": -90.061605
},{
"label": "San Juan", "lat": 20.487738, "lng": -90.063143
},{
"label": "Santa Catalina", "lat": 20.484248, "lng": -90.060747
},{
"label": "San Antonio", "lat": 20.589634, "lng": -90.226461
},{
"label": "Coplamar", "lat": 20.486976, "lng": -90.055796
},{
"label": "Chun Kanán", "lat": 20.480712, "lng": -90.054362
},{
"label": "San Armando", "lat": 20.512919, "lng": -90.095332
},{
"label": "Guadalupe [Unidad Agrícola]", "lat": 20.461222, "lng": -90.056679
},{
"label": "Paraíso", "lat": 20.574154, "lng": -90.228124
},{
"label": "Botánico", "lat": 20.473688, "lng": -90.062679
},{
"label": "Dzidzilché", "lat": 20.453871, "lng": -90.103756
},{
"label": "San Francisco", "lat": 20.585727, "lng": -90.150962
},{
"label": "San Francisco Dos", "lat": 20.491172, "lng": -90.068651
},{
"label": "San Manuel", "lat": 20.48794, "lng": -90.064753
},{
"label": "Petac", "lat": 20.504013, "lng": -90.075408
},{
"label": "Dzidzibachí", "lat": 20.570235, "lng": -90.126421
},{
"label": "Santa María Acú", "lat": 20.547782, "lng": -90.163537
},{
"label": "Ramiro Pat", "lat": 20.488956, "lng": -90.096756
},{
"label": "San Mateo", "lat": 20.590814, "lng": -90.212992
},{
"label": "Luis Echeverría", "lat": 20.529048, "lng": -90.175749
}]