[{
"label": "San Miguel Arcángel", "lat": 20.885237, "lng": -89.201233
},{
"label": "San José Oriente", "lat": 20.859353, "lng": -89.102933
},{
"label": "Manuel Matos", "lat": 20.871551, "lng": -89.191582
},{
"label": "X-Colón", "lat": 20.879299, "lng": -89.220286
},{
"label": "Dziuché [Granja Porcícola]", "lat": 20.914744, "lng": -89.204881
},{
"label": "Minelia Cobá [Unidad Agrícola]", "lat": 20.861722, "lng": -89.186918
},{
"label": "San Nicolás", "lat": 20.85055, "lng": -89.23286
},{
"label": "La Virgen de Guadalupe", "lat": 20.88256, "lng": -89.20102
},{
"label": "Sarabia [Granja]", "lat": 20.881839, "lng": -89.201454
},{
"label": "Dziuché", "lat": 20.912452, "lng": -89.196358
},{
"label": "San Isidro", "lat": 20.849284, "lng": -89.192998
},{
"label": "Wolpoch [Unidad Agrícola]", "lat": 20.863791, "lng": -89.185996
},{
"label": "San Antonio", "lat": 20.888161, "lng": -89.20164
},{
"label": "Netab", "lat": 20.877649, "lng": -89.202489
},{
"label": "Enrique Manzanero Cituk", "lat": 20.855191, "lng": -89.154654
},{
"label": "San José Poniente", "lat": 20.86619, "lng": -89.229225
},{
"label": "Asunción [Granja]", "lat": 20.869571, "lng": -89.206596
},{
"label": "Hoctún", "lat": 20.865212, "lng": -89.202066
},{
"label": "Wallis", "lat": 20.878827, "lng": -89.173991
},{
"label": "Pollo Industrializado de México", "lat": 20.887785, "lng": -89.199563
},{
"label": "Pilanzohol", "lat": 20.868248, "lng": -89.207788
},{
"label": "Servicio Hoctún [Gasolinera]", "lat": 20.870397, "lng": -89.226411
},{
"label": "Benito Juárez", "lat": 20.883244, "lng": -89.201014
},{
"label": "Yaxquil", "lat": 20.854399, "lng": -89.154989
},{
"label": "San Antonio Cholul", "lat": 20.936426, "lng": -89.208008
}]