[{
"label": "Citilcum", "lat": 20.951776, "lng": -89.11854
},{
"label": "Popolá", "lat": 20.851037, "lng": -88.996044
},{
"label": "San Miguel Arcángel", "lat": 20.967461, "lng": -88.984569
},{
"label": "Emiliano Zapata [Unidad de Riego]", "lat": 20.95051, "lng": -89.107108
},{
"label": "Yohactún", "lat": 20.969414, "lng": -88.899651
},{
"label": "Sac-Nicté", "lat": 20.970681, "lng": -88.982096
},{
"label": "Kimbilá [Granja]", "lat": 20.939732, "lng": -89.127154
},{
"label": "Cuauhtémoc", "lat": 20.887583, "lng": -89.000788
},{
"label": "Eligio Can", "lat": 20.950991, "lng": -89.09438
},{
"label": "Chichí-Hú", "lat": 20.917628, "lng": -89.025021
},{
"label": "Horeb", "lat": 20.836139, "lng": -89.037538
},{
"label": "Chuil Uno", "lat": 20.94225, "lng": -89.063689
},{
"label": "San Lorenzo Uno", "lat": 20.927931, "lng": -88.925695
},{
"label": "San Luis", "lat": 20.961703, "lng": -89.121628
},{
"label": "Kanán", "lat": 20.981287, "lng": -88.969841
},{
"label": "San Lorenzo", "lat": 20.828231, "lng": -89.006291
},{
"label": "Balantún", "lat": 20.922168, "lng": -88.911047
},{
"label": "Santa Fe", "lat": 20.95296, "lng": -89.020182
},{
"label": "Yohmac", "lat": 20.894364, "lng": -88.888276
},{
"label": "Ninguno", "lat": 20.842319, "lng": -89.010903
},{
"label": "Francisco Villa Uno", "lat": 20.957738, "lng": -88.889252
},{
"label": "El Negrito", "lat": 20.935609, "lng": -88.993981
},{
"label": "San Fernando", "lat": 20.948351, "lng": -89.092186
},{
"label": "San José Tecoh", "lat": 20.888022, "lng": -89.066873
},{
"label": "Las Tres Cruces", "lat": 20.957032, "lng": -88.993791
},{
"label": "Dina I", "lat": 20.937174, "lng": -88.982691
},{
"label": "Marcelino Lugo", "lat": 20.958829, "lng": -88.992385
},{
"label": "Santa Anita [Rancho]", "lat": 20.955511, "lng": -89.132143
},{
"label": "San Yazké", "lat": 20.950315, "lng": -89.109669
},{
"label": "San Luis Chico", "lat": 20.963757, "lng": -88.851421
},{
"label": "Chuil", "lat": 20.935991, "lng": -89.067639
},{
"label": "Sodzil", "lat": 20.896695, "lng": -88.839329
},{
"label": "Cax-Ek", "lat": 20.908919, "lng": -88.875366
},{
"label": "San Lucas", "lat": 20.921144, "lng": -89.14278
},{
"label": "Izamal", "lat": 20.932998, "lng": -89.019715
},{
"label": "Chenkín", "lat": 20.920599, "lng": -88.874574
},{
"label": "San Antonio", "lat": 20.915736, "lng": -88.890143
},{
"label": "Tzip", "lat": 20.951851, "lng": -89.063119
},{
"label": "Kimbilá", "lat": 20.934634, "lng": -89.125232
},{
"label": "Sacalá", "lat": 20.979291, "lng": -89.050941
},{
"label": "El Pájaro", "lat": 20.936894, "lng": -88.984182
},{
"label": "Chumul", "lat": 20.934188, "lng": -89.096553
},{
"label": "Patricia Blanco", "lat": 20.976561, "lng": -88.978464
},{
"label": "Luis Uitzil", "lat": 20.962353, "lng": -88.989143
},{
"label": "La Piedra", "lat": 20.899766, "lng": -88.837598
},{
"label": "Chovenché", "lat": 20.934784, "lng": -88.985141
},{
"label": "Manuel Cecilio Villamor", "lat": 20.964833, "lng": -89.112928
},{
"label": "Kancabchén", "lat": 20.943131, "lng": -88.934706
},{
"label": "San José", "lat": 20.848744, "lng": -88.995755
},{
"label": "Sihomal", "lat": 20.959357, "lng": -88.886669
},{
"label": "Gustavo Burgos Candil", "lat": 20.936216, "lng": -88.990093
},{
"label": "Kalanteni", "lat": 20.846934, "lng": -89.035342
},{
"label": "San Antonio Chich", "lat": 20.910408, "lng": -89.099217
},{
"label": "Kol-Ac", "lat": 20.90969, "lng": -88.866419
},{
"label": "Xanabá", "lat": 20.836273, "lng": -89.014114
},{
"label": "San Miguel", "lat": 20.933011, "lng": -88.951859
},{
"label": "Las Margaritas", "lat": 20.949565, "lng": -89.012488
},{
"label": "Pérez [Banco de Material]", "lat": 20.943389, "lng": -88.926274
},{
"label": "Kanab", "lat": 20.908571, "lng": -88.87051
},{
"label": "San José Kanán", "lat": 20.986789, "lng": -88.964824
},{
"label": "Santos Pat Uitz [Granja]", "lat": 20.92798, "lng": -89.117112
},{
"label": "Treinta y Tres [Unidad Citrícola]", "lat": 20.941677, "lng": -89.042928
},{
"label": "San Pedro", "lat": 20.886775, "lng": -89.030796
},{
"label": "San José Tzabcán", "lat": 20.911836, "lng": -89.117424
},{
"label": "San Abraham", "lat": 20.930091, "lng": -89.114194
},{
"label": "Santa María", "lat": 20.929108, "lng": -88.950743
},{
"label": "Tulinché", "lat": 20.984535, "lng": -88.878803
},{
"label": "Ebulá", "lat": 20.893497, "lng": -89.012593
},{
"label": "Juan Manuel", "lat": 20.958118, "lng": -88.993353
},{
"label": "Chacón", "lat": 20.95932, "lng": -89.023153
},{
"label": "Yaxché", "lat": 20.931172, "lng": -89.1049
},{
"label": "Santa María de los Ángeles", "lat": 20.93978, "lng": -89.046299
},{
"label": "Kanchunup", "lat": 20.905557, "lng": -88.951573
},{
"label": "Cocopesa [Banco de Material]", "lat": 20.939513, "lng": -88.971918
},{
"label": "San Dimas", "lat": 20.83225, "lng": -89.036973
},{
"label": "Santa Guadalupe", "lat": 20.929826, "lng": -88.956454
},{
"label": "Tres Potrillos", "lat": 20.926324, "lng": -88.916596
},{
"label": "Tzahkú", "lat": 20.873725, "lng": -88.875357
},{
"label": "Sitilpech", "lat": 20.940719, "lng": -88.957458
},{
"label": "Noh Kaax", "lat": 20.940443, "lng": -88.966775
},{
"label": "Yaxcucul", "lat": 20.85764, "lng": -88.869269
},{
"label": "Miguel Allende", "lat": 20.988716, "lng": -88.967305
},{
"label": "Mina de Oro", "lat": 20.929077, "lng": -88.9174
},{
"label": "Santa Carolina", "lat": 20.915533, "lng": -88.893839
},{
"label": "Chen Canul", "lat": 20.908965, "lng": -88.9285
},{
"label": "San Pedro Uno", "lat": 20.915252, "lng": -88.88563
},{
"label": "Gas de Yucatán", "lat": 20.938552, "lng": -89.046417
},{
"label": "La Frontera", "lat": 20.939399, "lng": -88.974586
},{
"label": "Timul", "lat": 20.999835, "lng": -88.889691
},{
"label": "Santo Domingo", "lat": 20.942434, "lng": -88.847822
},{
"label": "Santa Catalina", "lat": 20.991713, "lng": -88.923931
},{
"label": "Tomás Aguilar", "lat": 20.934807, "lng": -88.992469
},{
"label": "Orlando Navarrete", "lat": 20.949904, "lng": -89.100747
},{
"label": "Santa Pilar", "lat": 20.948316, "lng": -89.004925
},{
"label": "Chuiché", "lat": 20.904818, "lng": -89.003264
},{
"label": "San Francisco", "lat": 20.975245, "lng": -89.019253
},{
"label": "Francisco Villa", "lat": 20.819359, "lng": -89.020891
},{
"label": "Noh-Copó", "lat": 20.8908, "lng": -88.903655
},{
"label": "San Manuel", "lat": 20.918117, "lng": -89.023599
},{
"label": "Cheul", "lat": 20.989322, "lng": -89.018826
},{
"label": "Yokdzonot", "lat": 20.950743, "lng": -88.918638
},{
"label": "San José Chiceh", "lat": 20.909239, "lng": -88.976292
}]