[{
"label": "San Roque [Granja]", "lat": 21.128521, "lng": -89.453506
},{
"label": "Guadalupe", "lat": 21.094416, "lng": -89.46471
},{
"label": "Vicente Estrella Cituk", "lat": 21.093097, "lng": -89.476669
},{
"label": "Santa Margarita", "lat": 21.110145, "lng": -89.432377
},{
"label": "Los Hermanos Cituk", "lat": 21.096752, "lng": -89.459183
},{
"label": "Álvaro de Regil", "lat": 21.12239, "lng": -89.454298
},{
"label": "Ninguno [Radio Difusora]", "lat": 21.146619, "lng": -89.440903
},{
"label": "Humberto Chan", "lat": 21.110315, "lng": -89.443329
},{
"label": "San Antonio Yaxché", "lat": 21.121146, "lng": -89.473227
},{
"label": "Roger Pachón", "lat": 21.093629, "lng": -89.467476
},{
"label": "San Judas Tadeo [Quinta]", "lat": 21.09507, "lng": -89.443298
},{
"label": "San José Tekax", "lat": 21.091496, "lng": -89.457151
},{
"label": "San Judas Tadeo", "lat": 21.094878, "lng": -89.44426
},{
"label": "Santa Miseria", "lat": 21.111984, "lng": -89.439679
},{
"label": "San José Temax", "lat": 21.097999, "lng": -89.468854
},{
"label": "La Huerta Cob", "lat": 21.098504, "lng": -89.465757
},{
"label": "Mocochá [Cementerio General]", "lat": 21.101667, "lng": -89.461667
},{
"label": "Peniche", "lat": 21.109189, "lng": -89.43602
},{
"label": "Santa Lucía", "lat": 21.107383, "lng": -89.441232
},{
"label": "Crío [Granja]", "lat": 21.111548, "lng": -89.473497
},{
"label": "Chan Xunan", "lat": 21.121316, "lng": -89.456087
},{
"label": "San José [Granja]", "lat": 21.09855, "lng": -89.467107
},{
"label": "Tekat", "lat": 21.097242, "lng": -89.474124
},{
"label": "Los Reyes [Rancho]", "lat": 21.12018, "lng": -89.451306
},{
"label": "Xochimilco [Vivero]", "lat": 21.131254, "lng": -89.453237
},{
"label": "San Enrique", "lat": 21.119064, "lng": -89.471005
},{
"label": "Palmeras", "lat": 21.139242, "lng": -89.452623
},{
"label": "San Antonio", "lat": 21.14462, "lng": -89.448321
},{
"label": "Ponylandia", "lat": 21.093303, "lng": -89.454001
},{
"label": "Doblete", "lat": 21.093836, "lng": -89.450926
},{
"label": "INIFAP [Centro de Investigación]", "lat": 21.105991, "lng": -89.438144
},{
"label": "Paraíso [Rancho]", "lat": 21.10272, "lng": -89.459793
},{
"label": "Fátima", "lat": 21.096957, "lng": -89.461837
},{
"label": "Los Dos Hermanos", "lat": 21.137653, "lng": -89.452931
},{
"label": "San Luis", "lat": 21.092884, "lng": -89.441146
},{
"label": "La Santísima", "lat": 21.13669, "lng": -89.419533
},{
"label": "San Francisco", "lat": 21.113851, "lng": -89.443253
},{
"label": "Plácido Vázquez Chan", "lat": 21.114489, "lng": -89.44458
},{
"label": "Rancho Piña", "lat": 21.124589, "lng": -89.452534
},{
"label": "Ninguno", "lat": 21.129379, "lng": -89.452575
},{
"label": "Triturados", "lat": 21.094309, "lng": -89.437573
},{
"label": "San José [Vivero]", "lat": 21.095746, "lng": -89.467888
},{
"label": "Tierra Linda", "lat": 21.1293, "lng": -89.454209
},{
"label": "Chacnicté", "lat": 21.102865, "lng": -89.444473
},{
"label": "San Pedro [Granja]", "lat": 21.13702, "lng": -89.451984
},{
"label": "Toó", "lat": 21.143889, "lng": -89.452049
},{
"label": "Mocochá", "lat": 21.105684, "lng": -89.452056
},{
"label": "Palmeral", "lat": 21.093881, "lng": -89.47025
}]