[{
"label": "Dzulutok", "lat": 20.776739, "lng": -88.674589
},{
"label": "San Francisco", "lat": 20.87422, "lng": -88.644364
},{
"label": "San Juan", "lat": 20.864713, "lng": -88.66538
},{
"label": "Hunukú", "lat": 20.854415, "lng": -88.637403
},{
"label": "Ninguno", "lat": 20.855113, "lng": -88.642012
},{
"label": "Santa Catarina", "lat": 20.812939, "lng": -88.623454
},{
"label": "Quintana Roo", "lat": 20.867188, "lng": -88.631751
},{
"label": "San Ángel", "lat": 20.861563, "lng": -88.675933
},{
"label": "San Isidro", "lat": 20.890299, "lng": -88.655383
},{
"label": "Yaxleulá", "lat": 20.79819, "lng": -88.654165
}]