[{
"label": "Yal-Kuk", "lat": 20.56344, "lng": -89.577204
},{
"label": "Sacalum Tres", "lat": 20.47392, "lng": -89.608309
},{
"label": "Lakimbeh", "lat": 20.575814, "lng": -89.703621
},{
"label": "María de Jesús Tek Cime", "lat": 20.500031, "lng": -89.596594
},{
"label": "Teac", "lat": 20.519381, "lng": -89.623392
},{
"label": "Sacalum Dos", "lat": 20.480048, "lng": -89.605997
},{
"label": "San Marcos", "lat": 20.466856, "lng": -89.609774
},{
"label": "Xoccheilá", "lat": 20.550175, "lng": -89.555392
},{
"label": "San Antonio Sodzil", "lat": 20.539712, "lng": -89.606518
},{
"label": "Plan Chac", "lat": 20.452426, "lng": -89.624616
},{
"label": "San Luis", "lat": 20.496143, "lng": -89.598563
},{
"label": "San Pablo I", "lat": 20.492914, "lng": -89.597012
},{
"label": "Plan Sexenal", "lat": 20.565863, "lng": -89.559442
},{
"label": "María Cristina Álamo Ceballos", "lat": 20.493989, "lng": -89.58471
},{
"label": "Sacalum Cuatro", "lat": 20.475324, "lng": -89.599747
},{
"label": "San Francisco", "lat": 20.507198, "lng": -89.619302
},{
"label": "Pedro Ojeda Cervantes", "lat": 20.500362, "lng": -89.596509
},{
"label": "Sacalum", "lat": 20.495829, "lng": -89.591165
},{
"label": "Ojeda [Granja]", "lat": 20.57833, "lng": -89.711043
},{
"label": "Sacalum Uno", "lat": 20.481744, "lng": -89.599718
},{
"label": "Landi María Couoh Ku", "lat": 20.486826, "lng": -89.584902
},{
"label": "Honco", "lat": 20.573099, "lng": -89.597636
},{
"label": "Yalchac", "lat": 20.595179, "lng": -89.7125
},{
"label": "CFE [Oficinas]", "lat": 20.405837, "lng": -89.570807
},{
"label": "Yunkú", "lat": 20.578287, "lng": -89.603276
},{
"label": "Santa Gertrudis Tebom", "lat": 20.485479, "lng": -89.566586
}]