[{
"label": "San Crisanto", "lat": 20.861762, "lng": -88.994983
},{
"label": "Sudzal", "lat": 20.872096, "lng": -88.988792
},{
"label": "Tzalam", "lat": 20.817355, "lng": -88.866723
},{
"label": "Las Tres Cruces", "lat": 20.870711, "lng": -88.976516
},{
"label": "Cacaldzonot", "lat": 20.745851, "lng": -88.869012
},{
"label": "Acum", "lat": 20.844313, "lng": -88.972811
},{
"label": "Solidaridad [UAIM]", "lat": 20.875687, "lng": -88.996562
},{
"label": "Sacakal", "lat": 20.780704, "lng": -88.856281
},{
"label": "X-Mabén", "lat": 20.764228, "lng": -88.885021
},{
"label": "Flor de Mayo", "lat": 20.867204, "lng": -88.976644
},{
"label": "Yaxcach", "lat": 20.841471, "lng": -88.913254
},{
"label": "San Felipe", "lat": 20.750874, "lng": -88.846699
},{
"label": "San Martín", "lat": 20.781777, "lng": -88.850376
},{
"label": "Chansuytún", "lat": 20.851534, "lng": -88.923209
},{
"label": "San Diego", "lat": 20.769046, "lng": -88.841988
},{
"label": "Los Laureles", "lat": 20.690072, "lng": -88.842261
},{
"label": "Kancabchén de Valencia", "lat": 20.724681, "lng": -88.850851
},{
"label": "Yaxnic", "lat": 20.801944, "lng": -88.827975
},{
"label": "Brazil", "lat": 20.869481, "lng": -88.942037
},{
"label": "Chumbec", "lat": 20.800772, "lng": -88.816706
},{
"label": "Tohtol", "lat": 20.799955, "lng": -88.901606
},{
"label": "San Juan", "lat": 20.817306, "lng": -88.880492
},{
"label": "San Bernardino", "lat": 20.822428, "lng": -88.871964
},{
"label": "Santa Catalina", "lat": 20.859955, "lng": -88.944544
},{
"label": "Kalax", "lat": 20.844094, "lng": -88.947275
},{
"label": "Chakmultún", "lat": 20.836918, "lng": -88.929396
},{
"label": "El Papayal", "lat": 20.817913, "lng": -88.860641
},{
"label": "San Antonio Kancabchén", "lat": 20.882989, "lng": -88.927251
},{
"label": "San Pedro", "lat": 20.741971, "lng": -88.805695
},{
"label": "San Mario", "lat": 20.754941, "lng": -88.88557
},{
"label": "Santa María", "lat": 20.788442, "lng": -88.840832
},{
"label": "Ninguno", "lat": 20.876288, "lng": -88.992053
},{
"label": "San Antonio Chalante", "lat": 20.861111, "lng": -88.959506
},{
"label": "Yaxunal", "lat": 20.869608, "lng": -88.906862
},{
"label": "Nuevo Tzalam", "lat": 20.822117, "lng": -88.877812
},{
"label": "Tabasco", "lat": 20.827793, "lng": -88.916702
},{
"label": "Guadalupana [UAIM]", "lat": 20.868459, "lng": -88.974251
}]