[{
"label": "San José", "lat": 20.622268, "lng": -89.451396
},{
"label": "Tecoh", "lat": 20.741726, "lng": -89.474302
},{
"label": "Guadalupe Pacheco", "lat": 20.725203, "lng": -89.476848
},{
"label": "San Joaquín", "lat": 20.715858, "lng": -89.466071
},{
"label": "Chuydzonot", "lat": 20.645248, "lng": -89.34654
},{
"label": "San Judas Tadeo (Yaxcopoil)", "lat": 20.770468, "lng": -89.478784
},{
"label": "X-Kanchakán", "lat": 20.625269, "lng": -89.501362
},{
"label": "Cactus", "lat": 20.632841, "lng": -89.459183
},{
"label": "Manuel Gamboa", "lat": 20.728134, "lng": -89.474979
},{
"label": "San Ricardo", "lat": 20.754975, "lng": -89.48145
},{
"label": "San Isidro", "lat": 20.745758, "lng": -89.461271
},{
"label": "Kuncheilá", "lat": 20.718537, "lng": -89.424882
},{
"label": "Telchaquillo", "lat": 20.646323, "lng": -89.463638
},{
"label": "Alfonso Aguilar", "lat": 20.729131, "lng": -89.464663
},{
"label": "Mahzucil", "lat": 20.553267, "lng": -89.461906
},{
"label": "Ayinal", "lat": 20.656758, "lng": -89.399254
},{
"label": "San Pedro", "lat": 20.722955, "lng": -89.476136
},{
"label": "Sotuta de Peón", "lat": 20.74198, "lng": -89.57662
},{
"label": "Santa Fe", "lat": 20.746301, "lng": -89.495317
},{
"label": "Ninguno", "lat": 20.690613, "lng": -89.392374
},{
"label": "Katy Díaz", "lat": 20.757729, "lng": -89.470749
},{
"label": "Puccheiná", "lat": 20.667822, "lng": -89.446561
},{
"label": "Lepán", "lat": 20.712623, "lng": -89.498188
},{
"label": "Santa Cruz", "lat": 20.612239, "lng": -89.457604
},{
"label": "Raúl Medina", "lat": 20.727574, "lng": -89.476433
},{
"label": "Lázaro Cárdenas", "lat": 20.729019, "lng": -89.455913
},{
"label": "Nohsuytunchén", "lat": 20.637955, "lng": -89.352997
},{
"label": "Xetiuil", "lat": 20.733528, "lng": -89.467709
},{
"label": "Gloria Mukul Martínez", "lat": 20.74225, "lng": -89.485329
},{
"label": "Los Grillos", "lat": 20.761447, "lng": -89.485888
},{
"label": "San Jorge Gabriel", "lat": 20.700918, "lng": -89.470274
},{
"label": "Huá", "lat": 20.675806, "lng": -89.409405
},{
"label": "Santa Rita", "lat": 20.752456, "lng": -89.458834
},{
"label": "Chinkilá", "lat": 20.695249, "lng": -89.392036
},{
"label": "Juan Antonio Chi Medina", "lat": 20.746128, "lng": -89.462296
},{
"label": "Don Serafín", "lat": 20.645741, "lng": -89.414762
},{
"label": "Pixyá", "lat": 20.642253, "lng": -89.414754
},{
"label": "Oxtapacab", "lat": 20.771553, "lng": -89.504371
},{
"label": "San Juan", "lat": 20.681956, "lng": -89.484134
},{
"label": "Lepan [Rancho]", "lat": 20.709757, "lng": -89.491299
},{
"label": "Itzincab", "lat": 20.753114, "lng": -89.561881
},{
"label": "Paraíso", "lat": 20.74568, "lng": -89.4596
},{
"label": "Granjas Tecoh", "lat": 20.75757, "lng": -89.471186
},{
"label": "San Eduardo", "lat": 20.616107, "lng": -89.452842
},{
"label": "Sabacché", "lat": 20.659826, "lng": -89.370608
},{
"label": "San Francisco", "lat": 20.709133, "lng": -89.491447
},{
"label": "Mayapán [Zona Arqueológica]", "lat": 20.629334, "lng": -89.460807
},{
"label": "Ninguno [Trituradora]", "lat": 20.67703, "lng": -89.469919
},{
"label": "Jorge Castillo", "lat": 20.728992, "lng": -89.476033
},{
"label": "Juan Be Cocom", "lat": 20.726844, "lng": -89.476811
},{
"label": "San Antonio Suytunchén", "lat": 20.710354, "lng": -89.452244
},{
"label": "San Felipe Chucchumil", "lat": 20.558027, "lng": -89.430474
},{
"label": "San Antonio Xpakay", "lat": 20.556951, "lng": -89.411186
},{
"label": "Santo Domingo X-Tuchil", "lat": 20.680385, "lng": -89.406748
},{
"label": "Chan Suytunchén", "lat": 20.673021, "lng": -89.389234
}]