[{
"label": "San Arturo", "lat": 20.11758, "lng": -89.402394
},{
"label": "San Julián", "lat": 20.217605, "lng": -89.2047
},{
"label": "San Miguel Arcángel", "lat": 20.172295, "lng": -89.251009
},{
"label": "Sudzal Chico", "lat": 19.710217, "lng": -89.103487
},{
"label": "Ayim Uno", "lat": 19.763141, "lng": -89.167041
},{
"label": "La Veleta", "lat": 20.188831, "lng": -89.274571
},{
"label": "Baxac", "lat": 19.957793, "lng": -89.175393
},{
"label": "Pachpuc", "lat": 20.128584, "lng": -89.204734
},{
"label": "Pistaches", "lat": 19.753586, "lng": -89.125647
},{
"label": "El Huiro", "lat": 19.659823, "lng": -89.144417
},{
"label": "San Martín Hili (Kichmó)", "lat": 19.903888, "lng": -89.524959
},{
"label": "Plan Chac Pozo Cuatro", "lat": 20.170931, "lng": -89.234271
},{
"label": "San Diego Tekax", "lat": 20.162336, "lng": -89.234326
},{
"label": "Sartenejas", "lat": 19.743364, "lng": -89.242238
},{
"label": "Hobonil", "lat": 20.292069, "lng": -89.179473
},{
"label": "San Cristóbal", "lat": 20.203967, "lng": -89.355426
},{
"label": "San Isidro Yaxché", "lat": 19.876974, "lng": -89.438685
},{
"label": "Sinavila", "lat": 20.064237, "lng": -89.206348
},{
"label": "Xnah Poot", "lat": 20.161504, "lng": -89.306986
},{
"label": "San Lorenzo Uno", "lat": 19.802762, "lng": -89.233578
},{
"label": "San Luis", "lat": 20.245136, "lng": -89.225352
},{
"label": "San José Xkabanché", "lat": 20.22449, "lng": -89.28351
},{
"label": "Cinco de Mayo", "lat": 20.214488, "lng": -89.309916
},{
"label": "San Francisco Acum Dos", "lat": 19.973047, "lng": -89.159062
},{
"label": "Huntochac", "lat": 19.806101, "lng": -89.499726
},{
"label": "San Gabriel Noh-Becan", "lat": 19.794511, "lng": -89.217888
},{
"label": "Gamaliel Solís", "lat": 19.751528, "lng": -89.169914
},{
"label": "Xtolokil", "lat": 19.934342, "lng": -89.158408
},{
"label": "Manuel Cepeda Peraza", "lat": 20.152255, "lng": -89.251507
},{
"label": "Ninguno", "lat": 19.770718, "lng": -89.139629
},{
"label": "Ricardo Cetina", "lat": 19.810642, "lng": -89.468535
},{
"label": "Colohche-Akal", "lat": 20.027203, "lng": -89.170179
},{
"label": "Felipe Carrillo Puerto", "lat": 20.233958, "lng": -89.295324
},{
"label": "San Román", "lat": 20.283726, "lng": -89.187735
},{
"label": "Guadalupe", "lat": 20.240342, "lng": -89.231349
},{
"label": "La Bendición de Dios", "lat": 19.820474, "lng": -89.225972
},{
"label": "Flor de Pozo", "lat": 19.841964, "lng": -89.399688
},{
"label": "San Gaspar", "lat": 19.949004, "lng": -89.157011
},{
"label": "Cruz Akal", "lat": 19.657385, "lng": -89.176811
},{
"label": "San Carlos", "lat": 19.896237, "lng": -89.246549
},{
"label": "El Huiro Dos", "lat": 19.656495, "lng": -89.146796
},{
"label": "San Ucil Dos", "lat": 19.894358, "lng": -89.234191
},{
"label": "Cruz-Tunich", "lat": 20.110555, "lng": -89.355353
},{
"label": "San Enrique", "lat": 19.985651, "lng": -89.231518
},{
"label": "Mocontún", "lat": 20.012408, "lng": -89.395102
},{
"label": "San Perfecto", "lat": 20.194136, "lng": -89.191001
},{
"label": "Factor X [Alcohólicos Adictos]", "lat": 20.153996, "lng": -89.224104
},{
"label": "Plan Chac Pozo Uno", "lat": 20.198954, "lng": -89.256199
},{
"label": "San Felipe Segundo", "lat": 19.812247, "lng": -89.470222
},{
"label": "Hamulcecab", "lat": 20.170589, "lng": -89.247399
},{
"label": "Alborada Chun Wuitz", "lat": 19.754283, "lng": -89.440269
},{
"label": "San Juan Tekax", "lat": 19.715025, "lng": -89.441859
},{
"label": "San Isidro Dos", "lat": 19.874772, "lng": -89.45481
},{
"label": "San José Ucil", "lat": 19.920332, "lng": -89.237093
},{
"label": "Arrozal", "lat": 19.808641, "lng": -89.166902
},{
"label": "San Norberto", "lat": 20.316191, "lng": -89.132337
},{
"label": "Comanches", "lat": 20.130053, "lng": -89.178376
},{
"label": "X-Cunchacá", "lat": 19.831415, "lng": -89.551359
},{
"label": "San Luis Huechil", "lat": 19.928282, "lng": -89.283836
},{
"label": "Héctor Verdes", "lat": 19.762611, "lng": -89.133729
},{
"label": "Comuneros", "lat": 20.201601, "lng": -89.310918
},{
"label": "Tekax de Álvaro Obregón", "lat": 20.203465, "lng": -89.288388
},{
"label": "San Gerónimo", "lat": 20.263081, "lng": -89.246454
},{
"label": "El Escondido", "lat": 20.230349, "lng": -89.222458
},{
"label": "El Cedral", "lat": 20.23462, "lng": -89.314766
},{
"label": "Akan Pot", "lat": 20.183314, "lng": -89.288613
},{
"label": "Kancab", "lat": 20.195786, "lng": -89.345789
},{
"label": "San Joaquín", "lat": 20.205551, "lng": -89.260497
},{
"label": "Chun Chucún", "lat": 20.146974, "lng": -89.330391
},{
"label": "San Juan Bautista", "lat": 20.254791, "lng": -89.201668
},{
"label": "San Miguel", "lat": 20.236568, "lng": -89.206366
},{
"label": "Santo Tomás", "lat": 20.255495, "lng": -89.185641
},{
"label": "San Anastacio", "lat": 20.179139, "lng": -89.336291
},{
"label": "San Pedro Rompoy", "lat": 19.723656, "lng": -89.146084
},{
"label": "Trinidad", "lat": 20.217564, "lng": -89.256577
},{
"label": "San Gregorio", "lat": 19.704071, "lng": -89.1131
},{
"label": "Yaxactún Dos", "lat": 20.31304, "lng": -89.193034
},{
"label": "San Francisco Tixcuytún", "lat": 20.229394, "lng": -89.20719
},{
"label": "Chumaneco", "lat": 20.163799, "lng": -89.270507
},{
"label": "Plan Chac Pozo Cinco", "lat": 20.168954, "lng": -89.234823
},{
"label": "Pakan Xíiu Uno", "lat": 20.20885, "lng": -89.233347
},{
"label": "Ichmul", "lat": 19.816216, "lng": -89.41893
},{
"label": "Noh Becan", "lat": 19.77617, "lng": -89.216428
},{
"label": "Tres Hermanitas", "lat": 19.814404, "lng": -89.425572
},{
"label": "Yaxactún", "lat": 20.298038, "lng": -89.204936
},{
"label": "El Ramonal", "lat": 20.148264, "lng": -89.336883
},{
"label": "Santa María", "lat": 20.182013, "lng": -89.25783
},{
"label": "Xcunyá", "lat": 19.807356, "lng": -89.37863
},{
"label": "San Eustaquio", "lat": 20.303703, "lng": -89.18531
},{
"label": "San Jorge", "lat": 20.119312, "lng": -89.166533
},{
"label": "Plan Chac Pozo Dos", "lat": 20.190813, "lng": -89.253777
},{
"label": "Chan Dzinup", "lat": 19.871974, "lng": -89.481699
},{
"label": "Ayim Dos", "lat": 19.779326, "lng": -89.171883
},{
"label": "Bacal", "lat": 19.972484, "lng": -89.241668
},{
"label": "Agua Prieta", "lat": 19.774838, "lng": -89.207649
},{
"label": "X-Kanlol", "lat": 20.127967, "lng": -89.189936
},{
"label": "Leona Vicario Dos", "lat": 20.172436, "lng": -89.251579
},{
"label": "Santana", "lat": 20.251509, "lng": -89.273826
},{
"label": "Poltok", "lat": 19.736171, "lng": -89.1302
},{
"label": "San Rufino", "lat": 19.789888, "lng": -89.353748
},{
"label": "Felipe León", "lat": 19.683737, "lng": -89.375446
},{
"label": "Sacpukenhá", "lat": 19.892945, "lng": -89.154175
},{
"label": "Poccheil", "lat": 19.782217, "lng": -89.361126
},{
"label": "Kim [Albergue]", "lat": 20.21221, "lng": -89.27512
},{
"label": "Santo Domingo", "lat": 19.787843, "lng": -89.31987
},{
"label": "San Agustín (Salvador Alvarado)", "lat": 19.979488, "lng": -89.488382
},{
"label": "Santa Úrsula", "lat": 20.235903, "lng": -89.238665
},{
"label": "Chulbalam", "lat": 19.902383, "lng": -89.339439
},{
"label": "Miguel Hidalgo", "lat": 20.175537, "lng": -89.312077
},{
"label": "Plan Chac Pozo Seis", "lat": 20.16514, "lng": -89.225429
},{
"label": "Houitz", "lat": 20.163863, "lng": -89.336849
},{
"label": "Catbeh", "lat": 20.186654, "lng": -89.312934
},{
"label": "San Francisco", "lat": 20.286735, "lng": -89.269727
},{
"label": "Chun Kanasín", "lat": 19.863308, "lng": -89.247244
},{
"label": "San Manuel", "lat": 19.801191, "lng": -89.346724
},{
"label": "Ayim Blanca Flor", "lat": 19.784286, "lng": -89.154502
},{
"label": "Nuevo Dzitás", "lat": 19.774333, "lng": -89.241921
},{
"label": "La Pilarcita", "lat": 20.225869, "lng": -89.247486
},{
"label": "Pakan Xíiu", "lat": 20.211524, "lng": -89.231416
},{
"label": "El Recuerdo", "lat": 20.29725, "lng": -89.251614
},{
"label": "José López Portillo", "lat": 19.934257, "lng": -89.187691
},{
"label": "San Víctor", "lat": 20.306825, "lng": -89.161327
},{
"label": "El Trébol", "lat": 20.098262, "lng": -89.145049
},{
"label": "San Antonio Dos", "lat": 19.779434, "lng": -89.186114
},{
"label": "Chacmultún", "lat": 20.176291, "lng": -89.34393
},{
"label": "San Diego", "lat": 20.217733, "lng": -89.232908
},{
"label": "San Diego Uno", "lat": 20.305998, "lng": -89.182416
},{
"label": "Nuevo Popolá", "lat": 19.907882, "lng": -89.385571
},{
"label": "Yaxpeché", "lat": 20.092338, "lng": -89.211262
},{
"label": "Caobas", "lat": 19.791743, "lng": -89.146865
},{
"label": "San Isidro", "lat": 19.917948, "lng": -89.221869
},{
"label": "Santa Lucía", "lat": 19.811788, "lng": -89.515013
},{
"label": "Rangel Euán Luna", "lat": 19.818243, "lng": -89.221482
},{
"label": "Jacinto Canek [Albergue Escolar]", "lat": 19.883979, "lng": -89.21748
},{
"label": "Beto Caamal", "lat": 19.792258, "lng": -89.253596
},{
"label": "Santa Teresa", "lat": 19.74496, "lng": -89.156464
},{
"label": "San Pedro Dzulá", "lat": 19.916911, "lng": -89.523765
},{
"label": "San Antonio Ek", "lat": 20.300133, "lng": -89.261674
},{
"label": "Mexquituk", "lat": 19.948804, "lng": -89.342246
},{
"label": "San Lorenzo", "lat": 20.171938, "lng": -89.282136
},{
"label": "El Cerrito", "lat": 20.205686, "lng": -89.304919
},{
"label": "Kantemó", "lat": 20.001079, "lng": -89.30814
},{
"label": "Tacché", "lat": 20.049543, "lng": -89.302896
},{
"label": "Kinil [Huerta]", "lat": 20.330398, "lng": -89.143251
},{
"label": "Paraíso Dos", "lat": 20.231429, "lng": -89.216518
},{
"label": "Marcelino Palomo", "lat": 19.805958, "lng": -89.233953
},{
"label": "Tzekelhaltún", "lat": 20.18055, "lng": -89.372803
},{
"label": "Santa Rosa", "lat": 19.87211, "lng": -89.472334
},{
"label": "Aquiles Serdán [Albergue Escolar Indígena]", "lat": 20.153469, "lng": -89.215743
},{
"label": "El Renacimiento", "lat": 19.775237, "lng": -89.141682
},{
"label": "Santa Teresa [colonia]", "lat": 20.210339, "lng": -89.273144
},{
"label": "San Cristobal de Pixoy", "lat": 19.765833, "lng": -89.174973
},{
"label": "X-Hualyuk", "lat": 20.094565, "lng": -89.349622
},{
"label": "Manuel David Chan", "lat": 19.733954, "lng": -89.277014
},{
"label": "Xkakal", "lat": 20.111556, "lng": -89.346368
},{
"label": "Nueva Santa Cruz (Santa Cruz Cutzá)", "lat": 19.837496, "lng": -89.32565
},{
"label": "Ticum", "lat": 20.148969, "lng": -89.216978
},{
"label": "Santa Rita", "lat": 20.164175, "lng": -89.278149
},{
"label": "San Nicolás", "lat": 20.300547, "lng": -89.277697
},{
"label": "Kunchehaltún", "lat": 20.002929, "lng": -89.476031
},{
"label": "Pencuyut", "lat": 20.292301, "lng": -89.290503
},{
"label": "Ayim", "lat": 19.778211, "lng": -89.164066
},{
"label": "San Antonio", "lat": 20.227023, "lng": -89.291523
},{
"label": "Lopia", "lat": 20.316898, "lng": -89.190652
},{
"label": "Los Cinco Caminos", "lat": 19.732288, "lng": -89.251519
},{
"label": "Huacpelchén", "lat": 19.920103, "lng": -89.11787
},{
"label": "San Antonio Xnuc", "lat": 20.105389, "lng": -89.154156
},{
"label": "Holcá Nuevo", "lat": 19.897938, "lng": -89.356759
},{
"label": "Xkuil", "lat": 19.994021, "lng": -89.167359
},{
"label": "San Antonio Abad", "lat": 20.251147, "lng": -89.222273
},{
"label": "Petén", "lat": 19.748996, "lng": -89.123857
},{
"label": "Benito Juárez", "lat": 19.917747, "lng": -89.499374
},{
"label": "San Marcos Cuncheil", "lat": 19.735748, "lng": -89.436415
},{
"label": "Chunmul", "lat": 19.81658, "lng": -89.192971
},{
"label": "La Flor de Nayarit", "lat": 20.134185, "lng": -89.212709
},{
"label": "Kinil", "lat": 20.323744, "lng": -89.133398
},{
"label": "San Pedro Xtokil", "lat": 19.776803, "lng": -89.436855
},{
"label": "San Marcelo", "lat": 19.79908, "lng": -89.324509
},{
"label": "San José", "lat": 20.273626, "lng": -89.270009
},{
"label": "Santa Bárbara", "lat": 20.147175, "lng": -89.265238
},{
"label": "Los Gavilanes", "lat": 20.185814, "lng": -89.270104
},{
"label": "Los Cascabeles", "lat": 20.182128, "lng": -89.262829
},{
"label": "Santa Ana", "lat": 20.203687, "lng": -89.207904
},{
"label": "San Felipe", "lat": 20.307845, "lng": -89.148936
},{
"label": "Canek", "lat": 20.200337, "lng": -89.329444
},{
"label": "San Andrés", "lat": 19.833221, "lng": -89.233624
},{
"label": "San Salvador", "lat": 19.870737, "lng": -89.42839
},{
"label": "Valle del Sur", "lat": 19.768474, "lng": -89.157232
},{
"label": "Becanchén", "lat": 19.875559, "lng": -89.217105
},{
"label": "Tixcuytún", "lat": 20.209148, "lng": -89.20443
},{
"label": "Alfredo Cahum", "lat": 20.206454, "lng": -89.302596
},{
"label": "El Huiro Tres", "lat": 19.650826, "lng": -89.135542
},{
"label": "Chulté", "lat": 20.287944, "lng": -89.171645
},{
"label": "Emiliano Zapata", "lat": 19.78202, "lng": -89.413932
},{
"label": "Nicho Balam", "lat": 19.936403, "lng": -89.257277
},{
"label": "Juan Ramón Medina", "lat": 20.17276, "lng": -89.250241
},{
"label": "Paraíso [Colonia]", "lat": 20.211634, "lng": -89.272036
},{
"label": "Unidad Antigua", "lat": 20.195139, "lng": -89.265081
},{
"label": "San Cristóbal (San Nicolás)", "lat": 19.807949, "lng": -89.394224
},{
"label": "Plan Chac Pozo Tres", "lat": 20.191028, "lng": -89.244458
},{
"label": "Nuevo Sinaí", "lat": 19.805126, "lng": -89.175428
},{
"label": "Francisco Indalesio Madero", "lat": 19.869774, "lng": -89.258611
},{
"label": "La Paloma", "lat": 20.18032, "lng": -89.260633
},{
"label": "Sinaí", "lat": 19.682519, "lng": -89.411929
},{
"label": "Chan Santa Cruz", "lat": 20.199775, "lng": -89.311166
},{
"label": "Carolina", "lat": 20.152287, "lng": -89.259898
},{
"label": "Florencio Pech May", "lat": 19.839648, "lng": -89.23589
},{
"label": "San Pedro", "lat": 20.313715, "lng": -89.292893
},{
"label": "Yalcobá Nuevo", "lat": 19.891146, "lng": -89.577238
},{
"label": "Candelaria", "lat": 20.174028, "lng": -89.328548
},{
"label": "Yaxché", "lat": 19.975992, "lng": -89.264159
},{
"label": "Santa Cruz", "lat": 20.303721, "lng": -89.300336
},{
"label": "Lázaro Cárdenas", "lat": 19.739288, "lng": -89.178729
},{
"label": "Mac-Yan (San Isidro Mac-Yan)", "lat": 19.832419, "lng": -89.418833
},{
"label": "Alfonso Caso", "lat": 20.077311, "lng": -89.147968
},{
"label": "San Vicente", "lat": 20.294851, "lng": -89.199751
},{
"label": "Anexo Nohalal", "lat": 19.803726, "lng": -89.332049
},{
"label": "Nohalal", "lat": 19.792642, "lng": -89.332402
},{
"label": "Sac-Akal", "lat": 20.137648, "lng": -89.220365
},{
"label": "X-Hualyuk Dos", "lat": 20.096785, "lng": -89.358305
},{
"label": "San Pablo", "lat": 20.296127, "lng": -89.157188
},{
"label": "El Regalo", "lat": 20.17788, "lng": -89.257219
},{
"label": "Lopia Dos", "lat": 20.317444, "lng": -89.190005
},{
"label": "El Sol [Rancho]", "lat": 19.883875, "lng": -89.222735
},{
"label": "San Antonio Tuk", "lat": 20.250577, "lng": -89.248483
},{
"label": "Antonio Basto", "lat": 19.691909, "lng": -89.127575
},{
"label": "Rey de Reyes", "lat": 20.172344, "lng": -89.249737
},{
"label": "Los Laureles", "lat": 20.177339, "lng": -89.255262
},{
"label": "San Diego Buenavista", "lat": 19.859474, "lng": -89.296111
},{
"label": "Pocoboch", "lat": 19.902626, "lng": -89.308513
},{
"label": "San Bartolomé", "lat": 20.205053, "lng": -89.248302
},{
"label": "Mactunich", "lat": 20.111724, "lng": -89.361012
},{
"label": "Zabac-Halal", "lat": 19.975524, "lng": -89.209968
},{
"label": "La Tinta", "lat": 19.824133, "lng": -89.231004
},{
"label": "Santa Isabel", "lat": 20.190504, "lng": -89.209334
},{
"label": "Plan Chac Pozo Siete", "lat": 20.154092, "lng": -89.221683
},{
"label": "Cruz Nok Tunich", "lat": 20.191073, "lng": -89.281784
},{
"label": "San Marcos", "lat": 19.99563, "lng": -89.20938
},{
"label": "Montevideo", "lat": 19.742212, "lng": -89.250278
},{
"label": "San Juan", "lat": 20.292271, "lng": -89.303266
},{
"label": "San Marcelino", "lat": 20.181878, "lng": -89.357347
},{
"label": "Muchté", "lat": 20.250332, "lng": -89.160597
},{
"label": "Paraíso", "lat": 20.216037, "lng": -89.27864
},{
"label": "San Alonso", "lat": 20.146002, "lng": -89.238213
},{
"label": "San Esteban", "lat": 20.285172, "lng": -89.305679
},{
"label": "Mesatunich", "lat": 19.810429, "lng": -89.418329
},{
"label": "Xaya", "lat": 20.296309, "lng": -89.187258
},{
"label": "X-Keulí", "lat": 20.333543, "lng": -89.127493
},{
"label": "Aristeo", "lat": 20.170994, "lng": -89.247697
},{
"label": "Sartenejas [Rancho]", "lat": 20.193912, "lng": -89.311482
},{
"label": "San Bernabé", "lat": 20.149448, "lng": -89.247342
},{
"label": "Agregados Peninsulares", "lat": 20.298567, "lng": -89.176378
},{
"label": "Kadi [Rancho]", "lat": 20.122477, "lng": -89.172828
},{
"label": "San Mateo", "lat": 19.873524, "lng": -89.141573
}]