[{
"label": "San Leobardo", "lat": 20.52177, "lng": -89.220271
},{
"label": "San José", "lat": 20.582659, "lng": -89.212787
},{
"label": "San Antonio Xmequel", "lat": 20.573573, "lng": -89.242606
},{
"label": "San Víctor", "lat": 20.528592, "lng": -89.220901
},{
"label": "San Felipe", "lat": 20.542744, "lng": -89.365916
},{
"label": "Hualatún", "lat": 20.568176, "lng": -89.337514
},{
"label": "Susulá", "lat": 20.610323, "lng": -89.24925
},{
"label": "Xay", "lat": 20.531545, "lng": -89.319088
},{
"label": "Yay-Ol", "lat": 20.581471, "lng": -89.233306
},{
"label": "San José Binakí", "lat": 20.52673, "lng": -89.333434
},{
"label": "Silil", "lat": 20.596235, "lng": -89.322398
},{
"label": "Kancabdzonot", "lat": 20.589783, "lng": -89.172525
},{
"label": "San Isidro", "lat": 20.563518, "lng": -89.342294
},{
"label": "San Antonio Xpujín", "lat": 20.566647, "lng": -89.345909
},{
"label": "Santa Teresa", "lat": 20.576259, "lng": -89.255437
},{
"label": "Holchén", "lat": 20.535318, "lng": -89.224872
},{
"label": "Kankirixché", "lat": 20.531938, "lng": -89.355564
},{
"label": "San Luis", "lat": 20.54401, "lng": -89.361867
},{
"label": "Jerusalén", "lat": 20.516927, "lng": -89.332661
},{
"label": "Chacsinicché", "lat": 20.582865, "lng": -89.170516
},{
"label": "Kumul", "lat": 20.554453, "lng": -89.217777
},{
"label": "Kum-Aak", "lat": 20.528758, "lng": -89.24224
},{
"label": "Chacsuy", "lat": 20.579993, "lng": -89.244018
},{
"label": "Tzekelá", "lat": 20.576258, "lng": -89.353441
},{
"label": "Santiago", "lat": 20.537684, "lng": -89.233488
},{
"label": "Ninguno", "lat": 20.541944, "lng": -89.346389
},{
"label": "San Francisco Saibe", "lat": 20.54453, "lng": -89.363492
},{
"label": "Chunche-Já", "lat": 20.554666, "lng": -89.374358
},{
"label": "San Austerio", "lat": 20.539095, "lng": -89.242629
},{
"label": "Santa Rosa", "lat": 20.537929, "lng": -89.239274
},{
"label": "San Antonio Tecap", "lat": 20.523513, "lng": -89.374027
},{
"label": "Cucufato", "lat": 20.537302, "lng": -89.343281
},{
"label": "Sahcabá", "lat": 20.587972, "lng": -89.159632
},{
"label": "Kum Luum", "lat": 20.530995, "lng": -89.22108
},{
"label": "San Antonio Xpip", "lat": 20.561348, "lng": -89.360187
},{
"label": "San Antonio Panabchén", "lat": 20.542566, "lng": -89.359539
},{
"label": "Kopteylá", "lat": 20.593844, "lng": -89.227225
},{
"label": "Kankabdzonot", "lat": 20.579298, "lng": -89.288334
},{
"label": "San Martín", "lat": 20.544452, "lng": -89.360513
},{
"label": "Santa Cruz Kuchacán", "lat": 20.582263, "lng": -89.326434
},{
"label": "San Rafael Ucum", "lat": 20.502469, "lng": -89.307612
},{
"label": "San José Kó", "lat": 20.529462, "lng": -89.197465
},{
"label": "San José Kinchahau", "lat": 20.545037, "lng": -89.337999
},{
"label": "Sutupil", "lat": 20.599306, "lng": -89.207213
},{
"label": "San Antonio Uno", "lat": 20.551236, "lng": -89.376441
},{
"label": "Timul", "lat": 20.593355, "lng": -89.356049
},{
"label": "San Juan", "lat": 20.569206, "lng": -89.3864
},{
"label": "Santo Domingo", "lat": 20.534249, "lng": -89.361975
},{
"label": "Xixil", "lat": 20.525761, "lng": -89.320449
},{
"label": "La Dolorosa", "lat": 20.541195, "lng": -89.358976
},{
"label": "Homola de los Reyes", "lat": 20.582494, "lng": -89.280016
},{
"label": "San Antonio", "lat": 20.534622, "lng": -89.23084
},{
"label": "San Pedro Xpacay", "lat": 20.539103, "lng": -89.365156
},{
"label": "Chakil", "lat": 20.543039, "lng": -89.243858
},{
"label": "Tekit", "lat": 20.533493, "lng": -89.333095
},{
"label": "Cabichén [Unidad Porcícola]", "lat": 20.535405, "lng": -89.30675
},{
"label": "San Gerónimo Telal", "lat": 20.591619, "lng": -89.155642
},{
"label": "Chac Luum", "lat": 20.523506, "lng": -89.212525
},{
"label": "Dolores Aké", "lat": 20.55176, "lng": -89.288396
},{
"label": "Chac-Teylá", "lat": 20.545711, "lng": -89.368713
},{
"label": "Suytunché", "lat": 20.621808, "lng": -89.24299
},{
"label": "Sacalum", "lat": 20.545369, "lng": -89.225604
},{
"label": "Chankax", "lat": 20.580845, "lng": -89.299752
},{
"label": "San Ignacio", "lat": 20.534548, "lng": -89.28208
},{
"label": "Santa Estela", "lat": 20.538785, "lng": -89.239868
},{
"label": "Benito Juárez", "lat": 20.552307, "lng": -89.362301
},{
"label": "Hopolá", "lat": 20.520593, "lng": -89.308059
},{
"label": "San Antonio Temozón", "lat": 20.60481, "lng": -89.237251
},{
"label": "Yaxic", "lat": 20.538331, "lng": -89.227732
}]