[{
"label": "Pichichén", "lat": 21.13533, "lng": -88.918219
},{
"label": "Sisbic", "lat": 21.109764, "lng": -88.730545
},{
"label": "San José", "lat": 21.150173, "lng": -88.823205
},{
"label": "El Tajo", "lat": 21.153168, "lng": -88.922344
},{
"label": "Cauaca", "lat": 21.156829, "lng": -89.009152
},{
"label": "San Felipe", "lat": 21.199058, "lng": -88.840004
},{
"label": "El Dorado", "lat": 21.185272, "lng": -88.836943
},{
"label": "Xpambihá", "lat": 21.176051, "lng": -88.973389
},{
"label": "Hobondzó", "lat": 21.16013, "lng": -88.921449
},{
"label": "San Diego", "lat": 21.176664, "lng": -88.961196
},{
"label": "Los Negros", "lat": 21.088346, "lng": -88.941341
},{
"label": "Chucmichén", "lat": 21.229594, "lng": -88.923186
},{
"label": "Buenavista", "lat": 21.138489, "lng": -88.800569
},{
"label": "Santa María de Guadalupe", "lat": 21.175428, "lng": -88.887914
},{
"label": "San Isidro", "lat": 21.143348, "lng": -88.915706
},{
"label": "Sambulá", "lat": 21.079492, "lng": -88.948136
},{
"label": "Chan Antonio Acosta", "lat": 21.206792, "lng": -88.856138
},{
"label": "La Guadalupe", "lat": 21.079677, "lng": -88.933349
},{
"label": "Chonkil", "lat": 21.16733, "lng": -88.824487
},{
"label": "San Alberto", "lat": 21.164834, "lng": -88.911092
},{
"label": "La Herradura", "lat": 21.273714, "lng": -88.860332
},{
"label": "Laurel", "lat": 21.250546, "lng": -88.837555
},{
"label": "El Naranjo", "lat": 21.182329, "lng": -88.875068
},{
"label": "San Luis", "lat": 21.159374, "lng": -88.922595
},{
"label": "Carolina", "lat": 21.076431, "lng": -88.966566
},{
"label": "Celaya", "lat": 21.137048, "lng": -88.908417
},{
"label": "Boox Toro", "lat": 21.199752, "lng": -88.93292
},{
"label": "San Miguel [Rancho]", "lat": 21.143036, "lng": -88.925337
},{
"label": "San Lorenzo", "lat": 21.180425, "lng": -88.905374
},{
"label": "San Pedro", "lat": 21.216231, "lng": -88.901931
},{
"label": "Zozaya", "lat": 21.15032, "lng": -88.957419
},{
"label": "Sucopó", "lat": 21.175663, "lng": -88.83348
},{
"label": "Santiago", "lat": 21.1453, "lng": -88.929484
},{
"label": "Candelaria", "lat": 21.105636, "lng": -88.944294
},{
"label": "Chunchechén", "lat": 21.153518, "lng": -88.868147
},{
"label": "Santa Cruz", "lat": 21.16006, "lng": -88.879428
},{
"label": "Balché", "lat": 21.080023, "lng": -88.93074
},{
"label": "Santa Rosa", "lat": 21.175753, "lng": -88.911287
},{
"label": "San Dimas", "lat": 21.110571, "lng": -88.927299
},{
"label": "X-Bohom", "lat": 21.176016, "lng": -88.897403
},{
"label": "San Antonio Cámara", "lat": 21.180064, "lng": -88.859668
},{
"label": "Temax Vegetales", "lat": 21.166056, "lng": -88.939862
},{
"label": "Chenché de las Torres", "lat": 21.131016, "lng": -88.98133
},{
"label": "Temax [Asociación Ganadera]", "lat": 21.134839, "lng": -88.938367
},{
"label": "Shan-Grila", "lat": 21.216159, "lng": -88.83388
},{
"label": "San Luis Castellanos", "lat": 21.133301, "lng": -88.947897
},{
"label": "San Martin Caballero [Rancho]", "lat": 21.079312, "lng": -88.943631
},{
"label": "San Martín", "lat": 21.170578, "lng": -88.883415
},{
"label": "Las Palmas", "lat": 21.159684, "lng": -88.942331
},{
"label": "Los Laureles", "lat": 21.204239, "lng": -88.938508
},{
"label": "Santa Isabel Dos", "lat": 21.176428, "lng": -88.891679
},{
"label": "Andrés Esquivel", "lat": 21.134512, "lng": -88.938856
},{
"label": "Santa Rita", "lat": 21.154029, "lng": -88.957773
},{
"label": "San Nicolás", "lat": 21.184209, "lng": -88.902887
},{
"label": "San Carlos", "lat": 21.177247, "lng": -88.96628
},{
"label": "Santa Isabel", "lat": 21.118221, "lng": -88.949256
},{
"label": "Tejón", "lat": 21.171189, "lng": -88.91953
},{
"label": "Chactún Puhuy", "lat": 21.077531, "lng": -88.757021
},{
"label": "Balixché", "lat": 21.15528, "lng": -88.974726
},{
"label": "Chenkú", "lat": 21.099287, "lng": -88.761343
},{
"label": "San Juan", "lat": 21.104414, "lng": -88.905629
},{
"label": "Santo Domingo", "lat": 21.186751, "lng": -88.90998
},{
"label": "Conchi Gamboa", "lat": 21.147367, "lng": -88.929679
},{
"label": "Sucuná", "lat": 21.122407, "lng": -88.780998
},{
"label": "San Eduardo", "lat": 21.186307, "lng": -88.889425
},{
"label": "Herradura Dos", "lat": 21.265713, "lng": -88.868787
},{
"label": "Vicente Cel", "lat": 21.168036, "lng": -88.954531
},{
"label": "X-Kábil", "lat": 21.179469, "lng": -88.938149
},{
"label": "X-Bajá", "lat": 21.19827, "lng": -88.849725
},{
"label": "Manuel Campos", "lat": 21.158248, "lng": -89.001004
},{
"label": "Nuevo San Isidro", "lat": 21.171026, "lng": -88.909268
},{
"label": "Kaytel", "lat": 21.144953, "lng": -88.802913
},{
"label": "San Manuel", "lat": 21.114739, "lng": -88.943787
},{
"label": "Diez Mil", "lat": 21.279629, "lng": -88.812555
},{
"label": "San Ignacio", "lat": 21.260022, "lng": -88.818244
},{
"label": "Crespo", "lat": 21.131161, "lng": -88.927233
},{
"label": "Noria", "lat": 21.156071, "lng": -88.897088
},{
"label": "Temax", "lat": 21.151841, "lng": -88.938634
},{
"label": "San Benito Juárez", "lat": 21.260738, "lng": -88.846715
},{
"label": "Buu Kaax", "lat": 21.21528, "lng": -88.932454
}]