[{
"label": "Carlos Castillo Puga", "lat": 20.900869, "lng": -89.740161
},{
"label": "Plantel Santa Rita", "lat": 20.911992, "lng": -89.736253
},{
"label": "Rafael Castillo", "lat": 20.903699, "lng": -89.739846
},{
"label": "Martha Balam", "lat": 20.871455, "lng": -89.726318
},{
"label": "San Miguel Arcángel", "lat": 20.851312, "lng": -89.672791
},{
"label": "Larc Industriales", "lat": 20.902598, "lng": -89.762603
},{
"label": "El Cedro", "lat": 20.875731, "lng": -89.794132
},{
"label": "Santa Julia", "lat": 20.876782, "lng": -89.79126
},{
"label": "El Retorno [Lavadero -Restaurante]", "lat": 20.838631, "lng": -89.749728
},{
"label": "San Alfonso", "lat": 20.80778, "lng": -89.809244
},{
"label": "Sac Nicté", "lat": 20.89717, "lng": -89.817329
},{
"label": "Don Fernando", "lat": 20.901671, "lng": -89.741801
},{
"label": "Los Potrillos", "lat": 20.877475, "lng": -89.788544
},{
"label": "Chaparral", "lat": 20.852945, "lng": -89.731107
},{
"label": "Hotzuc", "lat": 20.807065, "lng": -89.692576
},{
"label": "Sac-Nicté", "lat": 20.892079, "lng": -89.823981
},{
"label": "Kinchil [Granjas]", "lat": 20.877098, "lng": -89.765342
},{
"label": "La Tortuga", "lat": 20.874117, "lng": -89.763838
},{
"label": "Charlys", "lat": 20.83916, "lng": -89.782611
},{
"label": "Yaya", "lat": 20.840843, "lng": -89.782387
},{
"label": "Dzikuk", "lat": 20.895591, "lng": -89.758309
},{
"label": "José y Franklin Domínguez", "lat": 20.840982, "lng": -89.744666
},{
"label": "Villa Estela", "lat": 20.911181, "lng": -89.742999
},{
"label": "Kunché", "lat": 20.935949, "lng": -89.757221
},{
"label": "San Pedro Lara", "lat": 20.847426, "lng": -89.771406
},{
"label": "Mauricio Ché", "lat": 20.903081, "lng": -89.741653
},{
"label": "Santa Fe", "lat": 20.859312, "lng": -89.763685
},{
"label": "Bulucná", "lat": 20.859522, "lng": -89.881814
},{
"label": "Abraham Villareal", "lat": 20.857913, "lng": -89.762441
},{
"label": "Ninguno", "lat": 20.9003, "lng": -89.772618
},{
"label": "San Agustín", "lat": 20.87743, "lng": -89.790345
},{
"label": "Castillo", "lat": 20.876448, "lng": -89.779635
},{
"label": "Felipe Carrillo Puerto", "lat": 20.859838, "lng": -89.833317
},{
"label": "Coole-Cab", "lat": 20.819186, "lng": -89.80907
},{
"label": "Setenta y Siete DK", "lat": 20.897883, "lng": -89.769952
},{
"label": "Pedregales de Umán", "lat": 20.879386, "lng": -89.765042
},{
"label": "El Rey Uno", "lat": 20.877699, "lng": -89.77318
},{
"label": "Camilo", "lat": 20.88455, "lng": -89.762355
},{
"label": "Labná [Granja]", "lat": 20.883318, "lng": -89.817733
},{
"label": "William Montero Sáenz", "lat": 20.854508, "lng": -89.745079
},{
"label": "Umán", "lat": 20.88189, "lng": -89.748283
},{
"label": "Santa Clara", "lat": 20.870713, "lng": -89.768532
},{
"label": "Sureste [PCP]", "lat": 20.844575, "lng": -89.777665
},{
"label": "Oswaldo [Granja]", "lat": 20.878396, "lng": -89.780371
},{
"label": "Los Cocos", "lat": 20.898944, "lng": -89.773173
},{
"label": "El Retiro", "lat": 20.854378, "lng": -89.773657
},{
"label": "San Carlos", "lat": 20.859799, "lng": -89.868726
},{
"label": "Carlos Pérez", "lat": 20.898423, "lng": -89.769503
},{
"label": "Cheyen", "lat": 20.869634, "lng": -89.724116
},{
"label": "Humberto Miss", "lat": 20.868788, "lng": -89.723404
},{
"label": "Bolón", "lat": 20.849993, "lng": -89.832162
},{
"label": "El Rey", "lat": 20.87409, "lng": -89.727673
},{
"label": "Kal-Dzonot", "lat": 20.85003, "lng": -89.666637
},{
"label": "Concepción Tres", "lat": 20.872425, "lng": -89.72686
},{
"label": "Jorge Osorio", "lat": 20.899438, "lng": -89.741782
},{
"label": "Ticimul", "lat": 20.881358, "lng": -89.682027
},{
"label": "Efraín Lugo Galván [Gasolinera]", "lat": 20.878481, "lng": -89.773709
},{
"label": "Xcanchakán", "lat": 20.85758, "lng": -89.800119
},{
"label": "Mario Borges", "lat": 20.899094, "lng": -89.742187
},{
"label": "Chunchil", "lat": 20.858676, "lng": -89.741677
},{
"label": "Masul", "lat": 20.839079, "lng": -89.815329
},{
"label": "San Gerónimo", "lat": 20.741966, "lng": -89.717174
},{
"label": "Tebec", "lat": 20.844169, "lng": -89.707935
},{
"label": "Santa Cecilia", "lat": 20.851444, "lng": -89.744546
},{
"label": "José Baas Quintal", "lat": 20.903831, "lng": -89.740753
},{
"label": "Umán [Basurero Municipal]", "lat": 20.877896, "lng": -89.768395
},{
"label": "La Flor de Abigail [Vivero]", "lat": 20.899287, "lng": -89.770944
},{
"label": "Los Tres Marciales", "lat": 20.87038, "lng": -89.7246
},{
"label": "San Pablo Uno", "lat": 20.822861, "lng": -89.809849
},{
"label": "Umán [Almacén de Calcio]", "lat": 20.875813, "lng": -89.729948
},{
"label": "Manuel Pacheco", "lat": 20.900718, "lng": -89.740968
},{
"label": "San Marcos [Citrícola]", "lat": 20.837142, "lng": -89.787868
},{
"label": "La Aurora", "lat": 20.833884, "lng": -89.759776
},{
"label": "San Miguel", "lat": 20.864077, "lng": -89.7448
},{
"label": "Santo Tomás", "lat": 20.808409, "lng": -89.809378
},{
"label": "Nohoch Tunich", "lat": 20.819982, "lng": -89.786843
},{
"label": "Don Omar Uno", "lat": 20.879393, "lng": -89.731551
},{
"label": "Juan Morales [Granja]", "lat": 20.900367, "lng": -89.771163
},{
"label": "San Gregorio", "lat": 20.852191, "lng": -89.743182
},{
"label": "Apilandia", "lat": 20.881417, "lng": -89.774171
},{
"label": "Osmar Castillo", "lat": 20.90737, "lng": -89.74442
},{
"label": "Juan Chuc", "lat": 20.898218, "lng": -89.745281
},{
"label": "San Alberto", "lat": 20.828173, "lng": -89.813668
},{
"label": "Janet", "lat": 20.864684, "lng": -89.746303
},{
"label": "Chacté", "lat": 20.869156, "lng": -89.76445
},{
"label": "San Pablo Chail", "lat": 20.865186, "lng": -89.735866
},{
"label": "Chunchacá", "lat": 20.807831, "lng": -89.83827
},{
"label": "Eutimio Rodríguez Cauich", "lat": 20.856742, "lng": -89.748236
},{
"label": "Taníl", "lat": 20.891228, "lng": -89.70967
},{
"label": "El Girasol", "lat": 20.880267, "lng": -89.784239
},{
"label": "Oxholón [Granjas]", "lat": 20.876426, "lng": -89.818112
},{
"label": "Santa María", "lat": 20.87064, "lng": -89.722779
},{
"label": "Tok-Chacní", "lat": 20.842377, "lng": -89.746881
},{
"label": "El Roble Qually [Gasolinera]", "lat": 20.836866, "lng": -89.752117
},{
"label": "San Jorge", "lat": 20.87294, "lng": -89.762559
},{
"label": "El Polvorín", "lat": 20.842732, "lng": -89.736909
},{
"label": "Mayamix", "lat": 20.892503, "lng": -89.754538
},{
"label": "Blanca Flor", "lat": 20.85915, "lng": -89.74546
},{
"label": "Silvia María", "lat": 20.881341, "lng": -89.734423
},{
"label": "Lilos Tinal", "lat": 20.898701, "lng": -89.772473
},{
"label": "Don Omar", "lat": 20.876411, "lng": -89.731068
},{
"label": "Felipe Cámara", "lat": 20.847799, "lng": -89.672138
},{
"label": "Alimentos y Aderezos del Sureste", "lat": 20.849954, "lng": -89.744143
},{
"label": "Familia Ayala Chan", "lat": 20.85382, "lng": -89.708029
},{
"label": "San Martín", "lat": 20.856294, "lng": -89.839839
},{
"label": "Daniel Cituk", "lat": 20.903994, "lng": -89.739368
},{
"label": "San Pablo Dos", "lat": 20.831088, "lng": -89.810229
},{
"label": "May Gonzalo", "lat": 20.902785, "lng": -89.740228
},{
"label": "Reyes Xool", "lat": 20.869505, "lng": -89.725491
},{
"label": "Adolfo Durán", "lat": 20.868646, "lng": -89.723177
},{
"label": "Monte Oreb", "lat": 20.857138, "lng": -89.735524
},{
"label": "Sukuná", "lat": 20.862249, "lng": -89.744651
},{
"label": "El Establo", "lat": 20.903749, "lng": -89.806903
},{
"label": "San Antonio Uno", "lat": 20.902252, "lng": -89.775828
},{
"label": "Pedregal de San Antonio", "lat": 20.852621, "lng": -89.734465
},{
"label": "Nana", "lat": 20.878904, "lng": -89.781938
},{
"label": "Sanjor [Talleres]", "lat": 20.86024, "lng": -89.762307
},{
"label": "Pretenzados", "lat": 20.85848, "lng": -89.706897
},{
"label": "San Francisco Cortez", "lat": 20.861205, "lng": -89.735095
},{
"label": "El Limonar", "lat": 20.850085, "lng": -89.745119
},{
"label": "Chentoro", "lat": 20.838014, "lng": -89.751596
},{
"label": "San Manuel", "lat": 20.969532, "lng": -89.761227
},{
"label": "Hunxectamán", "lat": 20.908047, "lng": -89.738736
},{
"label": "Ninguno [REPSA]", "lat": 20.894785, "lng": -89.757599
},{
"label": "San Darío", "lat": 20.852798, "lng": -89.744479
},{
"label": "Oxcum", "lat": 20.945705, "lng": -89.763699
},{
"label": "Castaño [Rancho]", "lat": 20.859086, "lng": -89.662664
},{
"label": "El Paraíso", "lat": 20.834823, "lng": -89.74195
},{
"label": "Xcucul Sur", "lat": 20.856951, "lng": -89.671701
},{
"label": "Xtepén", "lat": 20.823167, "lng": -89.743324
},{
"label": "San Diego", "lat": 20.857826, "lng": -89.744084
},{
"label": "Chitolín", "lat": 20.900375, "lng": -89.774738
},{
"label": "San Isidro", "lat": 20.83315, "lng": -89.837646
},{
"label": "Los Santos", "lat": 20.902235, "lng": -89.740491
},{
"label": "Saturno", "lat": 20.88176, "lng": -89.771754
},{
"label": "Santa Teresa", "lat": 20.898714, "lng": -89.743044
},{
"label": "Mérida Dos", "lat": 20.885298, "lng": -89.692276
},{
"label": "César Cisneros", "lat": 20.867094, "lng": -89.721621
},{
"label": "María del Carmen González Trujeque", "lat": 20.838243, "lng": -89.748213
},{
"label": "Disuresa", "lat": 20.878497, "lng": -89.761581
},{
"label": "Doña Teresa", "lat": 20.871435, "lng": -89.724864
},{
"label": "Arturo Canché", "lat": 20.896897, "lng": -89.772185
},{
"label": "José Perfecto Baas", "lat": 20.903268, "lng": -89.740828
},{
"label": "Yaya I", "lat": 20.838809, "lng": -89.784424
},{
"label": "San Pedro [Granja]", "lat": 20.845303, "lng": -89.774242
},{
"label": "San Fernando", "lat": 20.825013, "lng": -89.794694
},{
"label": "Carlos Castillo", "lat": 20.856343, "lng": -89.740993
},{
"label": "Tío Enrique", "lat": 20.877544, "lng": -89.785761
},{
"label": "Santa Vicenta", "lat": 20.810243, "lng": -89.809737
},{
"label": "Lol-Há", "lat": 20.857437, "lng": -89.760588
},{
"label": "Tres Reyes", "lat": 20.835873, "lng": -89.740373
},{
"label": "Los Casanovas", "lat": 20.91236, "lng": -89.743687
},{
"label": "Ya-Há", "lat": 20.837798, "lng": -89.790715
},{
"label": "Los Potros", "lat": 20.860907, "lng": -89.677095
},{
"label": "Las Palmas", "lat": 20.901324, "lng": -89.77482
},{
"label": "Las Dalias", "lat": 20.904955, "lng": -89.78956
},{
"label": "San Lorencito", "lat": 20.81151, "lng": -89.736841
},{
"label": "Yaxcopoil", "lat": 20.745554, "lng": -89.722021
},{
"label": "Santa Rita", "lat": 20.864434, "lng": -89.745511
},{
"label": "Juan Negrón", "lat": 20.899194, "lng": -89.771142
},{
"label": "Nidia Mireya", "lat": 20.881569, "lng": -89.73498
},{
"label": "Bolón Uno", "lat": 20.851943, "lng": -89.838585
},{
"label": "Hilario Santos", "lat": 20.898934, "lng": -89.741944
},{
"label": "San Antonio", "lat": 20.90093, "lng": -89.787573
},{
"label": "José Uitz", "lat": 20.877738, "lng": -89.721255
},{
"label": "El Nazareno", "lat": 20.847707, "lng": -89.744174
},{
"label": "El Refugio", "lat": 20.815039, "lng": -89.738939
},{
"label": "Rastro Kekén", "lat": 20.856924, "lng": -89.768629
},{
"label": "El Porvenir", "lat": 20.88259, "lng": -89.777493
},{
"label": "La Finquita", "lat": 20.810157, "lng": -89.737284
},{
"label": "San José", "lat": 20.852662, "lng": -89.758364
},{
"label": "El Esfuerzo", "lat": 20.851174, "lng": -89.776368
},{
"label": "San Alfredo", "lat": 20.879048, "lng": -89.791625
},{
"label": "Cutberto Godoy Cano", "lat": 20.898528, "lng": -89.769776
},{
"label": "San Emilio", "lat": 20.853498, "lng": -89.736498
},{
"label": "San Andrés", "lat": 20.825166, "lng": -89.797367
},{
"label": "Chacho Lugo [Lienzo Charro]", "lat": 20.865797, "lng": -89.745337
},{
"label": "Yaxchilán [Granja de Peces]", "lat": 20.804532, "lng": -89.812068
},{
"label": "Parque Mueblero", "lat": 20.899966, "lng": -89.7684
},{
"label": "Irma Xool", "lat": 20.878957, "lng": -89.728247
},{
"label": "La Huerta", "lat": 20.877603, "lng": -89.766201
},{
"label": "El Toro", "lat": 20.832313, "lng": -89.761389
},{
"label": "Cab Balam", "lat": 20.852563, "lng": -89.657623
},{
"label": "Carolina Poot Montero", "lat": 20.871974, "lng": -89.725769
},{
"label": "San Antonio Chimal", "lat": 20.884334, "lng": -89.732512
},{
"label": "Poxilá", "lat": 20.818354, "lng": -89.804794
},{
"label": "Calan Estrella", "lat": 20.840696, "lng": -89.746867
},{
"label": "El Emporio", "lat": 20.858798, "lng": -89.744642
},{
"label": "El Zacatal", "lat": 20.870101, "lng": -89.722505
},{
"label": "Sinaí", "lat": 20.856439, "lng": -89.74436
},{
"label": "Las Veletas [Rancho]", "lat": 20.901433, "lng": -89.739913
},{
"label": "Manuel Guillen", "lat": 20.835691, "lng": -89.752915
},{
"label": "Perfecto", "lat": 20.904414, "lng": -89.740708
},{
"label": "Agrosol [Unidad Productiva]", "lat": 20.879888, "lng": -89.769298
},{
"label": "San Pedro", "lat": 20.867496, "lng": -89.755766
},{
"label": "La Pollita", "lat": 20.908656, "lng": -89.743579
},{
"label": "Japay", "lat": 20.871681, "lng": -89.726896
},{
"label": "Santa Teresita", "lat": 20.880535, "lng": -89.732252
},{
"label": "Los Padrinos", "lat": 20.849111, "lng": -89.666811
},{
"label": "Manuel Jesús Canul Chan", "lat": 20.875376, "lng": -89.790836
},{
"label": "San Eliodoro", "lat": 20.871613, "lng": -89.72596
},{
"label": "San Antonio Chum", "lat": 20.877251, "lng": -89.860119
},{
"label": "Pastoral del Amor", "lat": 20.815458, "lng": -89.740274
},{
"label": "Las Teresitas", "lat": 20.91173, "lng": -89.745736
},{
"label": "Santa Cruz", "lat": 20.883532, "lng": -89.763608
},{
"label": "Petec Biltún", "lat": 20.828238, "lng": -89.686755
},{
"label": "Dogre", "lat": 20.903833, "lng": -89.741815
},{
"label": "Santa Elena", "lat": 20.868657, "lng": -89.722385
},{
"label": "Chilib", "lat": 20.877811, "lng": -89.791793
},{
"label": "San Felipe de Jesús", "lat": 20.856674, "lng": -89.760031
},{
"label": "San Dimas", "lat": 20.879924, "lng": -89.777858
},{
"label": "Ninguno [UGRY]", "lat": 20.853553, "lng": -89.768056
},{
"label": "Refugio", "lat": 20.832943, "lng": -89.787949
},{
"label": "Oxholón", "lat": 20.875428, "lng": -89.807595
},{
"label": "Fausto José", "lat": 20.856314, "lng": -89.736235
},{
"label": "San Pablo", "lat": 20.849922, "lng": -89.707224
},{
"label": "El Argentino", "lat": 20.903624, "lng": -89.743873
},{
"label": "San Antonio Mulix", "lat": 20.668447, "lng": -89.754168
},{
"label": "Las Bugambilias", "lat": 20.87698, "lng": -89.791727
},{
"label": "Dzibikak", "lat": 20.900681, "lng": -89.793898
},{
"label": "Sanjor Uno", "lat": 20.864434, "lng": -89.759006
},{
"label": "Los Laureles", "lat": 20.872153, "lng": -89.729219
},{
"label": "El Gran Esfuerzo", "lat": 20.895711, "lng": -89.769573
},{
"label": "Don Trinidad", "lat": 20.882308, "lng": -89.734747
},{
"label": "La Palapa", "lat": 20.836916, "lng": -89.742966
},{
"label": "Ninguno [Granja]", "lat": 20.833602, "lng": -89.788949
},{
"label": "Don Jalisco [Freddy]", "lat": 20.878597, "lng": -89.728442
},{
"label": "Florentina Pool Canché", "lat": 20.841421, "lng": -89.780584
},{
"label": "San Marcos", "lat": 20.868366, "lng": -89.860847
},{
"label": "El Xut", "lat": 20.84964, "lng": -89.668438
},{
"label": "Lázaro Cárdenas Veintiséis", "lat": 20.828598, "lng": -89.810495
},{
"label": "Kincil", "lat": 20.914941, "lng": -89.74864
},{
"label": "San Juan", "lat": 20.900981, "lng": -89.741068
},{
"label": "San Gabriel", "lat": 20.87638, "lng": -89.789698
},{
"label": "Provi Purina", "lat": 20.879211, "lng": -89.781222
},{
"label": "Productos de Concreto Peninsulares [Procon]", "lat": 20.861794, "lng": -89.719361
},{
"label": "La Esperanza", "lat": 20.912139, "lng": -89.738305
},{
"label": "Miguel Camacho", "lat": 20.863786, "lng": -89.745917
},{
"label": "Silvestre Cantún", "lat": 20.904102, "lng": -89.7409
},{
"label": "La Guadalupana", "lat": 20.878937, "lng": -89.722341
},{
"label": "Los Kiau", "lat": 20.941139, "lng": -89.760448
},{
"label": "Eduardo Euán", "lat": 20.903726, "lng": -89.739353
},{
"label": "Rablalicana", "lat": 20.861866, "lng": -89.679309
},{
"label": "D'Carlos [Granjas]", "lat": 20.855756, "lng": -89.742687
},{
"label": "Xcansap", "lat": 20.843049, "lng": -89.769633
},{
"label": "San Esteban", "lat": 20.840693, "lng": -89.785593
},{
"label": "Francisco Montero", "lat": 20.846239, "lng": -89.748769
},{
"label": "Peschen Han [Granja de Peces]", "lat": 20.805459, "lng": -89.80942
},{
"label": "San José Uno", "lat": 20.856232, "lng": -89.83691
},{
"label": "Badsan", "lat": 20.876115, "lng": -89.792845
},{
"label": "San Antonio Homodzonot", "lat": 20.854736, "lng": -89.777389
},{
"label": "Américo", "lat": 20.916638, "lng": -89.733897
},{
"label": "San Mateo", "lat": 20.898073, "lng": -89.772083
}]