[{
"label": "Campo Santa Rosa", "lat": 25.400831, "lng": -108.518048
},{
"label": "Los Arbolitos", "lat": 25.582329, "lng": -108.665895
},{
"label": "Campo el Burrión", "lat": 25.527408, "lng": -108.413979
},{
"label": "Ninguno [Empaque Agrícola Alex]", "lat": 25.675806, "lng": -108.651194
},{
"label": "Ninguno [Ramón Castro]", "lat": 25.63285, "lng": -108.609467
},{
"label": "Ejido Figueroa", "lat": 25.679736, "lng": -108.656559
},{
"label": "Campo Chamony", "lat": 25.617219, "lng": -108.546164
},{
"label": "La Diez", "lat": 25.827348, "lng": -108.76078
},{
"label": "Las Higueritas", "lat": 25.619362, "lng": -108.416297
},{
"label": "Campo el Socoyote", "lat": 25.543846, "lng": -108.333452
},{
"label": "Campo Dieciséis", "lat": 25.487398, "lng": -108.268677
},{
"label": "Ninguno [Luiso Gastélum]", "lat": 25.658467, "lng": -108.566431
},{
"label": "La Noria", "lat": 25.707463, "lng": -108.490641
},{
"label": "Los Hornos Número Uno (Salsipuedes)", "lat": 25.666262, "lng": -108.49021
},{
"label": "Tres Marías", "lat": 25.314105, "lng": -108.443087
},{
"label": "Armenta [Agrícola]", "lat": 25.560811, "lng": -108.21621
},{
"label": "Campo Cielo", "lat": 25.429274, "lng": -108.505419
},{
"label": "Los Manguitos", "lat": 25.551561, "lng": -108.427114
},{
"label": "Guasave", "lat": 25.565547, "lng": -108.471818
},{
"label": "Ninguno [Florencio Escalante Quintero]", "lat": 25.598511, "lng": -108.666729
},{
"label": "Tragusa Express [Transportes de Carga]", "lat": 25.638891, "lng": -108.586498
},{
"label": "Plan del Río", "lat": 25.59396, "lng": -108.425579
},{
"label": "La Huerta (Los Juncos)", "lat": 25.752386, "lng": -108.763147
},{
"label": "Ninguno [Exportadora de Productos Bovinos]", "lat": 25.626366, "lng": -108.726197
},{
"label": "Chino de los López", "lat": 25.500324, "lng": -108.425975
},{
"label": "Las Playas (La Palma)", "lat": 25.395885, "lng": -108.42274
},{
"label": "Ninguno [Carlos Sotelo]", "lat": 25.422479, "lng": -108.42655
},{
"label": "Campo Sánchez", "lat": 25.618233, "lng": -108.503667
},{
"label": "El Macapule", "lat": 25.551947, "lng": -108.357498
},{
"label": "El Nudo", "lat": 25.580503, "lng": -108.481689
},{
"label": "San Marcial", "lat": 25.572925, "lng": -108.215413
},{
"label": "La Línea", "lat": 25.583248, "lng": -108.562059
},{
"label": "Ninguno", "lat": 25.450944, "lng": -108.313578
},{
"label": "Ninguno [Prajedes]", "lat": 25.652148, "lng": -108.619071
},{
"label": "Campo Don Emilio", "lat": 25.718306, "lng": -108.737272
},{
"label": "El Varali", "lat": 25.600399, "lng": -108.29355
},{
"label": "Ampliación Petatlán", "lat": 25.561434, "lng": -108.494341
},{
"label": "El Varal (San Sebastián Número Uno)", "lat": 25.643865, "lng": -108.425098
},{
"label": "La Cuerda", "lat": 25.671744, "lng": -108.394086
},{
"label": "El Carpintero", "lat": 25.510872, "lng": -108.243895
},{
"label": "Las Crucecitas", "lat": 25.580908, "lng": -108.437315
},{
"label": "El Palomo [Rancho]", "lat": 25.459788, "lng": -108.485653
},{
"label": "El Zopilote", "lat": 25.747532, "lng": -108.35095
},{
"label": "Campo Murrieta", "lat": 25.720179, "lng": -108.782821
},{
"label": "San Román", "lat": 25.573231, "lng": -108.495019
},{
"label": "La Florida", "lat": 25.592911, "lng": -108.461725
},{
"label": "El Huitussi", "lat": 25.509794, "lng": -108.775429
},{
"label": "Roberto Barrios", "lat": 25.525738, "lng": -108.614784
},{
"label": "El Olvido", "lat": 25.46413, "lng": -108.431206
},{
"label": "Agrícola Franjamín", "lat": 25.559274, "lng": -108.587428
},{
"label": "El Pato", "lat": 25.569921, "lng": -108.498508
},{
"label": "Campo la Once", "lat": 25.586715, "lng": -108.642773
},{
"label": "Ninguno [Refugio Ochoa]", "lat": 25.675044, "lng": -108.495383
},{
"label": "Ninguno [Miguel Eugenio Zamora Lugo]", "lat": 25.722472, "lng": -108.342709
},{
"label": "Sector la Cruz", "lat": 25.590026, "lng": -108.495791
},{
"label": "Ninguno [Jesús Alfredo Gálvez Leal]", "lat": 25.611656, "lng": -108.693094
},{
"label": "El Pochote", "lat": 25.450736, "lng": -108.339749
},{
"label": "El Batallón", "lat": 25.483593, "lng": -108.375878
},{
"label": "Las Palmitas", "lat": 25.627961, "lng": -108.425923
},{
"label": "La Aceituna", "lat": 25.719463, "lng": -108.409999
},{
"label": "El Queretano", "lat": 25.667069, "lng": -108.470031
},{
"label": "Agroquimicos JAM", "lat": 25.74271, "lng": -108.78127
},{
"label": "Macochín", "lat": 25.629827, "lng": -108.854483
},{
"label": "Ninguno [Julián Cervantes Valverde]", "lat": 25.531517, "lng": -108.490667
},{
"label": "Palos Dulces", "lat": 25.529069, "lng": -108.497234
},{
"label": "Las Bugambilias [Finca]", "lat": 25.591975, "lng": -108.432393
},{
"label": "Campo Dimas", "lat": 25.517438, "lng": -108.472289
},{
"label": "Cubilete Número Dos", "lat": 25.439528, "lng": -108.604154
},{
"label": "Casa de la Comisión", "lat": 25.603468, "lng": -108.467465
},{
"label": "Sodi [Productora Agrícola]", "lat": 25.513397, "lng": -108.505639
},{
"label": "Rumbo al Río", "lat": 25.632844, "lng": -108.399028
},{
"label": "Volkart [Despepitadora Algodonera]", "lat": 25.719267, "lng": -108.738411
},{
"label": "El Bacatete (San Pascual)", "lat": 25.423302, "lng": -108.377858
},{
"label": "Agua Blancona (Agua Blanca)", "lat": 25.56781, "lng": -108.532867
},{
"label": "Ninguno [Guillermo Quiñones]", "lat": 25.634605, "lng": -108.734426
},{
"label": "El Sabino", "lat": 25.687023, "lng": -108.391324
},{
"label": "Boca del Río", "lat": 25.28701, "lng": -108.498168
},{
"label": "Santa Lorena", "lat": 25.513332, "lng": -108.278928
},{
"label": "Ninguno [Empresa Longoria]", "lat": 25.682259, "lng": -108.667982
},{
"label": "Vicente Guerrero", "lat": 25.480881, "lng": -108.369551
},{
"label": "Ninguno [Rancho Adriana]", "lat": 25.601657, "lng": -108.536158
},{
"label": "Canal Alto", "lat": 25.735274, "lng": -108.702892
},{
"label": "Valle de Huyaqui (Los Solares)", "lat": 25.394233, "lng": -108.33279
},{
"label": "Los Ciruelos", "lat": 25.425551, "lng": -108.432689
},{
"label": "Las Pilas", "lat": 25.428927, "lng": -108.44
},{
"label": "15 de Octubre", "lat": 25.518433, "lng": -108.216344
},{
"label": "San Joachín", "lat": 25.552578, "lng": -108.494046
},{
"label": "Las Playitas", "lat": 25.661484, "lng": -108.414219
},{
"label": "Campo el Porvenir", "lat": 25.724169, "lng": -108.735042
},{
"label": "Las Pitahayitas", "lat": 25.467634, "lng": -108.424859
},{
"label": "Ninguno [Alberto Carabeo]", "lat": 25.576174, "lng": -108.600245
},{
"label": "Los Peñuelas", "lat": 25.54902, "lng": -108.651592
},{
"label": "El Rocío", "lat": 25.733217, "lng": -108.763231
},{
"label": "Sergio León [Campo]", "lat": 25.76552, "lng": -108.709895
},{
"label": "Ninguno [Chilera]", "lat": 25.645299, "lng": -108.703008
},{
"label": "El Comodín", "lat": 25.649056, "lng": -108.490278
},{
"label": "Los Manguitos (Recursos Viejos)", "lat": 25.553947, "lng": -108.42642
},{
"label": "El Burrión", "lat": 25.539268, "lng": -108.41102
},{
"label": "Unidad de Servicios Integrales (USI)", "lat": 25.697711, "lng": -108.72949
},{
"label": "La Cien", "lat": 25.679231, "lng": -108.739806
},{
"label": "Adolfo Ruiz Cortines", "lat": 25.70458, "lng": -108.718141
},{
"label": "Las Compuertas", "lat": 25.453583, "lng": -108.366589
},{
"label": "Sacramento", "lat": 25.647895, "lng": -108.623631
},{
"label": "Ninguno [José Alberto López Beltrán]", "lat": 25.519511, "lng": -108.544676
},{
"label": "Campo Real", "lat": 25.707461, "lng": -108.452458
},{
"label": "Campo Bórquez", "lat": 25.555739, "lng": -108.532672
},{
"label": "Ninguno [Gilberto Gastélum]", "lat": 25.588838, "lng": -108.707761
},{
"label": "Campo Méndez", "lat": 25.550655, "lng": -108.343725
},{
"label": "Cadena", "lat": 25.704689, "lng": -108.74765
},{
"label": "El Perihuete", "lat": 25.204382, "lng": -108.375238
},{
"label": "Ninguno [Impulsora Venta de Amoniaco]", "lat": 25.675469, "lng": -108.673172
},{
"label": "El Girasol", "lat": 25.695544, "lng": -108.731086
},{
"label": "La Cuchilla", "lat": 25.586231, "lng": -108.428897
},{
"label": "Dorado Número Tres (Doradito)", "lat": 25.46391, "lng": -108.53531
},{
"label": "Santa María", "lat": 25.639269, "lng": -108.627664
},{
"label": "El Crucero", "lat": 25.440536, "lng": -108.578218
},{
"label": "La Cuestona (La Cuesta)", "lat": 25.462189, "lng": -108.443283
},{
"label": "Tecomate", "lat": 25.538537, "lng": -108.468708
},{
"label": "Ninguno [Lupita Rojo]", "lat": 25.686953, "lng": -108.517653
},{
"label": "Campo los Topitos", "lat": 25.782108, "lng": -108.742783
},{
"label": "San Pascual", "lat": 25.428927, "lng": -108.376821
},{
"label": "Ninguno [José Julia]", "lat": 25.511307, "lng": -108.215601
},{
"label": "24 de Agosto", "lat": 25.611081, "lng": -108.502603
},{
"label": "Instituto Tecnológico Superior de Guasave", "lat": 25.522477, "lng": -108.38015
},{
"label": "La Covadonga", "lat": 25.449022, "lng": -108.541978
},{
"label": "El Arroyo", "lat": 25.672098, "lng": -108.442067
},{
"label": "Las Higueras (Las Flores)", "lat": 25.36891, "lng": -108.453621
},{
"label": "Choipa Dos", "lat": 25.638573, "lng": -108.295734
},{
"label": "Cinco de Mayo (Agua Blanca)", "lat": 25.634416, "lng": -108.58352
},{
"label": "El Mezquital", "lat": 25.598968, "lng": -108.531178
},{
"label": "El Campito", "lat": 25.598616, "lng": -108.535354
},{
"label": "La 19", "lat": 25.623863, "lng": -108.537769
},{
"label": "Ejido los Pinitos", "lat": 25.67939, "lng": -108.525733
},{
"label": "La Ceiba", "lat": 25.628136, "lng": -108.566607
},{
"label": "Canal 21", "lat": 25.603976, "lng": -108.533363
},{
"label": "Chipotles Brunos", "lat": 25.609088, "lng": -108.647185
},{
"label": "Las Culebras", "lat": 25.393656, "lng": -108.545407
},{
"label": "San Martín", "lat": 25.60801, "lng": -108.309025
},{
"label": "Rufino Félix [Campo]", "lat": 25.761175, "lng": -108.808738
},{
"label": "Ninguno [Low Saille Federico]", "lat": 25.688658, "lng": -108.757242
},{
"label": "Uno", "lat": 25.423741, "lng": -108.487165
},{
"label": "El Vergel", "lat": 25.597302, "lng": -108.345711
},{
"label": "Las Flores", "lat": 25.385026, "lng": -108.540427
},{
"label": "El Cubilete (El Cubilete Número Uno)", "lat": 25.479726, "lng": -108.518033
},{
"label": "La Cruz", "lat": 25.577262, "lng": -108.501717
},{
"label": "El Progreso", "lat": 25.433416, "lng": -108.590698
},{
"label": "Las Margaritas Dos", "lat": 25.745196, "lng": -108.707076
},{
"label": "Miguel Alemán", "lat": 25.615591, "lng": -108.804337
},{
"label": "Las Quemazones", "lat": 25.686884, "lng": -108.450523
},{
"label": "Campo Valdéz", "lat": 25.763008, "lng": -108.410242
},{
"label": "Miguel Hidalgo", "lat": 25.453179, "lng": -108.548218
},{
"label": "El Platanito", "lat": 25.550531, "lng": -108.316939
},{
"label": "Estación Capomas", "lat": 25.602121, "lng": -108.224008
},{
"label": "Ninguno [Noé Rubio]", "lat": 25.533371, "lng": -108.408739
},{
"label": "Campito Sánchez", "lat": 25.473666, "lng": -108.32537
},{
"label": "Campo San Miguel", "lat": 25.470458, "lng": -108.395165
},{
"label": "Los García", "lat": 25.680782, "lng": -108.501304
},{
"label": "Ninguno [Enrique Luna]", "lat": 25.622644, "lng": -108.706564
},{
"label": "Ninguno [Antonio Zazueta]", "lat": 25.58631, "lng": -108.720727
},{
"label": "Ninguno [Jesús Melendrez Castro]", "lat": 25.643604, "lng": -108.39215
},{
"label": "El Encanto", "lat": 25.616406, "lng": -108.310997
},{
"label": "Ranchito de Doña Yaya", "lat": 25.607287, "lng": -108.469512
},{
"label": "La Bebelama", "lat": 25.478513, "lng": -108.48987
},{
"label": "El Venado", "lat": 25.56919, "lng": -108.426374
},{
"label": "Rancho Martha", "lat": 25.580728, "lng": -108.490211
},{
"label": "Las Juntitas de Valdez", "lat": 25.617536, "lng": -108.463362
},{
"label": "Ninguno [José Alberto Urías Peñuelas]", "lat": 25.607001, "lng": -108.60626
},{
"label": "Caimanero", "lat": 25.607522, "lng": -108.441386
},{
"label": "Kilómetro 45", "lat": 25.757634, "lng": -108.707077
},{
"label": "San Valentín", "lat": 25.561186, "lng": -108.518489
},{
"label": "Los Guayacanes", "lat": 25.549927, "lng": -108.537661
},{
"label": "Serrano", "lat": 25.718317, "lng": -108.739144
},{
"label": "Ninguno [Motel]", "lat": 25.608008, "lng": -108.525669
},{
"label": "Tapachula", "lat": 25.530208, "lng": -108.515562
},{
"label": "El Paraíso", "lat": 25.634777, "lng": -108.699832
},{
"label": "Campo del Chepe", "lat": 25.465939, "lng": -108.382763
},{
"label": "La Gloria", "lat": 25.426801, "lng": -108.495095
},{
"label": "Villahermosa", "lat": 25.510171, "lng": -108.362942
},{
"label": "Campo Acuña", "lat": 25.707744, "lng": -108.791315
},{
"label": "El Amolito", "lat": 25.623506, "lng": -108.470389
},{
"label": "Ninguno [Aerofumigaciones Valdez]", "lat": 25.644517, "lng": -108.751272
},{
"label": "El Chamizal", "lat": 25.332098, "lng": -108.463637
},{
"label": "Las Moras", "lat": 25.658184, "lng": -108.4571
},{
"label": "Las Parritas", "lat": 25.618144, "lng": -108.620622
},{
"label": "Santa Lucía", "lat": 25.543471, "lng": -108.309726
},{
"label": "El Cerro Cabezón", "lat": 25.565599, "lng": -108.856458
},{
"label": "Ladrilleras de San Pedro", "lat": 25.530809, "lng": -108.463549
},{
"label": "General Emiliano Zapata", "lat": 25.530079, "lng": -108.710808
},{
"label": "Héroes Mexicanos", "lat": 25.767133, "lng": -108.750867
},{
"label": "El Pitahayal", "lat": 25.470779, "lng": -108.367083
},{
"label": "El Ninguno", "lat": 25.702853, "lng": -108.40602
},{
"label": "Sánchez [Campo]", "lat": 25.809607, "lng": -108.772133
},{
"label": "Cabreritas", "lat": 25.673571, "lng": -108.419792
},{
"label": "Campo Hilario", "lat": 25.425645, "lng": -108.615896
},{
"label": "Francisco R. Serrano", "lat": 25.53497, "lng": -108.217387
},{
"label": "La Virgencita (Lindavista)", "lat": 25.605175, "lng": -108.5205
},{
"label": "Ninguno [Marisol Leyva López]", "lat": 25.569164, "lng": -108.532163
},{
"label": "La Chuparrosa", "lat": 25.541688, "lng": -108.544969
},{
"label": "Campo Montemayor", "lat": 25.617558, "lng": -108.509437
},{
"label": "Ninguno [Eligio Leal]", "lat": 25.45055, "lng": -108.469611
},{
"label": "La Huerta [María Rita]", "lat": 25.648772, "lng": -108.621417
},{
"label": "Campo el Jito", "lat": 25.502833, "lng": -108.514569
},{
"label": "Ninguno [Antonio Castro]", "lat": 25.625781, "lng": -108.408331
},{
"label": "San Rafael (General Miguel Valle Dávalos)", "lat": 25.494054, "lng": -108.305433
},{
"label": "El Vallado", "lat": 25.732857, "lng": -108.31904
},{
"label": "Campo Santa Elena (Las Delicias)", "lat": 25.597453, "lng": -108.586808
},{
"label": "Campo Filipinas", "lat": 25.521679, "lng": -108.520488
},{
"label": "Valle Verde", "lat": 25.609153, "lng": -108.524208
},{
"label": "Rancho JM", "lat": 25.637646, "lng": -108.411941
},{
"label": "San Ramón", "lat": 25.475508, "lng": -108.382683
},{
"label": "El Bombeo", "lat": 25.638658, "lng": -108.66455
},{
"label": "Camagüey (Campo Bórquez)", "lat": 25.648108, "lng": -108.531825
},{
"label": "Mendívil", "lat": 25.551784, "lng": -108.695735
},{
"label": "Manuel Aguilar", "lat": 25.512033, "lng": -108.548151
},{
"label": "San Pedro Paredes", "lat": 25.533084, "lng": -108.439909
},{
"label": "Agua Blancona", "lat": 25.572254, "lng": -108.534951
},{
"label": "El Sol", "lat": 25.681683, "lng": -108.744314
},{
"label": "Buenos Aires", "lat": 25.403948, "lng": -108.422535
},{
"label": "Napalá", "lat": 25.41571, "lng": -108.519727
},{
"label": "Campo Quince", "lat": 25.485341, "lng": -108.275913
},{
"label": "El Pochote (Potrerillos)", "lat": 25.471689, "lng": -108.302273
},{
"label": "La Mojonera", "lat": 25.472269, "lng": -108.447001
},{
"label": "Campo la Provincia", "lat": 25.600256, "lng": -108.5243
},{
"label": "Los Ángeles del Triunfo", "lat": 25.606598, "lng": -108.470704
},{
"label": "San Antonio", "lat": 25.544931, "lng": -108.55304
},{
"label": "Rosales", "lat": 25.331754, "lng": -108.461553
},{
"label": "Los Olivos", "lat": 25.541112, "lng": -108.451474
},{
"label": "Alamito Caimanero", "lat": 25.305544, "lng": -108.466023
},{
"label": "El Serranito", "lat": 25.558124, "lng": -108.230562
},{
"label": "Víctor Angulo [Rancho]", "lat": 25.499979, "lng": -108.430961
},{
"label": "El Choyal", "lat": 25.377735, "lng": -108.44881
},{
"label": "La Familia", "lat": 25.721594, "lng": -108.524148
},{
"label": "Casa María", "lat": 25.446533, "lng": -108.53608
},{
"label": "El Alacrán", "lat": 25.672812, "lng": -108.317928
},{
"label": "La Trinidad", "lat": 25.729554, "lng": -108.481121
},{
"label": "Las Cañadas Número Dos", "lat": 25.474896, "lng": -108.594871
},{
"label": "Ninguno [Ignacio Urías]", "lat": 25.704958, "lng": -108.614042
},{
"label": "Ejido la Entrada (El Poblado)", "lat": 25.596202, "lng": -108.581688
},{
"label": "Corerepe [Huerta]", "lat": 25.620866, "lng": -108.717548
},{
"label": "Ninguno [FERGUSA]", "lat": 25.736164, "lng": -108.353149
},{
"label": "Ladrilleras de Ocoro", "lat": 25.596498, "lng": -108.45061
},{
"label": "Campo Berrelleza", "lat": 25.373356, "lng": -108.446239
},{
"label": "El Porvenir", "lat": 25.554266, "lng": -108.567542
},{
"label": "Norotío (El Gato)", "lat": 25.604533, "lng": -108.333964
},{
"label": "Florencio Angulo", "lat": 25.723367, "lng": -108.390372
},{
"label": "Corrales de Roberto Llanes", "lat": 25.496674, "lng": -108.258227
},{
"label": "Ninguno [Radaméz Bórquez]", "lat": 25.673711, "lng": -108.651478
},{
"label": "Las Cachanillas [Agrícola]", "lat": 25.439632, "lng": -108.526351
},{
"label": "Ejido Chorohui", "lat": 25.508303, "lng": -108.64945
},{
"label": "El Trompo", "lat": 25.486028, "lng": -108.382203
},{
"label": "Casal", "lat": 25.685694, "lng": -108.759431
},{
"label": "Campo Preciado", "lat": 25.567957, "lng": -108.503771
},{
"label": "Campo Padilla", "lat": 25.784777, "lng": -108.723635
},{
"label": "Ohuira", "lat": 25.526589, "lng": -108.400611
},{
"label": "El Gatillo", "lat": 25.620031, "lng": -108.525495
},{
"label": "La Once", "lat": 25.655905, "lng": -108.617543
},{
"label": "Campo el Mayo", "lat": 25.508925, "lng": -108.359093
},{
"label": "Los Gavilanes", "lat": 25.607804, "lng": -108.348018
},{
"label": "El Dulce", "lat": 25.656162, "lng": -108.525
},{
"label": "Flor de Mayo", "lat": 25.532792, "lng": -108.660809
},{
"label": "Las Tortugas", "lat": 25.510765, "lng": -108.502317
},{
"label": "El Ajestreo", "lat": 25.670639, "lng": -108.723623
},{
"label": "Bamoa", "lat": 25.707489, "lng": -108.343274
},{
"label": "Cuatro Vientos", "lat": 25.469816, "lng": -108.348639
},{
"label": "El Tecate", "lat": 25.330846, "lng": -108.436443
},{
"label": "Ejido Callejón de Tamazula", "lat": 25.533166, "lng": -108.701739
},{
"label": "Los Álamos", "lat": 25.575359, "lng": -108.452397
},{
"label": "El Toro", "lat": 25.566531, "lng": -108.425284
},{
"label": "La Huerta", "lat": 25.724692, "lng": -108.333482
},{
"label": "Las Ladrilleras del Burrión", "lat": 25.550214, "lng": -108.423229
},{
"label": "Las Américas", "lat": 25.588339, "lng": -108.31042
},{
"label": "Ninguno [Guadalupe Espinoza]", "lat": 25.674781, "lng": -108.49625
},{
"label": "Ninguno [Epitacio Vences Guzmán]", "lat": 25.748291, "lng": -108.765012
},{
"label": "Doña Barbara", "lat": 25.509405, "lng": -108.539839
},{
"label": "Dos Margaritas (Fátima)", "lat": 25.643194, "lng": -108.670569
},{
"label": "El Khalil [Villa]", "lat": 25.627692, "lng": -108.565856
},{
"label": "Ninguno [Abraham Gastélum]", "lat": 25.589244, "lng": -108.729188
},{
"label": "Ranchito de Inzunza", "lat": 25.643756, "lng": -108.467245
},{
"label": "La Abundancia", "lat": 25.702933, "lng": -108.327116
},{
"label": "Ranchito de Caimanero (Infiernito)", "lat": 25.604148, "lng": -108.454731
},{
"label": "Las Juntas de Chamicari", "lat": 25.683432, "lng": -108.425621
},{
"label": "Rocha", "lat": 25.664022, "lng": -108.508333
},{
"label": "Campo San Alfonso", "lat": 25.555097, "lng": -108.288697
},{
"label": "El Coloradito", "lat": 25.505753, "lng": -108.717562
},{
"label": "Ninguno [Rancho]", "lat": 25.572137, "lng": -108.540155
},{
"label": "La Tristeza", "lat": 25.481629, "lng": -108.429749
},{
"label": "Guayparime", "lat": 25.739589, "lng": -108.77188
},{
"label": "El Baja", "lat": 25.685956, "lng": -108.675431
},{
"label": "Campo Japonés [Campo Diecisiete]", "lat": 25.604115, "lng": -108.582459
},{
"label": "Las Pitahayas", "lat": 25.634747, "lng": -108.457379
},{
"label": "Campo Tololo", "lat": 25.59804, "lng": -108.665871
},{
"label": "Ninguno [Sinforoso Meza Cuevas]", "lat": 25.551506, "lng": -108.523625
},{
"label": "Ninguno [Álvaro Rosas Álvarez]", "lat": 25.689792, "lng": -108.757808
},{
"label": "Campo Valencia", "lat": 25.535868, "lng": -108.643425
},{
"label": "Campo de Peñuelas", "lat": 25.479886, "lng": -108.406063
},{
"label": "Santa Cruz", "lat": 25.612316, "lng": -108.691254
},{
"label": "Santa Elena", "lat": 25.430114, "lng": -108.485079
},{
"label": "Colonia Paul", "lat": 25.487084, "lng": -108.301431
},{
"label": "Campo Ignacio Beltrán", "lat": 25.587647, "lng": -108.557885
},{
"label": "San Judas", "lat": 25.681772, "lng": -108.762517
},{
"label": "Torihuia", "lat": 25.484454, "lng": -108.507808
},{
"label": "Las Cañadas Número Uno", "lat": 25.428183, "lng": -108.535183
},{
"label": "El Sifón", "lat": 25.682241, "lng": -108.632654
},{
"label": "Cofradía de Tamazula (La Cofradía)", "lat": 25.488769, "lng": -108.447085
},{
"label": "Kilómetro Ciento Cuarenta y Uno", "lat": 25.551064, "lng": -108.420116
},{
"label": "San Francisco de Capomos", "lat": 25.607402, "lng": -108.18956
},{
"label": "Ejido Charco Largo", "lat": 25.535872, "lng": -108.271683
},{
"label": "El Tepache", "lat": 25.624014, "lng": -108.490403
},{
"label": "El Carrizal", "lat": 25.402935, "lng": -108.436709
},{
"label": "Bacatuquira", "lat": 25.391151, "lng": -108.4826
},{
"label": "Las Bugambilias", "lat": 25.604654, "lng": -108.604639
},{
"label": "Buen Retiro (El Retiro)", "lat": 25.463814, "lng": -108.477797
},{
"label": "El Caracol", "lat": 25.492866, "lng": -108.745821
},{
"label": "Los Laureles", "lat": 25.567284, "lng": -108.685229
},{
"label": "El Reparo", "lat": 25.604517, "lng": -108.214633
},{
"label": "Los Tejones", "lat": 25.667986, "lng": -108.327
},{
"label": "Norotíos Cuba", "lat": 25.578743, "lng": -108.301303
},{
"label": "La Macarena", "lat": 25.536317, "lng": -108.356051
},{
"label": "Casas Grandes", "lat": 25.651438, "lng": -108.550498
},{
"label": "El Huitussi y Anexos (El Huitussito)", "lat": 25.643899, "lng": -108.691443
},{
"label": "Las Colonias (Colonia Ángel Flores)", "lat": 25.408925, "lng": -108.35716
},{
"label": "San Juan", "lat": 25.569811, "lng": -108.656684
},{
"label": "San Gabriel", "lat": 25.529054, "lng": -108.474424
},{
"label": "Los Hornos Número Dos", "lat": 25.535309, "lng": -108.705898
},{
"label": "Las Guásimas", "lat": 25.584287, "lng": -108.527202
},{
"label": "Campo Figueroa", "lat": 25.625382, "lng": -108.639637
},{
"label": "Nío", "lat": 25.624687, "lng": -108.399062
},{
"label": "Campo Álamos", "lat": 25.664145, "lng": -108.715243
},{
"label": "Javier Rojo Gómez", "lat": 25.493933, "lng": -108.376433
},{
"label": "Ninguno [Güilo Chal]", "lat": 25.699532, "lng": -108.497361
},{
"label": "La Entrada Vieja", "lat": 25.586911, "lng": -108.568739
},{
"label": "Los Cuates", "lat": 25.532472, "lng": -108.253037
},{
"label": "El Chinal", "lat": 25.571883, "lng": -108.433806
},{
"label": "Bebidas Mundiales [Coca-Cola]", "lat": 25.593406, "lng": -108.501792
},{
"label": "El Mixteco [Agrícola]", "lat": 25.679933, "lng": -108.740953
},{
"label": "Santa Veneranda", "lat": 25.731891, "lng": -108.729356
},{
"label": "Campo las Carmelitas", "lat": 25.562215, "lng": -108.60943
},{
"label": "Agua Blanca", "lat": 25.56535, "lng": -108.536656
},{
"label": "El Tanque", "lat": 25.739799, "lng": -108.323468
},{
"label": "Las Glorias", "lat": 25.294617, "lng": -108.516966
},{
"label": "Ninguno [Teresita Ramos]", "lat": 25.696811, "lng": -108.695864
},{
"label": "Vihnos", "lat": 25.722264, "lng": -108.758406
},{
"label": "Las Choyitas", "lat": 25.675703, "lng": -108.407049
},{
"label": "San José de la Brecha", "lat": 25.343448, "lng": -108.439472
},{
"label": "Ejido Chino de los López", "lat": 25.641274, "lng": -108.34488
},{
"label": "Productora y Comercializadora Acuícola", "lat": 25.497473, "lng": -108.740789
},{
"label": "Tres de Mayo (Nombre Feo)", "lat": 25.407263, "lng": -108.438114
},{
"label": "San Pedro Guasave (El Ranchito)", "lat": 25.536416, "lng": -108.456528
},{
"label": "Campo Zazueta", "lat": 25.408465, "lng": -108.536243
},{
"label": "Chorohui", "lat": 25.518117, "lng": -108.461633
},{
"label": "Las Cuchillas", "lat": 25.497134, "lng": -108.301247
},{
"label": "San Francisco de Capomos (El Charro)", "lat": 25.617238, "lng": -108.279506
},{
"label": "Los Potrillos", "lat": 25.556996, "lng": -108.675056
},{
"label": "Ninguno [Juan Lugo]", "lat": 25.523651, "lng": -108.60518
},{
"label": "La Diecisiete", "lat": 25.6337, "lng": -108.562014
},{
"label": "Campo Torres", "lat": 25.655906, "lng": -108.754847
},{
"label": "La Curva", "lat": 25.548659, "lng": -108.317334
},{
"label": "Ninguno [Héctor Ruiz López]", "lat": 25.540918, "lng": -108.494806
},{
"label": "Los Añiles", "lat": 25.533756, "lng": -108.557342
},{
"label": "Los Ángeles", "lat": 25.602911, "lng": -108.483734
},{
"label": "San Cristóbal", "lat": 25.697921, "lng": -108.729091
},{
"label": "Campo las Margaritas", "lat": 25.751528, "lng": -108.707371
},{
"label": "El Sartenejal", "lat": 25.482489, "lng": -108.384063
},{
"label": "Campo los Ochoa", "lat": 25.539928, "lng": -108.635937
},{
"label": "Campo Treinta y Uno", "lat": 25.468892, "lng": -108.508253
},{
"label": "La Pelti", "lat": 25.667703, "lng": -108.412743
},{
"label": "El Papachal", "lat": 25.386022, "lng": -108.461156
},{
"label": "San Luis", "lat": 25.741086, "lng": -108.747214
},{
"label": "Rancho AAA", "lat": 25.572923, "lng": -108.328897
},{
"label": "Ranchito de Castro", "lat": 25.58889, "lng": -108.41777
},{
"label": "Bonanza", "lat": 25.436389, "lng": -108.507643
},{
"label": "Río Viejo", "lat": 25.377094, "lng": -108.433336
},{
"label": "El Brujo", "lat": 25.663736, "lng": -108.749955
},{
"label": "Campo Sinaloa", "lat": 25.579157, "lng": -108.366892
},{
"label": "Campo Santa Isabel", "lat": 25.513937, "lng": -108.380931
},{
"label": "El Toruno", "lat": 25.735285, "lng": -108.452252
},{
"label": "Ninguno [Oscar Durán]", "lat": 25.695129, "lng": -108.729905
},{
"label": "Campo Tajín", "lat": 25.536978, "lng": -108.483446
},{
"label": "San Bernardo", "lat": 25.451866, "lng": -108.319073
},{
"label": "Rancho Palafox", "lat": 25.678286, "lng": -108.50051
},{
"label": "Herculano de la Rocha", "lat": 25.628174, "lng": -108.309769
},{
"label": "Nío Dos", "lat": 25.58068, "lng": -108.357668
},{
"label": "Cuatro Caminos", "lat": 25.662996, "lng": -108.489779
},{
"label": "Arquímedes [Granja Acuícola]", "lat": 25.529953, "lng": -108.529631
},{
"label": "Campo el Vergel", "lat": 25.59321, "lng": -108.657174
},{
"label": "Volando [Agrícola]", "lat": 25.72595, "lng": -108.756327
},{
"label": "El Realito (El Realito del Amole)", "lat": 25.384304, "lng": -108.426851
},{
"label": "Campo de Salvador Llanes", "lat": 25.472768, "lng": -108.304281
},{
"label": "Adriana", "lat": 25.642258, "lng": -108.694922
},{
"label": "Casa Blanca", "lat": 25.430745, "lng": -108.424444
},{
"label": "Cruz Blanca", "lat": 25.670861, "lng": -108.374396
},{
"label": "El Colorado", "lat": 25.524323, "lng": -108.43414
},{
"label": "Campo Treinta y Ocho", "lat": 25.808679, "lng": -108.746434
},{
"label": "Ejido Treinta y Ochito", "lat": 25.77556, "lng": -108.743436
},{
"label": "Ninguno [Humberto Escalante]", "lat": 25.641821, "lng": -108.651094
},{
"label": "Callejones de Guasavito", "lat": 25.572418, "lng": -108.445182
},{
"label": "San Eleno", "lat": 25.541271, "lng": -108.337677
},{
"label": "La Isleta", "lat": 25.452204, "lng": -108.484223
},{
"label": "Orba (Infiernito)", "lat": 25.686418, "lng": -108.364938
},{
"label": "La Pichihuila", "lat": 25.539448, "lng": -108.304843
},{
"label": "San Carlos", "lat": 25.545502, "lng": -108.567649
},{
"label": "Tepatoche", "lat": 25.671922, "lng": -108.544983
},{
"label": "Sabanillas del Burrión", "lat": 25.546293, "lng": -108.418141
},{
"label": "El Empalme", "lat": 25.615673, "lng": -108.504149
},{
"label": "Los Juncos", "lat": 25.756281, "lng": -108.759399
},{
"label": "Campo Villa Verde", "lat": 25.52909, "lng": -108.346033
},{
"label": "Campo Rochín", "lat": 25.506058, "lng": -108.326799
},{
"label": "Campo la Suiza", "lat": 25.593589, "lng": -108.529759
},{
"label": "Charco Largo", "lat": 25.519996, "lng": -108.303385
},{
"label": "Gabriel Leyva Solano (Benito Juárez)", "lat": 25.664331, "lng": -108.638586
},{
"label": "Rancho la Rivereña", "lat": 25.573029, "lng": -108.498054
},{
"label": "Ninguno [Juan Domínguez]", "lat": 25.651819, "lng": -108.619528
},{
"label": "El Dorado Número Uno", "lat": 25.504845, "lng": -108.461314
},{
"label": "Santa Anita", "lat": 25.441783, "lng": -108.385829
},{
"label": "Tapachula (Los Chapos)", "lat": 25.533, "lng": -108.522017
},{
"label": "La Trescientos", "lat": 25.676459, "lng": -108.812639
},{
"label": "Tamazula III", "lat": 25.432574, "lng": -108.554809
},{
"label": "El Yaqui", "lat": 25.641517, "lng": -108.580153
},{
"label": "Agrícola los Alazanes", "lat": 25.486724, "lng": -108.330259
},{
"label": "El Bajío", "lat": 25.452902, "lng": -108.450386
},{
"label": "Campo los Pinitos", "lat": 25.484043, "lng": -108.344021
},{
"label": "El Capi", "lat": 25.51345, "lng": -108.316658
},{
"label": "24 de Febrero", "lat": 25.646289, "lng": -108.648603
},{
"label": "Campo Inzunza", "lat": 25.531917, "lng": -108.481953
},{
"label": "El Cercón", "lat": 25.578477, "lng": -108.422724
},{
"label": "Campo Salivas", "lat": 25.601203, "lng": -108.524911
},{
"label": "Ninguno [Basurón Municipal]", "lat": 25.525195, "lng": -108.535368
},{
"label": "Campo Mascareño", "lat": 25.585134, "lng": -108.340271
},{
"label": "Campo las Chivas", "lat": 25.636314, "lng": -108.815026
},{
"label": "Granja Silvano Gaxiola", "lat": 25.26782, "lng": -108.426263
},{
"label": "El Güily", "lat": 25.551369, "lng": -108.342402
},{
"label": "Norotillos", "lat": 25.649997, "lng": -108.313055
},{
"label": "Sacrificio", "lat": 25.40314, "lng": -108.302507
},{
"label": "Ninguno [Graciela Beltrán]", "lat": 25.491014, "lng": -108.539876
},{
"label": "Frayre", "lat": 25.678808, "lng": -108.513808
},{
"label": "La Higuerita", "lat": 25.404734, "lng": -108.433165
},{
"label": "Ninguno [Dolores]", "lat": 25.70125, "lng": -108.452458
},{
"label": "El Mezquitón", "lat": 25.552916, "lng": -108.581361
},{
"label": "Campo Mizocami", "lat": 25.623344, "lng": -108.639143
},{
"label": "Vicente Godinez", "lat": 25.48989, "lng": -108.540597
},{
"label": "Ninguno [Erik García]", "lat": 25.663483, "lng": -108.522269
},{
"label": "Ninguno [Polo López]", "lat": 25.546739, "lng": -108.506092
},{
"label": "Cuatro Milpas", "lat": 25.639594, "lng": -108.559869
},{
"label": "Ninguno [Gloria Carlón]", "lat": 25.728258, "lng": -108.389992
},{
"label": "La Colonia", "lat": 25.346588, "lng": -108.460454
},{
"label": "Las Joyitas", "lat": 25.561721, "lng": -108.429904
},{
"label": "Carlos León [Campo]", "lat": 25.768816, "lng": -108.707802
},{
"label": "Campo Crucero [Campo Díaz]", "lat": 25.523148, "lng": -108.500912
},{
"label": "El Tortugo", "lat": 25.408089, "lng": -108.649126
},{
"label": "Ninguno [Jesús Flores]", "lat": 25.575638, "lng": -108.740103
},{
"label": "El Dorado Número Dos", "lat": 25.507659, "lng": -108.595754
},{
"label": "Crucero de Bamoa", "lat": 25.714674, "lng": -108.329585
},{
"label": "Rancho Viejo", "lat": 25.257311, "lng": -108.421583
},{
"label": "Pueblo Viejo", "lat": 25.615886, "lng": -108.414114
},{
"label": "Rancho Victoria", "lat": 25.443197, "lng": -108.534796
},{
"label": "Campo la Escopeta (El Tirador)", "lat": 25.572113, "lng": -108.34915
},{
"label": "Las Cruces", "lat": 25.514589, "lng": -108.377563
},{
"label": "Isla la Ventana", "lat": 25.490765, "lng": -108.804642
},{
"label": "Ninguno [José Abraham Lichter]", "lat": 25.631103, "lng": -108.564975
},{
"label": "Ninguno [Los González]", "lat": 25.763098, "lng": -108.711381
},{
"label": "Santa Teresa de los Olivos (El Pinito)", "lat": 25.664995, "lng": -108.518514
},{
"label": "Tepaturi", "lat": 25.671831, "lng": -108.5152
},{
"label": "Estación Bamoa (Campo Wilson)", "lat": 25.705456, "lng": -108.313695
},{
"label": "El Sacrificio", "lat": 25.427348, "lng": -108.631364
},{
"label": "La Escalera", "lat": 25.632864, "lng": -108.472159
},{
"label": "Las Huertas", "lat": 25.495681, "lng": -108.506539
},{
"label": "Ninguno [Rosario Barajas García]", "lat": 25.629056, "lng": -108.402939
},{
"label": "Campo las Gaviotas", "lat": 25.612887, "lng": -108.512383
},{
"label": "La Guamuchilera", "lat": 25.491061, "lng": -108.470377
},{
"label": "Santa Eduwiges", "lat": 25.566055, "lng": -108.375014
},{
"label": "Productos Rio Sinaloa [Venta de Amoniaco]", "lat": 25.451031, "lng": -108.467879
},{
"label": "Los Garañones", "lat": 25.372412, "lng": -108.427818
},{
"label": "Ricardo Flores Magón (La Aceituna)", "lat": 25.599958, "lng": -108.258673
},{
"label": "Gambino", "lat": 25.652378, "lng": -108.386909
},{
"label": "El Amole", "lat": 25.387936, "lng": -108.440249
},{
"label": "Portugués de Gálvez", "lat": 25.727737, "lng": -108.395936
},{
"label": "Ninguno [Agrícola]", "lat": 25.512656, "lng": -108.474319
},{
"label": "Campo Yory", "lat": 25.520303, "lng": -108.50214
},{
"label": "Terranova", "lat": 25.712436, "lng": -108.742697
},{
"label": "La Poza", "lat": 25.717364, "lng": -108.35305
},{
"label": "San José de Palos Blancos (Palos Blancos)", "lat": 25.549341, "lng": -108.328989
},{
"label": "San José de Guayparime", "lat": 25.59136, "lng": -108.519249
},{
"label": "Ninguno [Martin Lugo]", "lat": 25.661644, "lng": -108.502744
},{
"label": "Tamazula", "lat": 25.446849, "lng": -108.450673
},{
"label": "Campo San José de Guayparime", "lat": 25.599228, "lng": -108.537491
},{
"label": "Campo Esperanza", "lat": 25.534776, "lng": -108.486503
},{
"label": "Los Ébanos", "lat": 25.540926, "lng": -108.508019
},{
"label": "Ninguno [Cornelio Leyva]", "lat": 25.568939, "lng": -108.689928
},{
"label": "La Palmita", "lat": 25.746949, "lng": -108.337808
},{
"label": "Jesús María", "lat": 25.518229, "lng": -108.447575
},{
"label": "La Dos", "lat": 25.657697, "lng": -108.778227
},{
"label": "Tejiahua", "lat": 25.529492, "lng": -108.387755
},{
"label": "El Rosario", "lat": 25.662105, "lng": -108.774474
},{
"label": "Ninguno [Félix Carrillo]", "lat": 25.607662, "lng": -108.682132
},{
"label": "La Bomba Borqueña", "lat": 25.56674, "lng": -108.529253
},{
"label": "Juan Ramón Godinez", "lat": 25.487699, "lng": -108.536426
},{
"label": "Bachoco", "lat": 25.696374, "lng": -108.812815
},{
"label": "Choipa", "lat": 25.626783, "lng": -108.312046
},{
"label": "La Bomba", "lat": 25.736515, "lng": -108.462455
},{
"label": "Palos Verdes", "lat": 25.379532, "lng": -108.458218
},{
"label": "Buenavista", "lat": 25.473565, "lng": -108.558801
},{
"label": "Las Chabelas (Isabel Valenzuela)", "lat": 25.542309, "lng": -108.565164
},{
"label": "Campo Guasadeli", "lat": 25.683355, "lng": -108.669358
},{
"label": "22-15 [Campo Pesquero]", "lat": 25.500954, "lng": -108.741409
},{
"label": "Campo San Francisco (La Pitahaya)", "lat": 25.506888, "lng": -108.330771
},{
"label": "Ninguno [Guadalupe Aguilar Quintero]", "lat": 25.64183, "lng": -108.591967
},{
"label": "Ninguno [Graciela Melendres]", "lat": 25.678894, "lng": -108.500153
},{
"label": "Campo Santa Teresa", "lat": 25.56305, "lng": -108.316198
},{
"label": "Ninguno [Eleazar Zamora Domínguez]", "lat": 25.49335, "lng": -108.538342
},{
"label": "Ninguno [Los Félix]", "lat": 25.519453, "lng": -108.730497
},{
"label": "Los Gaspar", "lat": 25.328196, "lng": -108.436455
},{
"label": "Palos Blancos", "lat": 25.530375, "lng": -108.270535
},{
"label": "Guamuchilito", "lat": 25.547824, "lng": -108.391683
},{
"label": "Campo la Pizarra", "lat": 25.607544, "lng": -108.579746
},{
"label": "Campo Tres Marías [Campo Gusano]", "lat": 25.45825, "lng": -108.405153
},{
"label": "Campo América", "lat": 25.511551, "lng": -108.345457
},{
"label": "Bugambilias", "lat": 25.733811, "lng": -108.751275
},{
"label": "Ninguno [Jorge García]", "lat": 25.598539, "lng": -108.539725
},{
"label": "Ninguno [Juan Rodríguez]", "lat": 25.585028, "lng": -108.643342
},{
"label": "Ninguno [Aéreo Agrícola]", "lat": 25.744758, "lng": -108.779042
},{
"label": "Asociación de Agricultores de Río Sinaloa Poniente [Granos]", "lat": 25.737852, "lng": -108.353885
},{
"label": "Palmarito de los Angulo", "lat": 25.537414, "lng": -108.248378
},{
"label": "La Quince", "lat": 25.576532, "lng": -108.623507
},{
"label": "Cuesta de Arriba", "lat": 25.467399, "lng": -108.445099
},{
"label": "El Borrego", "lat": 25.466996, "lng": -108.508577
},{
"label": "Ninguno [Ignacio González]", "lat": 25.631322, "lng": -108.610628
},{
"label": "La Escondida", "lat": 25.628364, "lng": -108.479475
},{
"label": "Figueroa [Agrícola]", "lat": 25.609119, "lng": -108.648754
},{
"label": "San Fernando", "lat": 25.557069, "lng": -108.608246
},{
"label": "Ninguno [Froilán Espinoza Cruz]", "lat": 25.637975, "lng": -108.410539
},{
"label": "Ninguno [Huerta]", "lat": 25.623748, "lng": -108.514385
},{
"label": "Agua Escondida", "lat": 25.543843, "lng": -108.527569
},{
"label": "Utatave (Mautillos)", "lat": 25.613722, "lng": -108.549839
},{
"label": "Campo Rojo", "lat": 25.627282, "lng": -108.519076
},{
"label": "La Sabanilla [Campo Preciado]", "lat": 25.557511, "lng": -108.510183
},{
"label": "El Huarache", "lat": 25.438402, "lng": -108.290065
},{
"label": "Campo Cadena", "lat": 25.757864, "lng": -108.758775
},{
"label": "Callejones de Tamazula", "lat": 25.446537, "lng": -108.4388
},{
"label": "Ejido el Tecomate", "lat": 25.575847, "lng": -108.356616
},{
"label": "Campo Aranas", "lat": 25.499398, "lng": -108.422158
},{
"label": "Ninguno [Jaime Armenta]", "lat": 25.496958, "lng": -108.436453
},{
"label": "Cubiri (Cubiri del Amole)", "lat": 25.397082, "lng": -108.436742
},{
"label": "El Cachoras", "lat": 25.647575, "lng": -108.622217
},{
"label": "Emilio Portes Gil (Agua Blanca)", "lat": 25.576593, "lng": -108.543869
},{
"label": "Campo Cuba", "lat": 25.443143, "lng": -108.428267
},{
"label": "Cuty Orrantia", "lat": 25.572867, "lng": -108.490892
},{
"label": "El Cerco", "lat": 25.664, "lng": -108.462711
},{
"label": "Las Palmas", "lat": 25.66895, "lng": -108.567983
},{
"label": "Ninguno [Rancho Aurora]", "lat": 25.590155, "lng": -108.500776
},{
"label": "Las Moritas", "lat": 25.711896, "lng": -108.404774
},{
"label": "Los Mangos", "lat": 25.724388, "lng": -108.386746
},{
"label": "Ninguno [Alejandro Chávez]", "lat": 25.644019, "lng": -108.557725
},{
"label": "El Ranchito", "lat": 25.600653, "lng": -108.832801
},{
"label": "Ninguno [Luis Enrique Espinoza López]", "lat": 25.439501, "lng": -108.552869
},{
"label": "Ninguno [Forja Produce]", "lat": 25.633147, "lng": -108.487019
},{
"label": "Ninguno [Jorge Escalante]", "lat": 25.378259, "lng": -108.420638
},{
"label": "Ninguno [Hugo Carrillo]", "lat": 25.577779, "lng": -108.633962
},{
"label": "Penal Federal", "lat": 25.525043, "lng": -108.532003
},{
"label": "Guasavito", "lat": 25.558829, "lng": -108.435498
},{
"label": "Campo Papateodoro (Manolitsa)", "lat": 25.490489, "lng": -108.574217
},{
"label": "El Parián", "lat": 25.417666, "lng": -108.479858
},{
"label": "La Esmeralda", "lat": 25.498038, "lng": -108.375546
},{
"label": "Los Tesitos", "lat": 25.514444, "lng": -108.256024
},{
"label": "La Maroma", "lat": 25.69192, "lng": -108.511695
},{
"label": "El Quelele", "lat": 25.508919, "lng": -108.742111
},{
"label": "San Fernandito", "lat": 25.572176, "lng": -108.530447
},{
"label": "El Guayabo", "lat": 25.429872, "lng": -108.506672
},{
"label": "Las Brisas (Emiliano Zapata)", "lat": 25.488146, "lng": -108.246971
},{
"label": "Las Piedras", "lat": 25.556978, "lng": -108.589811
},{
"label": "Las Cruces del Pitahayal", "lat": 25.462938, "lng": -108.391382
},{
"label": "Las Águilas", "lat": 25.684178, "lng": -108.565944
},{
"label": "Tomatodo", "lat": 25.484789, "lng": -108.191852
},{
"label": "León Fonseca (Estación Verdura)", "lat": 25.730113, "lng": -108.344258
},{
"label": "La Zenaida", "lat": 25.620036, "lng": -108.686471
},{
"label": "La Treinta", "lat": 25.621099, "lng": -108.553269
},{
"label": "La 300", "lat": 25.512259, "lng": -108.503943
},{
"label": "Ninguno [Campo de Anda Mata]", "lat": 25.585248, "lng": -108.639722
},{
"label": "San José [Agrícola]", "lat": 25.579647, "lng": -108.632822
},{
"label": "Guazarca", "lat": 25.490825, "lng": -108.517166
},{
"label": "Diluguía [Agrícola]", "lat": 25.596928, "lng": -108.663866
},{
"label": "Campo San Javier", "lat": 25.465126, "lng": -108.337449
},{
"label": "Campo el Hermano", "lat": 25.425185, "lng": -108.32924
},{
"label": "Ninguno [Emidio Castro]", "lat": 25.743732, "lng": -108.366905
},{
"label": "El Alto", "lat": 25.375118, "lng": -108.4569
},{
"label": "Ninguno [Los García]", "lat": 25.681988, "lng": -108.413042
},{
"label": "Emilio Portes Gil", "lat": 25.589906, "lng": -108.563389
},{
"label": "El Aparecido", "lat": 25.783861, "lng": -108.705759
},{
"label": "Ejido Abelardo L. Rodríguez", "lat": 25.723981, "lng": -108.527768
},{
"label": "Pochotíos", "lat": 25.334069, "lng": -108.43649
},{
"label": "Rancho Mi Chuy", "lat": 25.565811, "lng": -108.431038
},{
"label": "Ninguno [Fernando Urías]", "lat": 25.649625, "lng": -108.620947
},{
"label": "Rancho la Primavera", "lat": 25.467393, "lng": -108.508043
},{
"label": "Calderón", "lat": 25.527006, "lng": -108.713789
},{
"label": "Ninguno [Ramón Flores Piña]", "lat": 25.711237, "lng": -108.335162
},{
"label": "Ninguno [Pedro]", "lat": 25.505388, "lng": -108.487819
},{
"label": "Carboneras", "lat": 25.707843, "lng": -108.377948
},{
"label": "Ninguno [Erasmo Dagnino Báez]", "lat": 25.637347, "lng": -108.398631
},{
"label": "Agroproductores Cadena", "lat": 25.708843, "lng": -108.766172
},{
"label": "El Cuitabón", "lat": 25.619805, "lng": -108.434777
},{
"label": "Juan José Ríos", "lat": 25.755127, "lng": -108.820839
},{
"label": "La Rosa Morada", "lat": 25.419613, "lng": -108.361395
},{
"label": "Ninguno [Baltazar Contreras]", "lat": 25.602943, "lng": -108.433985
},{
"label": "La Rosita", "lat": 25.540272, "lng": -108.538964
},{
"label": "La Uva", "lat": 25.497164, "lng": -108.448377
},{
"label": "El Soto de los López", "lat": 25.437603, "lng": -108.490024
},{
"label": "Conserva La Costeña", "lat": 25.643329, "lng": -108.588813
},{
"label": "Campo Avitia", "lat": 25.564538, "lng": -108.363491
},{
"label": "Tierra y Libertad", "lat": 25.399841, "lng": -108.610571
},{
"label": "Maximiliano R. López (El Pochote)", "lat": 25.441452, "lng": -108.607121
},{
"label": "Campo las Palmas", "lat": 25.719247, "lng": -108.783301
},{
"label": "Campo Casa Blanca", "lat": 25.502278, "lng": -108.326127
},{
"label": "Campo Yolanda", "lat": 25.481839, "lng": -108.353498
},{
"label": "Terahuito", "lat": 25.55081, "lng": -108.322
},{
"label": "La Doscientos", "lat": 25.787457, "lng": -108.785739
},{
"label": "Campo Santa Martha", "lat": 25.624568, "lng": -108.567661
},{
"label": "Campo los Lie", "lat": 25.54573, "lng": -108.290264
},{
"label": "Lázaro Cárdenas del Río", "lat": 25.640003, "lng": -108.392575
},{
"label": "La Pitahaya", "lat": 25.313178, "lng": -108.52656
},{
"label": "Babujaqui", "lat": 25.739285, "lng": -108.774029
},{
"label": "Tahuilana (El Chorizo)", "lat": 25.656633, "lng": -108.33156
},{
"label": "El Tres", "lat": 25.665457, "lng": -108.525501
},{
"label": "El 23", "lat": 25.600792, "lng": -108.515098
},{
"label": "Campo las Flores", "lat": 25.46232, "lng": -108.393393
},{
"label": "El Puro Campo", "lat": 25.61459, "lng": -108.527312
},{
"label": "Ranchito de Zavala", "lat": 25.718611, "lng": -108.321187
},{
"label": "Ninguno [Efraín Vega Cota]", "lat": 25.712464, "lng": -108.345308
},{
"label": "Uepica Marcelo Loya [Granos]", "lat": 25.671629, "lng": -108.515703
},{
"label": "Las Isabeles", "lat": 25.633518, "lng": -108.654217
},{
"label": "Campo Macucho", "lat": 25.497345, "lng": -108.345005
},{
"label": "El Marcol", "lat": 25.497314, "lng": -108.51474
},{
"label": "Rancho San Antonio", "lat": 25.702004, "lng": -108.452307
},{
"label": "El Campesino", "lat": 25.695783, "lng": -108.685901
},{
"label": "Miguel Hidalgo [Pista Aérea]", "lat": 25.449329, "lng": -108.54471
},{
"label": "Los Tigrillos", "lat": 25.417774, "lng": -108.553317
},{
"label": "Campo la Soledad", "lat": 25.523575, "lng": -108.330129
},{
"label": "Ninguno [Granja]", "lat": 25.592378, "lng": -108.501844
},{
"label": "Cota y  Cota", "lat": 25.698672, "lng": -108.774678
},{
"label": "La Providencia (Guayparime)", "lat": 25.593933, "lng": -108.522255
},{
"label": "Corerepe (El Gallo)", "lat": 25.627005, "lng": -108.715922
},{
"label": "Las Cañadas Viejas", "lat": 25.403621, "lng": -108.506333
},{
"label": "Agricola Valle Grande", "lat": 25.657189, "lng": -108.662083
},{
"label": "San Sebastián Número Dos", "lat": 25.673473, "lng": -108.398564
},{
"label": "Campo la Palma", "lat": 25.601736, "lng": -108.595171
},{
"label": "Campo las Golondrinas", "lat": 25.430112, "lng": -108.32232
},{
"label": "Carricitos", "lat": 25.357628, "lng": -108.461582
},{
"label": "Cuernavaca", "lat": 25.527131, "lng": -108.262583
},{
"label": "El Milagro", "lat": 25.655361, "lng": -108.6166
},{
"label": "Paraíso", "lat": 25.575616, "lng": -108.856953
},{
"label": "Campo California", "lat": 25.571077, "lng": -108.307071
},{
"label": "Ninguno [Efrén López]", "lat": 25.489435, "lng": -108.513894
},{
"label": "Bellavista", "lat": 25.26505, "lng": -108.458771
},{
"label": "Avilés [Rancho]", "lat": 25.610513, "lng": -108.479535
},{
"label": "Campo San José", "lat": 25.621285, "lng": -108.509658
},{
"label": "Los Puentes Cuates", "lat": 25.521885, "lng": -108.595894
},{
"label": "Fertilizantes Tepeyac", "lat": 25.672719, "lng": -108.514753
},{
"label": "La Brecha", "lat": 25.368931, "lng": -108.421729
},{
"label": "La Chilera", "lat": 25.624288, "lng": -108.726119
},{
"label": "Ninguno [AGROPLAN]", "lat": 25.674131, "lng": -108.652808
},{
"label": "Getsemaní", "lat": 25.712081, "lng": -108.741864
},{
"label": "Vallejo", "lat": 25.686317, "lng": -108.501036
}]