[{
"label": "Piedra Bola", "lat": 25.978904, "lng": -108.344248
},{
"label": "Mesa Moreno", "lat": 26.108619, "lng": -107.791779
},{
"label": "Ciénega", "lat": 26.310854, "lng": -107.936851
},{
"label": "Tres Nogales", "lat": 25.761852, "lng": -108.687667
},{
"label": "El Nogalito", "lat": 26.145086, "lng": -107.787511
},{
"label": "Las Higueritas", "lat": 25.953332, "lng": -107.968577
},{
"label": "Capomas Número 3", "lat": 25.606064, "lng": -108.168529
},{
"label": "La Playa", "lat": 25.892517, "lng": -108.458583
},{
"label": "Matapán", "lat": 25.874266, "lng": -108.128834
},{
"label": "Altamira", "lat": 25.99632, "lng": -107.678606
},{
"label": "La Cuestona", "lat": 25.808565, "lng": -108.247688
},{
"label": "La Noria", "lat": 26.17692, "lng": -107.922785
},{
"label": "Rancho Cabrera", "lat": 26.233693, "lng": -107.950691
},{
"label": "Laguna de Toray", "lat": 25.623741, "lng": -108.168438
},{
"label": "Don Miguel (La Limonera) [Agrícola]", "lat": 25.859331, "lng": -108.325331
},{
"label": "Cacalotán", "lat": 26.208741, "lng": -108.304499
},{
"label": "Aguaje de Pascual", "lat": 26.079413, "lng": -107.983903
},{
"label": "Concentración 5 de Febrero", "lat": 25.855954, "lng": -108.631183
},{
"label": "Piedras Prietas", "lat": 26.175221, "lng": -108.312658
},{
"label": "Los Limones", "lat": 25.953033, "lng": -107.812988
},{
"label": "Potrero de los Félix", "lat": 25.916278, "lng": -107.798674
},{
"label": "Tierra Blanca", "lat": 25.730543, "lng": -108.150914
},{
"label": "Los Rosarios", "lat": 26.014714, "lng": -107.770554
},{
"label": "Los Chinos", "lat": 26.031772, "lng": -108.390798
},{
"label": "Tarahumaris", "lat": 25.855057, "lng": -107.675921
},{
"label": "Los Chilillos", "lat": 25.946559, "lng": -107.977881
},{
"label": "San José de los Hornos", "lat": 25.901282, "lng": -107.640114
},{
"label": "Santa Quitería", "lat": 25.989473, "lng": -108.258356
},{
"label": "El Carrizo Viejo", "lat": 25.997188, "lng": -108.566029
},{
"label": "Sarabia", "lat": 25.870556, "lng": -108.089444
},{
"label": "Sombrerete", "lat": 26.172495, "lng": -108.029281
},{
"label": "Chinobampo", "lat": 25.923744, "lng": -108.474734
},{
"label": "El Oscuro", "lat": 25.800073, "lng": -108.461855
},{
"label": "Barranco de los Bueyes", "lat": 26.014316, "lng": -107.670337
},{
"label": "San José Viejo", "lat": 25.989232, "lng": -108.362648
},{
"label": "El Macapule", "lat": 25.746517, "lng": -108.318061
},{
"label": "La Higuera", "lat": 25.951955, "lng": -108.23447
},{
"label": "La Viuda", "lat": 25.823178, "lng": -108.545528
},{
"label": "La Jaina", "lat": 25.898217, "lng": -108.027624
},{
"label": "El Batamote", "lat": 26.010474, "lng": -107.71119
},{
"label": "El Alamito", "lat": 25.844843, "lng": -108.478902
},{
"label": "Los Alisos de Olguín", "lat": 26.285919, "lng": -107.985899
},{
"label": "Santa Fe", "lat": 25.682083, "lng": -107.984058
},{
"label": "Ninguno", "lat": 25.865052, "lng": -108.327202
},{
"label": "San José de las Delicias", "lat": 25.806128, "lng": -107.784425
},{
"label": "El Palmar", "lat": 26.031622, "lng": -108.250224
},{
"label": "El Barbecho", "lat": 26.196684, "lng": -108.024057
},{
"label": "El Huizache", "lat": 25.649366, "lng": -108.143184
},{
"label": "Casas Viejas", "lat": 26.120506, "lng": -107.535697
},{
"label": "El Guayabal", "lat": 25.805697, "lng": -108.332656
},{
"label": "Los Nescos", "lat": 25.862334, "lng": -108.053233
},{
"label": "Cuesta Angosta", "lat": 25.906086, "lng": -108.426088
},{
"label": "Los Mautos", "lat": 25.770209, "lng": -107.841804
},{
"label": "Pino Gordo", "lat": 26.216778, "lng": -108.104401
},{
"label": "La Haciendita", "lat": 26.182494, "lng": -107.866793
},{
"label": "Los Gatos", "lat": 25.739021, "lng": -107.866968
},{
"label": "La Palma", "lat": 25.824781, "lng": -108.082831
},{
"label": "Las Lajas", "lat": 25.856604, "lng": -107.98016
},{
"label": "Matapán del Llano", "lat": 25.895244, "lng": -108.115226
},{
"label": "Teruzana", "lat": 26.089525, "lng": -107.851644
},{
"label": "Carrizalejo", "lat": 25.769513, "lng": -107.779556
},{
"label": "El Palmarito", "lat": 26.152169, "lng": -107.867093
},{
"label": "Los Cerquitos (La Pila Dos)", "lat": 26.022921, "lng": -108.422419
},{
"label": "Nacaveba", "lat": 25.759502, "lng": -108.042942
},{
"label": "Agua Zarca", "lat": 26.082966, "lng": -107.592939
},{
"label": "Campo Montiel", "lat": 25.908677, "lng": -108.438573
},{
"label": "El Pilar", "lat": 25.913505, "lng": -107.633993
},{
"label": "El Gatal", "lat": 25.811306, "lng": -108.259722
},{
"label": "El Astillero", "lat": 25.800831, "lng": -108.065218
},{
"label": "Los Cocos", "lat": 25.986079, "lng": -107.622021
},{
"label": "La Aceituna", "lat": 25.869725, "lng": -108.018785
},{
"label": "El Puerto", "lat": 26.002921, "lng": -107.679321
},{
"label": "Arroyo de José", "lat": 26.12995, "lng": -107.690896
},{
"label": "Coronado", "lat": 25.81051, "lng": -107.832739
},{
"label": "Haciendita de los Martínez", "lat": 25.874986, "lng": -107.742381
},{
"label": "El Tulito", "lat": 25.932331, "lng": -107.934363
},{
"label": "Gallo Nuevo", "lat": 26.062118, "lng": -108.595139
},{
"label": "El Laurelito", "lat": 26.009611, "lng": -107.677629
},{
"label": "Las Cabras", "lat": 25.80106, "lng": -108.103333
},{
"label": "Estación Naranjo", "lat": 25.801376, "lng": -108.477828
},{
"label": "El Llano", "lat": 25.95199, "lng": -107.825934
},{
"label": "Mesa del Zapotillo", "lat": 25.987327, "lng": -107.691371
},{
"label": "Las Tunas de Arriba", "lat": 26.190897, "lng": -107.952447
},{
"label": "Ranchito de Llanes", "lat": 25.945558, "lng": -108.260953
},{
"label": "Potrero de Alvarado", "lat": 26.157722, "lng": -108.330713
},{
"label": "El Sabino", "lat": 26.164388, "lng": -108.282657
},{
"label": "La Cofradía", "lat": 25.945208, "lng": -108.394663
},{
"label": "Las Cañadas", "lat": 25.732163, "lng": -107.885575
},{
"label": "San Ignacio", "lat": 26.070745, "lng": -107.841287
},{
"label": "La Tuna", "lat": 25.752636, "lng": -108.145508
},{
"label": "Nochebuena", "lat": 25.76162, "lng": -107.838959
},{
"label": "Los Adobes", "lat": 26.161611, "lng": -108.285712
},{
"label": "Los Ciruelos", "lat": 25.706184, "lng": -108.008449
},{
"label": "Llanos de Peraza", "lat": 26.116849, "lng": -107.875797
},{
"label": "Los Pilares", "lat": 26.059496, "lng": -108.27948
},{
"label": "El Limón", "lat": 26.065921, "lng": -108.161522
},{
"label": "Las Tatemas", "lat": 26.000399, "lng": -108.194675
},{
"label": "Las Pilas", "lat": 26.039931, "lng": -108.158291
},{
"label": "Santa Cecilia", "lat": 25.862968, "lng": -108.28644
},{
"label": "Las Playitas", "lat": 25.897936, "lng": -108.456204
},{
"label": "El Aguaje", "lat": 26.095301, "lng": -108.003082
},{
"label": "El Manantial", "lat": 26.222605, "lng": -108.274668
},{
"label": "Las Igualamas", "lat": 25.789638, "lng": -108.100388
},{
"label": "El Lindero", "lat": 25.799244, "lng": -107.752728
},{
"label": "El Cuervero", "lat": 26.097328, "lng": -107.582195
},{
"label": "El Pueblito (El Realito)", "lat": 25.835384, "lng": -108.142166
},{
"label": "El Mirasolar", "lat": 26.053894, "lng": -107.707424
},{
"label": "La Otra Banda", "lat": 25.962812, "lng": -108.23382
},{
"label": "La Colmena", "lat": 26.040451, "lng": -108.603113
},{
"label": "Agua Fría", "lat": 25.741058, "lng": -108.282868
},{
"label": "Finca de Adobe", "lat": 25.889011, "lng": -107.692867
},{
"label": "Guayarina (Guyarina)", "lat": 25.909379, "lng": -107.759068
},{
"label": "Santiago de Ocoroni", "lat": 25.945222, "lng": -108.415134
},{
"label": "La Presita", "lat": 25.707154, "lng": -108.585346
},{
"label": "El Bejuco (El Bejuquito)", "lat": 26.062173, "lng": -107.632919
},{
"label": "Mautón", "lat": 26.028266, "lng": -108.37778
},{
"label": "Las Compuertas", "lat": 25.931156, "lng": -107.972236
},{
"label": "El Mezquitillo", "lat": 25.857589, "lng": -108.349638
},{
"label": "Las Palominas", "lat": 26.224895, "lng": -108.197435
},{
"label": "Pie de la Cuesta", "lat": 26.012728, "lng": -107.813753
},{
"label": "El Brasilar", "lat": 25.926589, "lng": -107.825871
},{
"label": "El Aceitunal", "lat": 25.970983, "lng": -108.566567
},{
"label": "El Toldo", "lat": 26.101858, "lng": -108.330529
},{
"label": "Tezcalama (Tescalama de Arriba)", "lat": 25.719117, "lng": -107.998066
},{
"label": "Ninguno [Doctor Juan Raigoza]", "lat": 25.778356, "lng": -108.611144
},{
"label": "La Lagunilla", "lat": 25.808511, "lng": -108.240716
},{
"label": "El Zapote", "lat": 25.879258, "lng": -108.035988
},{
"label": "Baburía", "lat": 25.839489, "lng": -108.206058
},{
"label": "El Coche", "lat": 25.973356, "lng": -108.525307
},{
"label": "Campo de San Lázaro", "lat": 25.607456, "lng": -108.090687
},{
"label": "Apenitas", "lat": 25.940445, "lng": -108.405062
},{
"label": "San Miguel de los Orrantia", "lat": 26.000307, "lng": -108.342889
},{
"label": "El Perihuete", "lat": 25.764649, "lng": -108.11424
},{
"label": "El Aguajito", "lat": 26.021616, "lng": -108.462894
},{
"label": "El Cochi", "lat": 26.233169, "lng": -108.214139
},{
"label": "El Guasimal", "lat": 26.002705, "lng": -107.783218
},{
"label": "Potrerillos", "lat": 25.719732, "lng": -108.043729
},{
"label": "Santa María", "lat": 26.05356, "lng": -107.8707
},{
"label": "Las Torres", "lat": 25.819303, "lng": -108.477408
},{
"label": "La Ciénega", "lat": 26.292826, "lng": -108.149178
},{
"label": "Ninguno [Carlos Caro]", "lat": 25.863897, "lng": -108.320058
},{
"label": "El Junco", "lat": 25.953452, "lng": -108.523009
},{
"label": "La Higuera Agujerada", "lat": 25.9563, "lng": -107.774007
},{
"label": "El Arroyo", "lat": 25.900387, "lng": -108.435734
},{
"label": "El Salado", "lat": 26.029936, "lng": -108.036402
},{
"label": "Naranjo Segundo", "lat": 25.796498, "lng": -108.497316
},{
"label": "El Mezquital", "lat": 25.830935, "lng": -108.30633
},{
"label": "El Chapote", "lat": 25.979393, "lng": -108.476228
},{
"label": "La Labor", "lat": 25.971693, "lng": -108.369133
},{
"label": "Melchor Ocampo", "lat": 25.741684, "lng": -108.527177
},{
"label": "San José del Álamo", "lat": 25.75451, "lng": -107.861383
},{
"label": "El Panal", "lat": 26.141756, "lng": -107.945313
},{
"label": "Playa Segunda", "lat": 25.808821, "lng": -108.429747
},{
"label": "La Cuestona Segunda", "lat": 25.662732, "lng": -108.167079
},{
"label": "La Cruz de Piedra", "lat": 25.834211, "lng": -108.377099
},{
"label": "Jiquilpan II", "lat": 26.018098, "lng": -108.631985
},{
"label": "San Joaquín (San Joaquín Nuevo)", "lat": 25.668237, "lng": -108.020282
},{
"label": "El Saucito", "lat": 25.760721, "lng": -108.480293
},{
"label": "Las Flores", "lat": 25.635289, "lng": -108.083575
},{
"label": "El Saucito II", "lat": 26.118797, "lng": -108.00065
},{
"label": "Los Valles", "lat": 26.240014, "lng": -107.910998
},{
"label": "El Chicural", "lat": 26.136254, "lng": -107.975762
},{
"label": "La Cruz", "lat": 25.971201, "lng": -107.857987
},{
"label": "Cabrera de Limones", "lat": 25.763915, "lng": -108.334967
},{
"label": "Los Platanitos (Barranco el Sotaco)", "lat": 25.98052, "lng": -107.87156
},{
"label": "Ejido Francisco J. Múgica", "lat": 25.753933, "lng": -108.69543
},{
"label": "Colonia 6 de Mayo", "lat": 25.698452, "lng": -108.31136
},{
"label": "Rancho Nuevo (Los Tejabanes)", "lat": 26.000282, "lng": -108.447771
},{
"label": "La Puerta", "lat": 25.99652, "lng": -108.36016
},{
"label": "Ninguno [Quirino]", "lat": 25.976427, "lng": -108.618171
},{
"label": "La Casita", "lat": 26.032728, "lng": -107.689863
},{
"label": "La Vainillita", "lat": 26.01571, "lng": -107.753251
},{
"label": "El Platanito", "lat": 26.190838, "lng": -108.298143
},{
"label": "Los Fresnos", "lat": 25.70552, "lng": -108.604826
},{
"label": "Los Veneros", "lat": 25.752069, "lng": -107.904276
},{
"label": "Las Papas", "lat": 26.087011, "lng": -107.714208
},{
"label": "San Francisco", "lat": 25.994774, "lng": -108.450348
},{
"label": "Los Guajolotes", "lat": 26.176824, "lng": -108.102755
},{
"label": "Bacuratito", "lat": 25.827766, "lng": -107.920066
},{
"label": "El Potrerillo", "lat": 25.799463, "lng": -107.739031
},{
"label": "El Vinoramal", "lat": 26.108736, "lng": -107.9943
},{
"label": "Cabrera de Gámez", "lat": 25.915114, "lng": -108.274561
},{
"label": "La Soledad", "lat": 26.097075, "lng": -108.201584
},{
"label": "Socabuena", "lat": 25.935574, "lng": -108.025808
},{
"label": "La Cuevita", "lat": 25.857302, "lng": -108.198379
},{
"label": "Las Norias", "lat": 25.685729, "lng": -108.246828
},{
"label": "Los Cerrillos", "lat": 25.768764, "lng": -108.188097
},{
"label": "La Bebelama", "lat": 25.915634, "lng": -108.41933
},{
"label": "Ninguno [Román Moroyoqui]", "lat": 25.845686, "lng": -108.447328
},{
"label": "El Garbanzo", "lat": 25.891749, "lng": -108.492213
},{
"label": "Los Mezquites", "lat": 25.948995, "lng": -108.017552
},{
"label": "Los Girasoles", "lat": 26.010632, "lng": -107.73338
},{
"label": "Ocuragüe", "lat": 25.933194, "lng": -107.648051
},{
"label": "El Perico (Casa Blanca)", "lat": 25.834125, "lng": -108.715604
},{
"label": "Chacoapana", "lat": 25.870505, "lng": -107.809038
},{
"label": "Tapachula", "lat": 25.862962, "lng": -108.454095
},{
"label": "El Pozo", "lat": 26.007161, "lng": -108.538874
},{
"label": "Portugués de Norzagaray", "lat": 25.997626, "lng": -108.25501
},{
"label": "El Pino", "lat": 25.862619, "lng": -107.638233
},{
"label": "Lodecías", "lat": 26.246776, "lng": -108.197746
},{
"label": "El Aguaje de Bartolo", "lat": 26.201351, "lng": -107.968794
},{
"label": "El Ranchito del Padre", "lat": 25.948243, "lng": -108.446176
},{
"label": "Buragüe", "lat": 25.824204, "lng": -107.966748
},{
"label": "Casas Nuevas", "lat": 25.864549, "lng": -108.47007
},{
"label": "Tepantita de Ocoroni", "lat": 25.920023, "lng": -108.434944
},{
"label": "Las Moras", "lat": 25.89361, "lng": -108.435788
},{
"label": "San Isidro", "lat": 25.963731, "lng": -108.436364
},{
"label": "La Cuesta del Pochote", "lat": 25.808839, "lng": -108.047086
},{
"label": "Las Mesas", "lat": 26.086129, "lng": -107.673872
},{
"label": "El Palotal", "lat": 25.77, "lng": -108.480302
},{
"label": "Tezcalama de Abajo", "lat": 25.711642, "lng": -108.007727
},{
"label": "Santa Lucía", "lat": 26.245715, "lng": -108.172508
},{
"label": "La Joya", "lat": 25.868825, "lng": -107.640379
},{
"label": "Los Potrerillos", "lat": 26.062133, "lng": -108.318256
},{
"label": "La Bocatoma", "lat": 25.808057, "lng": -108.225763
},{
"label": "El Terrero Colorado", "lat": 25.991241, "lng": -107.671462
},{
"label": "La Cueva", "lat": 25.998829, "lng": -107.534298
},{
"label": "Cruz del Negro", "lat": 25.689908, "lng": -108.142105
},{
"label": "Norogachi", "lat": 26.085783, "lng": -107.702921
},{
"label": "Tabaquito", "lat": 26.075506, "lng": -107.586529
},{
"label": "El Pando", "lat": 26.091384, "lng": -108.00938
},{
"label": "Rancho Quemado", "lat": 26.214628, "lng": -108.185273
},{
"label": "El Ranchito de los López", "lat": 25.694399, "lng": -107.907654
},{
"label": "Porohui", "lat": 25.8703, "lng": -107.98885
},{
"label": "Aguaje del Chato", "lat": 26.115074, "lng": -108.113259
},{
"label": "El Puerto de los Palos Verdes", "lat": 25.898944, "lng": -107.661068
},{
"label": "La Mesa del Gallo", "lat": 26.080276, "lng": -107.949315
},{
"label": "El Tapo", "lat": 25.715797, "lng": -108.031049
},{
"label": "Las Higueras", "lat": 25.918437, "lng": -108.103556
},{
"label": "El Encinal", "lat": 26.028839, "lng": -107.689585
},{
"label": "Ninguno [Alfredo Olguín]", "lat": 25.710299, "lng": -108.562489
},{
"label": "Quitaboca", "lat": 26.186095, "lng": -108.05588
},{
"label": "Batatibuna", "lat": 25.947199, "lng": -107.865356
},{
"label": "Las Calabazas", "lat": 25.78657, "lng": -107.758308
},{
"label": "Corral Falso", "lat": 25.784381, "lng": -108.040596
},{
"label": "Huahuana", "lat": 26.054711, "lng": -107.834918
},{
"label": "El Barrialito", "lat": 25.876416, "lng": -108.041261
},{
"label": "Los Otates", "lat": 25.867361, "lng": -107.719856
},{
"label": "Matapancito", "lat": 25.882472, "lng": -108.119944
},{
"label": "Los Placeres", "lat": 25.890551, "lng": -107.916991
},{
"label": "Mapiri", "lat": 25.7324, "lng": -107.947963
},{
"label": "El Camichín", "lat": 25.800708, "lng": -108.042649
},{
"label": "Licenciado Benito Juárez (Paredón Blanco)", "lat": 25.839008, "lng": -108.346432
},{
"label": "Las Aguamas", "lat": 25.817446, "lng": -107.762639
},{
"label": "Los Llanos", "lat": 26.183186, "lng": -108.110826
},{
"label": "Buenos Aires", "lat": 25.816056, "lng": -108.107754
},{
"label": "Los Llanos de Santa María", "lat": 26.043974, "lng": -107.861615
},{
"label": "La Mojonera", "lat": 25.872497, "lng": -108.466027
},{
"label": "Arroyo Ignacio", "lat": 26.084394, "lng": -107.668198
},{
"label": "El Reparito", "lat": 25.981498, "lng": -107.514128
},{
"label": "San Antonio", "lat": 25.907184, "lng": -108.317238
},{
"label": "El Tabaco", "lat": 26.007658, "lng": -107.684263
},{
"label": "Las Gaonas [Rancho]", "lat": 25.928869, "lng": -108.384173
},{
"label": "La Peñita", "lat": 25.791522, "lng": -108.074257
},{
"label": "Hacienda de los Olguín", "lat": 26.179131, "lng": -108.049297
},{
"label": "Tierra Nueva", "lat": 26.003696, "lng": -107.683284
},{
"label": "Los Troncones (El Aguajito)", "lat": 25.763186, "lng": -107.902007
},{
"label": "Ninguno [Guadalupe Félix]", "lat": 25.771161, "lng": -108.280043
},{
"label": "Cubiri de la Capilla", "lat": 25.784911, "lng": -108.303109
},{
"label": "El Carricito", "lat": 26.101532, "lng": -108.336308
},{
"label": "Alfonso G. Calderón Velarde", "lat": 25.78706, "lng": -108.603209
},{
"label": "Las Anacuas", "lat": 25.938719, "lng": -108.4718
},{
"label": "El Norteño", "lat": 25.875657, "lng": -108.336457
},{
"label": "Cabrera de Bones y Olivos", "lat": 25.833297, "lng": -108.312228
},{
"label": "San José", "lat": 25.691344, "lng": -108.017911
},{
"label": "Santa Ana", "lat": 25.986065, "lng": -108.422168
},{
"label": "Zapotillo", "lat": 25.653904, "lng": -108.023551
},{
"label": "El Taraizal", "lat": 26.045627, "lng": -108.155979
},{
"label": "Campo Torreón", "lat": 25.765575, "lng": -108.534649
},{
"label": "La Tauna", "lat": 26.132281, "lng": -107.887668
},{
"label": "Ramón Blanco Gámez", "lat": 26.062983, "lng": -108.542123
},{
"label": "El Añil", "lat": 25.822152, "lng": -108.175954
},{
"label": "Cuatro Vientos", "lat": 25.784624, "lng": -108.676663
},{
"label": "El Mirador", "lat": 25.759519, "lng": -108.324471
},{
"label": "El Caimán (Margen Derecho)", "lat": 25.867988, "lng": -108.338787
},{
"label": "La Huerta", "lat": 25.821237, "lng": -108.036792
},{
"label": "Cañada Verde", "lat": 26.123449, "lng": -108.110404
},{
"label": "Tabalopa", "lat": 25.723971, "lng": -108.135721
},{
"label": "La Ceiba (Casa de Viluy)", "lat": 25.822283, "lng": -108.477189
},{
"label": "Purgatorio", "lat": 26.12106, "lng": -107.637643
},{
"label": "Las Correas", "lat": 25.715, "lng": -108.652708
},{
"label": "Cubiri de Portelas", "lat": 25.787138, "lng": -108.260612
},{
"label": "El Arrayanal", "lat": 26.093879, "lng": -108.123841
},{
"label": "El Bainoral", "lat": 25.974759, "lng": -107.754658
},{
"label": "El Duraznito", "lat": 26.141081, "lng": -107.966545
},{
"label": "Matapanón", "lat": 25.908773, "lng": -108.115115
},{
"label": "Vinatería", "lat": 26.045542, "lng": -107.593875
},{
"label": "El Vainillal", "lat": 26.184243, "lng": -108.066081
},{
"label": "San José de Alvarado (San José Nuevo)", "lat": 25.977196, "lng": -108.381131
},{
"label": "Palo Hediondo", "lat": 25.837595, "lng": -108.078637
},{
"label": "La Pinosa", "lat": 26.295179, "lng": -107.944789
},{
"label": "La Ciénega de los Castro", "lat": 25.927314, "lng": -107.856185
},{
"label": "San Judas", "lat": 25.786204, "lng": -108.489231
},{
"label": "Piedra Bola II", "lat": 26.08346, "lng": -107.97847
},{
"label": "Lombardo Toledano", "lat": 25.875429, "lng": -108.340718
},{
"label": "San Bruno", "lat": 25.680216, "lng": -108.157113
},{
"label": "La Crucita", "lat": 25.644368, "lng": -108.085303
},{
"label": "San Vicente", "lat": 25.790153, "lng": -108.176454
},{
"label": "La Quinta", "lat": 25.836486, "lng": -108.726238
},{
"label": "El Potrero", "lat": 25.996483, "lng": -108.420508
},{
"label": "Ejido Ceferino Paredes", "lat": 25.833763, "lng": -108.640671
},{
"label": "El Aguamal", "lat": 26.09666, "lng": -108.011023
},{
"label": "Mesa de las Burras", "lat": 26.176455, "lng": -108.038331
},{
"label": "Las Tunas de Abajo", "lat": 26.196011, "lng": -107.936625
},{
"label": "Los Laureles", "lat": 25.897241, "lng": -107.682452
},{
"label": "El Reparo", "lat": 26.249516, "lng": -108.199974
},{
"label": "La Vinatería", "lat": 26.137007, "lng": -107.985116
},{
"label": "La Peña", "lat": 25.657309, "lng": -108.06771
},{
"label": "Tepaicama", "lat": 25.966596, "lng": -107.870064
},{
"label": "Las Casitas", "lat": 26.305676, "lng": -107.922178
},{
"label": "Casas Grandes", "lat": 25.936166, "lng": -107.654665
},{
"label": "La Tasajera", "lat": 25.850608, "lng": -108.083961
},{
"label": "Palo Verde (Las Canoitas)", "lat": 26.095781, "lng": -107.958759
},{
"label": "Tequehuale", "lat": 26.071058, "lng": -108.201263
},{
"label": "La Bombita", "lat": 25.839153, "lng": -108.272783
},{
"label": "El Zapotillo", "lat": 26.134789, "lng": -108.038958
},{
"label": "Lorenzo F. Robles", "lat": 26.00616, "lng": -108.636559
},{
"label": "La Loma", "lat": 25.951404, "lng": -108.377131
},{
"label": "El Polvorín (Potrerillos)", "lat": 26.074434, "lng": -108.315186
},{
"label": "Tepehuaje", "lat": 25.932898, "lng": -108.468268
},{
"label": "Ninguno [Garate]", "lat": 25.797367, "lng": -108.664536
},{
"label": "Maripita", "lat": 25.854073, "lng": -108.176436
},{
"label": "La Cañita", "lat": 26.193546, "lng": -108.0346
},{
"label": "Arroyo Hondo", "lat": 26.151391, "lng": -107.791499
},{
"label": "Las Guásimas", "lat": 25.902802, "lng": -107.951954
},{
"label": "San Francisco de los Aprietos", "lat": 25.840423, "lng": -108.443656
},{
"label": "San Sebastián Lázaro Cárdenas", "lat": 25.712015, "lng": -108.611455
},{
"label": "Las Brisas", "lat": 25.937883, "lng": -108.529488
},{
"label": "Buchinari", "lat": 25.917558, "lng": -108.059212
},{
"label": "El Noroto", "lat": 25.779309, "lng": -108.094726
},{
"label": "La Cañada", "lat": 25.905238, "lng": -108.201882
},{
"label": "Ruiz Cortines Número Uno", "lat": 25.74577, "lng": -108.696913
},{
"label": "El Güinolito", "lat": 25.909282, "lng": -107.871292
},{
"label": "Aguaje Cercado", "lat": 26.205446, "lng": -107.992981
},{
"label": "Los Cuates", "lat": 25.750386, "lng": -108.592525
},{
"label": "El Mundo Viejo", "lat": 25.747128, "lng": -108.278438
},{
"label": "El Sabinal", "lat": 26.1055, "lng": -108.326266
},{
"label": "Ninguno [Cuauhtémoc Espinoza García]", "lat": 25.874881, "lng": -108.307322
},{
"label": "El Sauce", "lat": 26.141613, "lng": -107.972372
},{
"label": "Agua Blanca", "lat": 25.961405, "lng": -108.284522
},{
"label": "Cubiri de la Máquina", "lat": 25.81515, "lng": -108.284187
},{
"label": "Las Amapitas", "lat": 25.717176, "lng": -108.1632
},{
"label": "Mesa de Abundio", "lat": 26.042203, "lng": -107.546301
},{
"label": "Baromena", "lat": 25.874801, "lng": -107.77759
},{
"label": "El Tabachín", "lat": 26.186264, "lng": -108.311224
},{
"label": "Las Ciruelitas", "lat": 25.905354, "lng": -108.507826
},{
"label": "Iripa", "lat": 25.73218, "lng": -107.866269
},{
"label": "El Salto", "lat": 25.744651, "lng": -107.94915
},{
"label": "Tezcalama", "lat": 26.116346, "lng": -107.777449
},{
"label": "Tocana", "lat": 25.988984, "lng": -107.875612
},{
"label": "Mazocari", "lat": 26.083994, "lng": -108.197614
},{
"label": "Las Cuestas", "lat": 25.73951, "lng": -108.152627
},{
"label": "Chorohui", "lat": 26.075149, "lng": -108.182525
},{
"label": "Las Cuchillas", "lat": 25.949786, "lng": -107.803145
},{
"label": "Lomalinda", "lat": 25.910898, "lng": -108.441102
},{
"label": "El Carrizo", "lat": 26.115733, "lng": -107.93605
},{
"label": "San Buenaventura", "lat": 25.967799, "lng": -108.246318
},{
"label": "Los Tanques", "lat": 25.783031, "lng": -107.771505
},{
"label": "Campo Seis", "lat": 25.793063, "lng": -108.497585
},{
"label": "La Agua Zarca", "lat": 25.896894, "lng": -108.154033
},{
"label": "El Hornito (Los Hornitos)", "lat": 25.9741, "lng": -107.755915
},{
"label": "La Carrerita", "lat": 25.953488, "lng": -108.547125
},{
"label": "Horamapa", "lat": 25.827883, "lng": -108.463281
},{
"label": "Charco Verde", "lat": 25.988121, "lng": -108.059037
},{
"label": "Las Playas", "lat": 25.825551, "lng": -108.16443
},{
"label": "Los Tablones", "lat": 26.02597, "lng": -108.610743
},{
"label": "El Papachal", "lat": 25.966644, "lng": -108.55488
},{
"label": "Santa Magdalena", "lat": 26.043564, "lng": -108.041952
},{
"label": "Bomba del Alacrán", "lat": 25.786561, "lng": -108.682251
},{
"label": "El Melón", "lat": 25.958465, "lng": -107.782785
},{
"label": "Torobuena", "lat": 26.040561, "lng": -107.541668
},{
"label": "El Guamúchil", "lat": 25.991217, "lng": -108.215812
},{
"label": "Las Tinas", "lat": 25.762251, "lng": -107.790622
},{
"label": "Las Trancas", "lat": 26.108939, "lng": -107.87108
},{
"label": "Cubiri de la Loma", "lat": 25.763058, "lng": -108.271893
},{
"label": "El Triunfo", "lat": 26.223701, "lng": -108.097616
},{
"label": "Ninguno [Ramiro Gutiérrez]", "lat": 25.812862, "lng": -108.268216
},{
"label": "El Potrero de Peñuelas", "lat": 25.953545, "lng": -108.083118
},{
"label": "El Toruno", "lat": 25.807135, "lng": -108.429261
},{
"label": "San Martín (La Sicáis)", "lat": 25.968534, "lng": -108.469474
},{
"label": "La Pitahayita", "lat": 25.804436, "lng": -108.498131
},{
"label": "Las Tunas", "lat": 25.995735, "lng": -107.679565
},{
"label": "El Tablón", "lat": 25.729491, "lng": -108.016933
},{
"label": "El Amapal del Llano", "lat": 25.728565, "lng": -108.054657
},{
"label": "Techa de Agua", "lat": 25.878349, "lng": -107.998561
},{
"label": "Descubridora", "lat": 26.088839, "lng": -107.597086
},{
"label": "Cuatro Caminos", "lat": 25.926477, "lng": -108.522879
},{
"label": "La Cuesta", "lat": 26.003848, "lng": -108.37088
},{
"label": "Seis de Enero", "lat": 25.684592, "lng": -108.122097
},{
"label": "Kilómetro Treinta y Ocho", "lat": 25.808464, "lng": -108.744402
},{
"label": "El Palmar de los Sepúlveda", "lat": 25.70955, "lng": -107.923214
},{
"label": "La Pista", "lat": 25.793124, "lng": -108.377466
},{
"label": "La Choya", "lat": 26.02512, "lng": -108.583556
},{
"label": "Alisos", "lat": 26.124949, "lng": -107.60431
},{
"label": "Batamote", "lat": 26.041376, "lng": -108.481983
},{
"label": "El Campito [Campo Zamora]", "lat": 25.806834, "lng": -108.437412
},{
"label": "La Piedra Bola", "lat": 26.327743, "lng": -107.951749
},{
"label": "Ninguno [Lorenzo Orozco Ramírez]", "lat": 25.795831, "lng": -108.556535
},{
"label": "José María Morelos y Pavón", "lat": 25.824413, "lng": -108.669019
},{
"label": "El Potrero de los López", "lat": 26.140086, "lng": -107.918954
},{
"label": "Palmerito", "lat": 26.134394, "lng": -107.62431
},{
"label": "El Papalote", "lat": 26.213177, "lng": -108.300047
},{
"label": "La Vinorama", "lat": 25.724376, "lng": -108.062558
},{
"label": "Tres Palmas", "lat": 25.610606, "lng": -108.158476
},{
"label": "Los San Juan", "lat": 25.92861, "lng": -107.865236
},{
"label": "Los Plátanos", "lat": 25.980588, "lng": -107.874451
},{
"label": "Las Paredes", "lat": 26.124139, "lng": -107.895963
},{
"label": "Sinaloa de Leyva", "lat": 25.822372, "lng": -108.222046
},{
"label": "La Represa", "lat": 25.80988, "lng": -108.120909
},{
"label": "El Güirotal", "lat": 26.04106, "lng": -108.326901
},{
"label": "El Igualamo", "lat": 25.919849, "lng": -107.850076
},{
"label": "Las Guacapas", "lat": 25.721789, "lng": -107.848176
},{
"label": "Las Blancas", "lat": 25.780819, "lng": -107.782732
},{
"label": "Zapote de Báez", "lat": 25.929552, "lng": -107.816195
},{
"label": "Las Lajitas", "lat": 25.909085, "lng": -107.897995
},{
"label": "Ninguno [Juan Ramón Lugo Fonseca]", "lat": 25.832869, "lng": -108.474969
},{
"label": "La Mesa", "lat": 25.826604, "lng": -107.834303
},{
"label": "La Nueva Estancia", "lat": 25.922411, "lng": -108.086989
},{
"label": "El Guaro", "lat": 25.843571, "lng": -108.330606
},{
"label": "Tres Marías (Las Vinoramas)", "lat": 25.774635, "lng": -108.457498
},{
"label": "El Rincón", "lat": 25.764215, "lng": -107.765993
},{
"label": "Los Tastes", "lat": 25.880097, "lng": -108.461468
},{
"label": "La Higuerita de los Miranda (La Higuerita)", "lat": 25.773994, "lng": -107.753314
},{
"label": "Zapote de los Torres", "lat": 25.942623, "lng": -107.763562
},{
"label": "El Barranco", "lat": 25.671578, "lng": -108.048245
},{
"label": "Basurina", "lat": 25.98188, "lng": -107.861877
},{
"label": "Las Cuevas", "lat": 26.089027, "lng": -108.005507
},{
"label": "La Ciénega de Parra", "lat": 25.992486, "lng": -107.675799
},{
"label": "Mesa de los Ángeles", "lat": 26.077728, "lng": -107.561251
},{
"label": "Camino Real", "lat": 25.939927, "lng": -108.401483
},{
"label": "Los Cerrillos Número Dos", "lat": 25.772183, "lng": -108.186266
},{
"label": "Los Naranjos", "lat": 25.9843, "lng": -107.66694
},{
"label": "La Aurora", "lat": 25.92325, "lng": -108.411768
},{
"label": "Palo de Asta", "lat": 25.822362, "lng": -108.339883
},{
"label": "Isla del Amole", "lat": 26.1256, "lng": -108.309546
},{
"label": "La Choyita", "lat": 25.770899, "lng": -108.310968
},{
"label": "El Cercón", "lat": 25.886658, "lng": -108.206694
},{
"label": "Los Zapotes", "lat": 26.021994, "lng": -107.688407
},{
"label": "La Calera", "lat": 26.210151, "lng": -108.176194
},{
"label": "El Corral de Piedra", "lat": 25.825178, "lng": -107.744164
},{
"label": "La Tía Paula", "lat": 26.299268, "lng": -107.997182
},{
"label": "El Cuisquiri", "lat": 25.753086, "lng": -108.133548
},{
"label": "Válgame Dios", "lat": 26.027152, "lng": -108.27671
},{
"label": "Hacienda de los Ceballos", "lat": 25.75247, "lng": -107.816608
},{
"label": "El Cajón", "lat": 26.019509, "lng": -107.50725
},{
"label": "La Cruz del Zacate", "lat": 25.975835, "lng": -108.153609
},{
"label": "Cabrera de Inzunza", "lat": 25.901826, "lng": -108.294536
},{
"label": "Guasimona", "lat": 26.059586, "lng": -108.374563
},{
"label": "El Mango (Las Cañadas)", "lat": 25.961731, "lng": -107.80421
},{
"label": "La Playona", "lat": 25.970761, "lng": -108.59467
},{
"label": "Sanaria", "lat": 25.731454, "lng": -108.302448
},{
"label": "El Altillo", "lat": 25.927295, "lng": -108.430651
},{
"label": "La Cebolla", "lat": 25.961788, "lng": -108.391877
},{
"label": "Guásimas", "lat": 26.128475, "lng": -107.665164
},{
"label": "La Higuerita", "lat": 25.943833, "lng": -107.863898
},{
"label": "Los Potrillos [Rancho]", "lat": 25.738878, "lng": -108.282712
},{
"label": "Ejido Batamote", "lat": 25.707817, "lng": -108.612771
},{
"label": "Potrerito", "lat": 26.082374, "lng": -108.059363
},{
"label": "El Potrero de Bojórquez", "lat": 25.776802, "lng": -107.793279
},{
"label": "La Osa", "lat": 26.046024, "lng": -107.687049
},{
"label": "El Pueblito", "lat": 25.757164, "lng": -107.744415
},{
"label": "Tecumena", "lat": 25.830134, "lng": -107.801889
},{
"label": "Nuevo Teposina", "lat": 25.890963, "lng": -107.966264
},{
"label": "Rancho Viejo", "lat": 26.05374, "lng": -108.132139
},{
"label": "La Playita de Casillas", "lat": 25.906461, "lng": -108.448638
},{
"label": "Higuerilla", "lat": 26.080506, "lng": -107.610141
},{
"label": "El Caimán (Margen Izquierdo)", "lat": 25.872609, "lng": -108.320734
},{
"label": "Ninguno [Los Beltrán]", "lat": 25.859456, "lng": -108.376683
},{
"label": "Pueblo Viejo", "lat": 25.904644, "lng": -108.008709
},{
"label": "Palo de Yesca", "lat": 25.967651, "lng": -107.754178
},{
"label": "Lagunillas", "lat": 25.678552, "lng": -107.99946
},{
"label": "Cubiri de la Cuesta", "lat": 25.752955, "lng": -108.282704
},{
"label": "Las Bombas", "lat": 25.810597, "lng": -108.515164
},{
"label": "Las Juntas", "lat": 26.084738, "lng": -108.030374
},{
"label": "Agua Caliente de Cebada (La Churea)", "lat": 26.076943, "lng": -108.150774
},{
"label": "Alfredo V. Bonfil (Siete Ejidos)", "lat": 25.641324, "lng": -108.231003
},{
"label": "Rancho Blanco", "lat": 26.045228, "lng": -107.646807
},{
"label": "El Durazno", "lat": 26.289717, "lng": -107.910052
},{
"label": "Terreros", "lat": 25.91487, "lng": -107.669377
},{
"label": "La Sandía de los Sánchez", "lat": 25.807006, "lng": -108.503639
},{
"label": "El Chalate", "lat": 25.98345, "lng": -107.788295
},{
"label": "La Tranquilidad", "lat": 25.719323, "lng": -108.140895
},{
"label": "Vallecito", "lat": 25.909158, "lng": -107.676351
},{
"label": "Ranchito de Gámez", "lat": 25.738563, "lng": -108.245695
},{
"label": "La Guamuchilera", "lat": 25.824678, "lng": -108.648001
},{
"label": "Ejido el Maquipo", "lat": 25.681059, "lng": -108.293441
},{
"label": "La Ciruela", "lat": 25.956178, "lng": -107.775897
},{
"label": "Güisisarina", "lat": 26.173662, "lng": -107.917926
},{
"label": "El Coyote", "lat": 25.673108, "lng": -108.240796
},{
"label": "Maripa", "lat": 25.86485, "lng": -108.157195
},{
"label": "Las Bayas", "lat": 26.225032, "lng": -108.224183
},{
"label": "Agua Caliente", "lat": 26.002261, "lng": -107.535758
},{
"label": "Piedra Azul", "lat": 25.913649, "lng": -107.762364
},{
"label": "Las Taunas", "lat": 26.101388, "lng": -108.19862
},{
"label": "Gallo Viejo", "lat": 26.057845, "lng": -108.569366
},{
"label": "La Poza", "lat": 25.638594, "lng": -108.163499
},{
"label": "Genaro Estrada", "lat": 25.936044, "lng": -108.395311
},{
"label": "Campo la Escondida", "lat": 25.806801, "lng": -108.735262
},{
"label": "El Rancho de la Virgen (El Platanito)", "lat": 26.118559, "lng": -107.899314
},{
"label": "Los Ébanos", "lat": 26.09328, "lng": -108.115706
},{
"label": "Ventura de los Bojórquez", "lat": 25.778483, "lng": -107.815769
},{
"label": "La Victoria", "lat": 25.801565, "lng": -108.694137
},{
"label": "Chicura", "lat": 26.007073, "lng": -107.538811
},{
"label": "El Otatal", "lat": 26.136973, "lng": -107.961021
},{
"label": "El Amapal", "lat": 25.968421, "lng": -108.421026
},{
"label": "El Rosario", "lat": 26.170313, "lng": -107.867499
},{
"label": "Ladrilleras", "lat": 26.240955, "lng": -108.185815
},{
"label": "La Estancia", "lat": 25.92495, "lng": -108.101811
},{
"label": "Buenavista", "lat": 25.863299, "lng": -108.120961
},{
"label": "Agua Caliente de Cota", "lat": 25.964224, "lng": -108.120588
},{
"label": "Los Quintero", "lat": 25.835415, "lng": -107.766696
},{
"label": "Arroyo Seco", "lat": 26.040359, "lng": -107.686891
},{
"label": "Los Cedros", "lat": 25.833826, "lng": -108.052626
},{
"label": "Agua Caliente de Cebada", "lat": 26.078176, "lng": -108.147638
},{
"label": "El Mezcal", "lat": 26.196057, "lng": -107.867095
},{
"label": "Ranchito de Figueroa", "lat": 25.820188, "lng": -108.092703
},{
"label": "El Sapuchi", "lat": 26.128559, "lng": -107.859314
},{
"label": "El Talayote", "lat": 26.241439, "lng": -108.277452
},{
"label": "La Manzana", "lat": 25.908428, "lng": -107.6803
},{
"label": "El Algarrobal", "lat": 26.013978, "lng": -107.519196
},{
"label": "El Mautalito", "lat": 26.014537, "lng": -108.046535
},{
"label": "La Mula", "lat": 26.021775, "lng": -107.512666
},{
"label": "El Sembrador", "lat": 25.820492, "lng": -108.5456
},{
"label": "La Pila", "lat": 26.026613, "lng": -108.468829
},{
"label": "Campo el Alacrán", "lat": 25.780537, "lng": -108.704088
},{
"label": "Cochinahui", "lat": 25.998465, "lng": -107.885709
},{
"label": "El Espejo", "lat": 25.9588, "lng": -108.440384
},{
"label": "Agua Escondida", "lat": 25.695732, "lng": -108.060676
},{
"label": "Santa Rosa", "lat": 26.033601, "lng": -108.53428
},{
"label": "El Álamo", "lat": 25.820666, "lng": -107.752787
},{
"label": "El Desmonte", "lat": 26.304975, "lng": -107.933232
},{
"label": "Los Limones Número Dos", "lat": 25.939789, "lng": -107.814968
},{
"label": "Tres Reyes", "lat": 25.805331, "lng": -108.453893
},{
"label": "Doce (Valle Verde)", "lat": 25.898426, "lng": -108.358198
},{
"label": "San Pablo Mochobampo (San Ignacio)", "lat": 25.914925, "lng": -108.609627
},{
"label": "El Naranjito", "lat": 26.129113, "lng": -108.002928
},{
"label": "La Lajita", "lat": 26.333798, "lng": -107.940005
},{
"label": "El Chino Gordo", "lat": 25.657066, "lng": -108.039407
},{
"label": "Las Palmas", "lat": 26.099673, "lng": -107.569864
},{
"label": "Tobobampo", "lat": 25.815249, "lng": -108.650212
},{
"label": "Ciruelo", "lat": 26.067451, "lng": -107.55014
},{
"label": "El Veranito", "lat": 25.961505, "lng": -108.228183
},{
"label": "Las Tapias", "lat": 25.892038, "lng": -107.724338
},{
"label": "Saca de Agua", "lat": 26.045384, "lng": -107.588447
},{
"label": "El Trigo", "lat": 26.268908, "lng": -107.910196
},{
"label": "El Ranchito", "lat": 26.099999, "lng": -107.943808
},{
"label": "Ciruela", "lat": 26.117727, "lng": -107.662088
},{
"label": "Ventura de Gerardo", "lat": 25.732834, "lng": -107.91859
},{
"label": "Sierrita de los Germán", "lat": 26.012607, "lng": -107.689268
},{
"label": "Guasavito", "lat": 25.856751, "lng": -108.474147
},{
"label": "Ninguno [Jesús Higuera]", "lat": 25.806669, "lng": -108.248519
},{
"label": "Severechi", "lat": 26.182507, "lng": -108.052613
},{
"label": "El Ciruelito", "lat": 26.10967, "lng": -107.891814
},{
"label": "La Cantera", "lat": 25.771434, "lng": -108.093342
},{
"label": "Bacubirito", "lat": 25.808551, "lng": -107.916784
},{
"label": "Gabriel Leyva Velázquez (Mezquite Alto)", "lat": 25.794042, "lng": -108.561898
},{
"label": "Los Alamillos", "lat": 25.887188, "lng": -107.64943
},{
"label": "El Quelele", "lat": 25.731589, "lng": -108.040138
},{
"label": "San Rafael", "lat": 25.837857, "lng": -108.638066
},{
"label": "Mascahuilochi", "lat": 25.861757, "lng": -107.951257
},{
"label": "La Loma de Lugo", "lat": 25.740097, "lng": -108.295357
},{
"label": "El Guayabo", "lat": 26.025785, "lng": -107.589306
},{
"label": "El Derrumbadero", "lat": 26.12479, "lng": -107.991085
},{
"label": "La Cacachila", "lat": 25.872117, "lng": -108.07228
},{
"label": "El Gatal de Ocoroni", "lat": 25.967504, "lng": -108.385942
},{
"label": "Benito Juárez", "lat": 25.848891, "lng": -108.618189
},{
"label": "La Cuchilla del Rayo", "lat": 25.928323, "lng": -107.644329
},{
"label": "Cancún", "lat": 25.710509, "lng": -108.181248
},{
"label": "Los Chapotes", "lat": 25.88727, "lng": -108.306385
},{
"label": "La Flor de la Canela", "lat": 25.787947, "lng": -108.342089
},{
"label": "Rancho Nuevo", "lat": 25.960152, "lng": -107.896881
},{
"label": "La Chirimoya", "lat": 25.979419, "lng": -107.626199
},{
"label": "El Barbechito", "lat": 26.140009, "lng": -107.972406
},{
"label": "El Guamuchilito", "lat": 26.253665, "lng": -107.969001
},{
"label": "Las Pocitas", "lat": 25.629156, "lng": -108.076595
},{
"label": "Santa Bárbara", "lat": 25.983788, "lng": -107.673082
},{
"label": "Piedra Pintada", "lat": 26.038546, "lng": -108.483135
},{
"label": "Los Guachapores", "lat": 25.829325, "lng": -108.254697
},{
"label": "La Laguna", "lat": 25.791214, "lng": -107.757158
},{
"label": "El Vallecito", "lat": 26.12989, "lng": -107.951681
},{
"label": "Siete Arados", "lat": 25.984752, "lng": -107.703999
},{
"label": "Ninguno [Lamberto Rojo Armenta]", "lat": 25.798858, "lng": -108.493475
},{
"label": "Los Atondo", "lat": 25.916604, "lng": -108.373036
},{
"label": "El Palmerito", "lat": 26.121086, "lng": -107.921669
},{
"label": "El Manguito", "lat": 26.207444, "lng": -108.079321
},{
"label": "El Aguaje Grande", "lat": 26.068205, "lng": -107.967007
},{
"label": "El Cajoncito", "lat": 25.876602, "lng": -107.944255
},{
"label": "La Lagunita", "lat": 26.209179, "lng": -108.064767
},{
"label": "La Granja", "lat": 25.824489, "lng": -107.799601
},{
"label": "El Zapote (El Chapote)", "lat": 26.069961, "lng": -108.142976
},{
"label": "Ave del Paraíso", "lat": 26.132568, "lng": -108.104564
},{
"label": "Los Carrizos", "lat": 26.085784, "lng": -107.585141
},{
"label": "Los Horcones", "lat": 25.774831, "lng": -108.162948
},{
"label": "El Ayalito", "lat": 25.965863, "lng": -108.220505
},{
"label": "El Cuitabón", "lat": 25.910129, "lng": -108.197829
},{
"label": "El Recodo", "lat": 26.050902, "lng": -108.149008
},{
"label": "El Paso", "lat": 25.793761, "lng": -107.840131
},{
"label": "Bacurato", "lat": 25.859817, "lng": -107.896846
},{
"label": "La Mesa del Frijol", "lat": 26.312439, "lng": -107.920495
},{
"label": "La Y Griega", "lat": 25.96916, "lng": -108.520667
},{
"label": "Loma de Leyva", "lat": 25.870894, "lng": -108.258359
},{
"label": "La Vainilla", "lat": 26.074536, "lng": -108.276516
},{
"label": "Potrero de Bernal", "lat": 26.028284, "lng": -107.64514
},{
"label": "Todoesto", "lat": 26.145328, "lng": -108.090767
},{
"label": "El Opochi", "lat": 25.8175, "lng": -108.201108
},{
"label": "Ruiz Cortines Número Tres", "lat": 25.702976, "lng": -108.679589
},{
"label": "San Pedro", "lat": 25.666962, "lng": -108.105346
},{
"label": "Los Brasiles", "lat": 25.911555, "lng": -108.244124
},{
"label": "Santa Teresita", "lat": 25.770473, "lng": -108.660461
},{
"label": "Ranchito de los Cota", "lat": 25.719806, "lng": -108.098288
},{
"label": "Piedras Blancas", "lat": 25.979948, "lng": -107.800527
},{
"label": "El Chípil", "lat": 25.937807, "lng": -107.671388
},{
"label": "El Peñón", "lat": 25.752525, "lng": -107.764934
},{
"label": "Los Mezcales", "lat": 26.004943, "lng": -108.605093
},{
"label": "La Canoa", "lat": 26.031129, "lng": -107.782253
},{
"label": "Chapotito", "lat": 25.991328, "lng": -108.37809
},{
"label": "Tepomena", "lat": 26.161892, "lng": -108.048027
},{
"label": "La Pitahaya", "lat": 25.664895, "lng": -107.996923
},{
"label": "Potrero de Gámez", "lat": 25.757352, "lng": -107.814992
},{
"label": "La Presa de los Heredia", "lat": 25.801973, "lng": -108.076593
},{
"label": "Jesús María Tosibuena", "lat": 26.227187, "lng": -107.95189
},{
"label": "El Puerto (Potrerillos)", "lat": 25.877706, "lng": -107.929559
},{
"label": "Güera", "lat": 25.879606, "lng": -107.993585
},{
"label": "San Miguel de San Joaquín (San Miguel)", "lat": 25.662021, "lng": -108.058645
},{
"label": "Chicorato", "lat": 25.937314, "lng": -107.881134
},{
"label": "El Ojito", "lat": 26.16721, "lng": -107.850023
},{
"label": "Pandura", "lat": 26.10426, "lng": -107.958174
},{
"label": "El Coyonqui", "lat": 25.889554, "lng": -108.305112
},{
"label": "Campo San Reynaldo", "lat": 25.878347, "lng": -108.310991
},{
"label": "El Peñasco", "lat": 26.038557, "lng": -108.324319
},{
"label": "Los Melones", "lat": 25.84924, "lng": -108.128151
},{
"label": "La Palmonía", "lat": 26.209436, "lng": -108.204171
},{
"label": "El Potrero de Vargas", "lat": 26.088519, "lng": -107.939576
},{
"label": "Plan de Ocote", "lat": 26.009893, "lng": -107.656376
},{
"label": "El Tule", "lat": 25.885192, "lng": -108.443356
},{
"label": "La Pasadita", "lat": 25.721504, "lng": -108.068143
},{
"label": "Cerro Bayo", "lat": 25.697656, "lng": -107.887327
},{
"label": "El Terrero de Durán", "lat": 25.783786, "lng": -107.790506
},{
"label": "Las Minas", "lat": 26.090228, "lng": -107.552085
},{
"label": "El Rodeo", "lat": 25.788477, "lng": -107.850282
},{
"label": "Ranchito los Camacho", "lat": 25.721538, "lng": -108.087824
},{
"label": "El Tarahumarito", "lat": 26.018283, "lng": -107.84931
},{
"label": "El Ranchito de Castro", "lat": 26.146343, "lng": -108.100228
},{
"label": "El Taste", "lat": 26.157979, "lng": -107.903145
},{
"label": "El Depósito", "lat": 25.981405, "lng": -107.719289
},{
"label": "El Terrero", "lat": 25.78582, "lng": -108.118319
},{
"label": "Laguna de los Valdez", "lat": 25.652555, "lng": -108.081825
},{
"label": "Espadañal", "lat": 26.121749, "lng": -107.566293
},{
"label": "Llano Grande", "lat": 25.753969, "lng": -108.084741
},{
"label": "Los Palillos", "lat": 25.966769, "lng": -107.756588
},{
"label": "El Mezquite", "lat": 25.706698, "lng": -108.107353
},{
"label": "Francisco Villa", "lat": 25.812469, "lng": -108.65136
},{
"label": "El Limoncito", "lat": 26.162171, "lng": -108.062335
},{
"label": "Arroyo de Agua", "lat": 26.139053, "lng": -107.993804
},{
"label": "Tetameche Viejo", "lat": 25.777411, "lng": -108.618358
},{
"label": "San Joaquín (San Joaquín Viejo)", "lat": 25.671435, "lng": -108.011659
},{
"label": "Tomachi", "lat": 25.900653, "lng": -108.013918
},{
"label": "San José de Gracia", "lat": 26.146069, "lng": -107.891641
},{
"label": "El Plátano", "lat": 25.810901, "lng": -107.715642
}]