[{
"label": "Acatlán de Pérez Figueroa", "lat": 18.538563, "lng": -96.60761
},{
"label": "El Agostadero", "lat": 18.372891, "lng": -96.343805
},{
"label": "Garza Blanca", "lat": 18.376538, "lng": -96.627746
},{
"label": "Rancho Hernández", "lat": 18.513383, "lng": -96.538065
},{
"label": "El Carmen", "lat": 18.484443, "lng": -96.422683
},{
"label": "La Carbonera", "lat": 18.446379, "lng": -96.426731
},{
"label": "Esperanza", "lat": 18.437631, "lng": -96.397346
},{
"label": "Barbasco", "lat": 18.583669, "lng": -96.559808
},{
"label": "El Cedro", "lat": 18.567138, "lng": -96.46574
},{
"label": "Campo Grande", "lat": 18.474143, "lng": -96.675614
},{
"label": "Cerro Castillo", "lat": 18.564859, "lng": -96.627815
},{
"label": "La Cotorra", "lat": 18.517052, "lng": -96.614934
},{
"label": "Plan de Ayala", "lat": 18.373676, "lng": -96.66639
},{
"label": "El Dorado", "lat": 18.580683, "lng": -96.513867
},{
"label": "San Antonio Dos", "lat": 18.382909, "lng": -96.580332
},{
"label": "Santa Mónica", "lat": 18.56987, "lng": -96.513781
},{
"label": "Los Lara [Rancho]", "lat": 18.497299, "lng": -96.535248
},{
"label": "Cobagar", "lat": 18.448666, "lng": -96.432968
},{
"label": "Rancho Ramírez", "lat": 18.545159, "lng": -96.56735
},{
"label": "La Gloria", "lat": 18.45297, "lng": -96.490089
},{
"label": "Buenavista", "lat": 18.522903, "lng": -96.569349
},{
"label": "Rancho Pavón", "lat": 18.510509, "lng": -96.484049
},{
"label": "San Isidro", "lat": 18.427382, "lng": -96.394343
},{
"label": "La Coraza", "lat": 18.407653, "lng": -96.513124
},{
"label": "Tembladera del Castillo", "lat": 18.393097, "lng": -96.499098
},{
"label": "Primera Ampliación la Palma (El Viejo)", "lat": 18.468348, "lng": -96.448369
},{
"label": "Santa Teresa", "lat": 18.404458, "lng": -96.45213
},{
"label": "El Ciégano", "lat": 18.455148, "lng": -96.491724
},{
"label": "El Arbolito", "lat": 18.440592, "lng": -96.427917
},{
"label": "Colonia Vicente García", "lat": 18.467673, "lng": -96.597198
},{
"label": "Emiliano Zapata (Colonia 21 de Mayo)", "lat": 18.429764, "lng": -96.606373
},{
"label": "Los Huertos [Fraccionamiento]", "lat": 18.50158, "lng": -96.545742
},{
"label": "Joliette", "lat": 18.413887, "lng": -96.377218
},{
"label": "El Carmen (Rancho de los Montiel)", "lat": 18.566773, "lng": -96.641076
},{
"label": "Desviación a la Palma", "lat": 18.498647, "lng": -96.46562
},{
"label": "Cerro Mojarra", "lat": 18.391704, "lng": -96.597579
},{
"label": "Los Ojochales", "lat": 18.518931, "lng": -96.497481
},{
"label": "La Junta", "lat": 18.490111, "lng": -96.657046
},{
"label": "La Palma", "lat": 18.468758, "lng": -96.433419
},{
"label": "Saltillo", "lat": 18.567932, "lng": -96.532691
},{
"label": "Esperanza Madero", "lat": 18.368582, "lng": -96.588103
},{
"label": "Casa Blanca", "lat": 18.476781, "lng": -96.510424
},{
"label": "Los Vírgenes", "lat": 18.503388, "lng": -96.551584
},{
"label": "Manantiales Dos", "lat": 18.429387, "lng": -96.520737
},{
"label": "Rancho de Oro", "lat": 18.502574, "lng": -96.605101
},{
"label": "Los Manantiales", "lat": 18.435524, "lng": -96.509921
},{
"label": "Paso Limón", "lat": 18.548804, "lng": -96.507321
},{
"label": "Santiago Cibrián", "lat": 18.557788, "lng": -96.511294
},{
"label": "La Candelaria", "lat": 18.535975, "lng": -96.637315
},{
"label": "Maravillas", "lat": 18.567981, "lng": -96.548483
},{
"label": "El Retiro", "lat": 18.492598, "lng": -96.473577
},{
"label": "Rancho Arco", "lat": 18.373695, "lng": -96.634109
},{
"label": "La Isleta", "lat": 18.482033, "lng": -96.437208
},{
"label": "Tembladera Vista Hermosa", "lat": 18.428985, "lng": -96.508329
},{
"label": "Buenos Aires", "lat": 18.555952, "lng": -96.602946
},{
"label": "La Magdalena", "lat": 18.496434, "lng": -96.477299
},{
"label": "Estancia de Vacas", "lat": 18.416525, "lng": -96.513534
},{
"label": "La Ogada", "lat": 18.526123, "lng": -96.463575
},{
"label": "Palo Solo", "lat": 18.486979, "lng": -96.432446
},{
"label": "Palma Cuata", "lat": 18.362717, "lng": -96.621099
},{
"label": "Rancho Cañón", "lat": 18.546183, "lng": -96.583579
},{
"label": "San Antonio", "lat": 18.418704, "lng": -96.52883
},{
"label": "Cerro las Águilas", "lat": 18.436447, "lng": -96.549785
},{
"label": "Laguna Verde", "lat": 18.46077, "lng": -96.685685
},{
"label": "Peña Blanca", "lat": 18.406467, "lng": -96.659514
},{
"label": "Los Reyes", "lat": 18.565268, "lng": -96.646452
},{
"label": "Rancho Matías Virgen Virgen", "lat": 18.527752, "lng": -96.602071
},{
"label": "San Evaristo", "lat": 18.573464, "lng": -96.527364
},{
"label": "El Limón Uno", "lat": 18.550379, "lng": -96.482895
},{
"label": "El Alacrán", "lat": 18.460513, "lng": -96.505183
},{
"label": "Rancho Tetela (Parada los Mangos)", "lat": 18.498325, "lng": -96.470039
},{
"label": "Torreón", "lat": 18.411659, "lng": -96.385655
},{
"label": "La Herencia", "lat": 18.429046, "lng": -96.395539
},{
"label": "La Sabaneta", "lat": 18.52815, "lng": -96.618101
},{
"label": "El Porvenir", "lat": 18.506471, "lng": -96.478683
},{
"label": "El Naranjal", "lat": 18.414005, "lng": -96.400519
},{
"label": "Los Lirios", "lat": 18.555074, "lng": -96.539789
},{
"label": "Los Trapiches", "lat": 18.541929, "lng": -96.596533
},{
"label": "El Cedral", "lat": 18.367069, "lng": -96.479877
},{
"label": "Colonia Josefa Ortiz de Domínguez", "lat": 18.393683, "lng": -96.44189
},{
"label": "El Esfuerzo", "lat": 18.516182, "lng": -96.553648
},{
"label": "La Laguna", "lat": 18.425511, "lng": -96.504122
},{
"label": "Rancho Cortez Lozano", "lat": 18.520424, "lng": -96.535
},{
"label": "La Raya", "lat": 18.404425, "lng": -96.366443
},{
"label": "Las Cadenas", "lat": 18.583748, "lng": -96.52487
},{
"label": "Bonito", "lat": 18.518884, "lng": -96.629317
},{
"label": "San Antonio [Rancho]", "lat": 18.510135, "lng": -96.452219
},{
"label": "La Fortunita", "lat": 18.425844, "lng": -96.403429
},{
"label": "La Loma [Rancho]", "lat": 18.50199, "lng": -96.483987
},{
"label": "Los Cañas (Tres Potencias)", "lat": 18.4192, "lng": -96.600524
},{
"label": "Santo Tomás", "lat": 18.555166, "lng": -96.525413
},{
"label": "El Mirador", "lat": 18.515933, "lng": -96.451511
},{
"label": "El Nacimiento", "lat": 18.562031, "lng": -96.623579
},{
"label": "Rancho López", "lat": 18.521672, "lng": -96.505605
},{
"label": "Campo Chico", "lat": 18.478007, "lng": -96.653328
},{
"label": "Los Encinos", "lat": 18.546862, "lng": -96.613479
},{
"label": "El Conejo", "lat": 18.536104, "lng": -96.45291
},{
"label": "La Estrella", "lat": 18.556985, "lng": -96.637805
},{
"label": "La Guadalupe", "lat": 18.388828, "lng": -96.645965
},{
"label": "Aserradero", "lat": 18.510138, "lng": -96.571373
},{
"label": "Rancho Alegre", "lat": 18.514498, "lng": -96.461526
},{
"label": "La Merced", "lat": 18.441587, "lng": -96.407461
},{
"label": "El Zapote", "lat": 18.449824, "lng": -96.629878
},{
"label": "El Setenta y Dos", "lat": 18.511574, "lng": -96.511331
},{
"label": "Rancho Grande", "lat": 18.352835, "lng": -96.348667
},{
"label": "La Tabaquera", "lat": 18.335994, "lng": -96.451218
},{
"label": "Loma de Azures", "lat": 18.526596, "lng": -96.532002
},{
"label": "Tetela", "lat": 18.508816, "lng": -96.458011
},{
"label": "Lindero", "lat": 18.418248, "lng": -96.612016
},{
"label": "Arroyo de Enmedio", "lat": 18.496071, "lng": -96.546756
},{
"label": "Santa Teresita", "lat": 18.504567, "lng": -96.443786
},{
"label": "El Tigre", "lat": 18.520127, "lng": -96.579475
},{
"label": "La Cuchilla", "lat": 18.519379, "lng": -96.634156
},{
"label": "Julián González Soriano", "lat": 18.418918, "lng": -96.615241
},{
"label": "Guadalupe de los Reyes", "lat": 18.553318, "lng": -96.631093
},{
"label": "La Michuca", "lat": 18.496612, "lng": -96.42362
},{
"label": "El Crucero", "lat": 18.520413, "lng": -96.557216
},{
"label": "El Peñón", "lat": 18.46679, "lng": -96.536814
},{
"label": "Tembladera de la Selva 1", "lat": 18.449133, "lng": -96.518033
},{
"label": "Tembladera de la Selva 2", "lat": 18.437829, "lng": -96.530023
},{
"label": "Los Pinos", "lat": 18.542791, "lng": -96.637984
},{
"label": "Santa Cruz", "lat": 18.475041, "lng": -96.654455
},{
"label": "Ojo de Agua o Palma Cuata", "lat": 18.441054, "lng": -96.484294
},{
"label": "Ojo de Agua", "lat": 18.468941, "lng": -96.457417
},{
"label": "La Defensa", "lat": 18.501826, "lng": -96.541431
},{
"label": "Santa Elena", "lat": 18.504646, "lng": -96.505905
},{
"label": "San Felipe de Jesús", "lat": 18.580634, "lng": -96.519663
},{
"label": "Mundo Nuevo", "lat": 18.449494, "lng": -96.444481
},{
"label": "Agua Escondida (Joya Honda)", "lat": 18.478344, "lng": -96.590691
},{
"label": "El Azufre", "lat": 18.426608, "lng": -96.391458
},{
"label": "Los López [Rancho]", "lat": 18.527245, "lng": -96.555263
},{
"label": "Las Tres Marías", "lat": 18.464169, "lng": -96.648403
},{
"label": "Cañada San Antonio", "lat": 18.459648, "lng": -96.638975
},{
"label": "Las Maravillas", "lat": 18.507923, "lng": -96.638418
},{
"label": "La Reforma", "lat": 18.483412, "lng": -96.464803
},{
"label": "Las Anonas", "lat": 18.433312, "lng": -96.415057
},{
"label": "San Francisco (El Trapiche)", "lat": 18.513542, "lng": -96.503061
},{
"label": "Las Flores", "lat": 18.502644, "lng": -96.499612
},{
"label": "Las Casitas", "lat": 18.516849, "lng": -96.43303
},{
"label": "Doña Rufina (El Mirador)", "lat": 18.55408, "lng": -96.517116
},{
"label": "San Antonio Uno", "lat": 18.391227, "lng": -96.581671
},{
"label": "Santo Domingo", "lat": 18.509793, "lng": -96.426634
},{
"label": "El Nanche", "lat": 18.544289, "lng": -96.624384
},{
"label": "Los Corrales", "lat": 18.425897, "lng": -96.617279
},{
"label": "La Loma", "lat": 18.505981, "lng": -96.559324
},{
"label": "Los Torres", "lat": 18.467721, "lng": -96.463446
},{
"label": "Miguel Hidalgo", "lat": 18.554839, "lng": -96.471591
},{
"label": "Arroyo de Pita", "lat": 18.392587, "lng": -96.362061
},{
"label": "Aserradero Segundo", "lat": 18.450408, "lng": -96.644048
},{
"label": "Cañamazal", "lat": 18.565666, "lng": -96.494077
},{
"label": "San Francisco", "lat": 18.506604, "lng": -96.507244
},{
"label": "Cosolapa Sarmiento", "lat": 18.372974, "lng": -96.573309
},{
"label": "Sierra Mojarra", "lat": 18.54039, "lng": -96.621773
},{
"label": "Vicente Camalote", "lat": 18.513523, "lng": -96.531845
},{
"label": "Los Caracoles", "lat": 18.539052, "lng": -96.641079
},{
"label": "Los Almendros", "lat": 18.569017, "lng": -96.469295
},{
"label": "Josefa Ortiz de Domínguez (La Josefita)", "lat": 18.411066, "lng": -96.465804
},{
"label": "Zona Urbana Ejidal", "lat": 18.532724, "lng": -96.588276
},{
"label": "Rancho Charito", "lat": 18.538407, "lng": -96.553874
},{
"label": "Monte Alto", "lat": 18.472457, "lng": -96.577852
},{
"label": "Rancho Cuatro Vientos", "lat": 18.563883, "lng": -96.653562
}]