[{
"label": "La Tortuga [Paraje]", "lat": 16.995956, "lng": -96.714674
},{
"label": "El Paredón", "lat": 16.980834, "lng": -96.715298
},{
"label": "Ánimas Trujano", "lat": 16.988882, "lng": -96.713196
},{
"label": "El Zapotillo", "lat": 16.982795, "lng": -96.713787
},{
"label": "La Ciénega", "lat": 16.996939, "lng": -96.718803
}]