[{
"label": "El Solano", "lat": 17.910619, "lng": -97.693478
},{
"label": "Barrio San Antonio", "lat": 17.92981, "lng": -97.676605
},{
"label": "El Carbón", "lat": 17.910112, "lng": -97.686808
},{
"label": "Barrio Santa Cruz", "lat": 17.936623, "lng": -97.676523
},{
"label": "Barrio Guadalupe", "lat": 17.929042, "lng": -97.666543
},{
"label": "Asunción Cuyotepeji", "lat": 17.930901, "lng": -97.674353
}]