[{
"label": "Loma del Romero", "lat": 17.315754, "lng": -96.446664
},{
"label": "La Herradura", "lat": 17.312695, "lng": -96.450223
},{
"label": "Capulálpam de Méndez", "lat": 17.306421, "lng": -96.44598
},{
"label": "Rancho Galdino Gijón", "lat": 17.311174, "lng": -96.448203
},{
"label": "Monserrat [Barrio]", "lat": 17.303016, "lng": -96.441068
},{
"label": "San Isidro", "lat": 17.314919, "lng": -96.451886
}]