[{
"label": "Loma de Silla", "lat": 17.999146, "lng": -96.744011
},{
"label": "Agua Cuchara", "lat": 18.007667, "lng": -96.744851
},{
"label": "Agua Espina", "lat": 17.973698, "lng": -96.75978
},{
"label": "Agua Trapo", "lat": 17.966048, "lng": -96.756477
},{
"label": "Trapiche Viejo", "lat": 18.008311, "lng": -96.765624
},{
"label": "El Aguacate", "lat": 18.002885, "lng": -96.749666
},{
"label": "Wilfredo Hernández", "lat": 17.98561, "lng": -96.746761
},{
"label": "Agua Tendida", "lat": 17.972895, "lng": -96.765596
},{
"label": "La Concepción", "lat": 17.967503, "lng": -96.74321
},{
"label": "Campo de Aviación", "lat": 17.999559, "lng": -96.75768
},{
"label": "Tres Aguas", "lat": 17.993581, "lng": -96.778956
},{
"label": "Loma Anillo", "lat": 18.008521, "lng": -96.755101
},{
"label": "La Laguna (Loma del Cacalote)", "lat": 17.999006, "lng": -96.760892
},{
"label": "Agua Perrito (El Carrizal)", "lat": 17.977291, "lng": -96.774745
},{
"label": "Chiquihuitlán de Benito Juárez", "lat": 17.995439, "lng": -96.745448
},{
"label": "Loma Ojiteca", "lat": 18.004738, "lng": -96.753367
}]