[{
"label": "Tecomaltianguisco", "lat": 17.857768, "lng": -96.711764
},{
"label": "Río Gavilán", "lat": 17.857584, "lng": -96.885244
},{
"label": "San Francisco Pueblo Nuevo", "lat": 17.863391, "lng": -96.866571
},{
"label": "Peña Blanca", "lat": 17.897049, "lng": -96.826069
},{
"label": "San Lorenzo Pápalo", "lat": 17.88523, "lng": -96.876929
},{
"label": "Las Trancas (Rancho los Mejía)", "lat": 17.851777, "lng": -96.88855
},{
"label": "Concepción Pápalo", "lat": 17.841365, "lng": -96.88136
},{
"label": "San Francisco de Asís", "lat": 17.864138, "lng": -96.843428
},{
"label": "El Aguacate", "lat": 17.851466, "lng": -96.860173
},{
"label": "Aserradero Pápalo (Tierra Colorada)", "lat": 17.844299, "lng": -96.853141
},{
"label": "Zaragoza", "lat": 17.837538, "lng": -96.880557
},{
"label": "Natuiño", "lat": 17.837156, "lng": -96.863189
},{
"label": "Joya Durazno", "lat": 17.855459, "lng": -96.748324
},{
"label": "Calvario [Barrio]", "lat": 17.84465, "lng": -96.888666
},{
"label": "Buena Vista", "lat": 17.8588, "lng": -96.853549
},{
"label": "5 de Mayo", "lat": 17.843118, "lng": -96.871296
},{
"label": "Coápam de Guerrero", "lat": 17.831201, "lng": -96.851106
}]