[{
"label": "Cosolapa", "lat": 18.601787, "lng": -96.682386
},{
"label": "Las Pochotas", "lat": 18.56155, "lng": -96.666699
},{
"label": "El Macayo", "lat": 18.584216, "lng": -96.677668
},{
"label": "El Recuerdo", "lat": 18.536663, "lng": -96.644517
},{
"label": "Rancho Chico", "lat": 18.55149, "lng": -96.652913
},{
"label": "Miguel Hidalgo (Colonia Agrícola)", "lat": 18.525916, "lng": -96.716802
},{
"label": "Colonia Agrícola Cachalapa", "lat": 18.503227, "lng": -96.680452
},{
"label": "Cerro Alto", "lat": 18.546215, "lng": -96.709066
},{
"label": "Rancho Calihua", "lat": 18.578208, "lng": -96.645396
},{
"label": "La Aurora", "lat": 18.566639, "lng": -96.665962
},{
"label": "El Nacimiento", "lat": 18.601402, "lng": -96.663713
},{
"label": "El Nacimiento (Rancho Constancia)", "lat": 18.602077, "lng": -96.675653
},{
"label": "El Retiro", "lat": 18.619954, "lng": -96.659182
},{
"label": "Canutillo", "lat": 18.598095, "lng": -96.659834
},{
"label": "Los Limones", "lat": 18.592735, "lng": -96.642324
},{
"label": "Rincón Cerro Alto", "lat": 18.560212, "lng": -96.719061
},{
"label": "Rancho Tablas de Reyes Carrizal (San Miguel)", "lat": 18.57481, "lng": -96.638402
},{
"label": "Graciano Benítez", "lat": 18.590574, "lng": -96.663865
},{
"label": "Almolonga Viejo", "lat": 18.6291, "lng": -96.671272
},{
"label": "Rancho Génesis", "lat": 18.596869, "lng": -96.659475
},{
"label": "Morelos", "lat": 18.574171, "lng": -96.671437
},{
"label": "Monte Obscuro", "lat": 18.600822, "lng": -96.598456
},{
"label": "San Jorge (Rancho del Turco)", "lat": 18.61415, "lng": -96.605763
},{
"label": "San Rafael", "lat": 18.624794, "lng": -96.641359
},{
"label": "Almolonga", "lat": 18.609554, "lng": -96.661963
},{
"label": "Arenal Carrasco", "lat": 18.578418, "lng": -96.67533
},{
"label": "El Refugio Viejo", "lat": 18.645109, "lng": -96.65308
},{
"label": "Estación Refugio", "lat": 18.58871, "lng": -96.658243
},{
"label": "Palma Sola", "lat": 18.6196, "lng": -96.622791
},{
"label": "Benito Juárez", "lat": 18.534903, "lng": -96.725374
},{
"label": "Colonia Chema Martínez", "lat": 18.595925, "lng": -96.655798
},{
"label": "Serranía Cachalapa", "lat": 18.550524, "lng": -96.707616
},{
"label": "La Soledad", "lat": 18.600493, "lng": -96.663179
},{
"label": "El Porvenir", "lat": 18.598544, "lng": -96.653753
},{
"label": "Rancho la Gloria (Santa Rita)", "lat": 18.586173, "lng": -96.620166
},{
"label": "Rancho Tablas Reyes", "lat": 18.572426, "lng": -96.655326
},{
"label": "Cal Química de Cosolapa", "lat": 18.602378, "lng": -96.668548
}]