[{
"label": "El Palenque", "lat": 16.685025, "lng": -96.756347
},{
"label": "Higo Mocho (Piedra Cuache)", "lat": 16.551801, "lng": -96.768792
},{
"label": "Heroica Ciudad de Ejutla de Crespo", "lat": 16.564276, "lng": -96.731901
},{
"label": "La Noria de Ortiz", "lat": 16.694325, "lng": -96.73078
},{
"label": "RICINOMEX", "lat": 16.640762, "lng": -96.733779
},{
"label": "Nuevo Venustiano Carranza", "lat": 16.554018, "lng": -96.607602
},{
"label": "San Joaquín", "lat": 16.590862, "lng": -96.757434
},{
"label": "San Juan Coatecas Bajas", "lat": 16.547099, "lng": -96.709411
},{
"label": "El Cabrito", "lat": 16.525848, "lng": -96.721649
},{
"label": "La Noria", "lat": 16.485134, "lng": -96.788295
},{
"label": "Hacienda Vieja", "lat": 16.540046, "lng": -96.75882
},{
"label": "El Arrogante Justo Benítez", "lat": 16.527891, "lng": -96.6906
},{
"label": "El Vergel", "lat": 16.640427, "lng": -96.751319
},{
"label": "Rinconada de San Diego", "lat": 16.566713, "lng": -96.624593
},{
"label": "El Cerro de las Huertas", "lat": 16.566186, "lng": -96.700773
},{
"label": "El Brujo [Rancho]", "lat": 16.636976, "lng": -96.727336
},{
"label": "La Pitiona", "lat": 16.528513, "lng": -96.741865
},{
"label": "Guelasico", "lat": 16.585447, "lng": -96.725263
},{
"label": "Agua Rica", "lat": 16.543807, "lng": -96.737346
},{
"label": "El Progreso (Barrio de Coapa)", "lat": 16.599015, "lng": -96.749128
},{
"label": "La Escalera", "lat": 16.46821, "lng": -96.605023
},{
"label": "La Ermita", "lat": 16.535406, "lng": -96.735521
},{
"label": "El Saúz", "lat": 16.51767, "lng": -96.752183
},{
"label": "La Lobera", "lat": 16.50767, "lng": -96.724574
},{
"label": "Guelaxico (Paraje Bonanza)", "lat": 16.593534, "lng": -96.704711
},{
"label": "Cerro Yaniche", "lat": 16.651194, "lng": -96.746811
},{
"label": "El Puente", "lat": 16.567598, "lng": -96.740588
},{
"label": "San Matías Chilazoa", "lat": 16.727418, "lng": -96.73342
},{
"label": "Yegoseve", "lat": 16.56731, "lng": -96.716495
},{
"label": "Barrio Chino", "lat": 16.579896, "lng": -96.720642
},{
"label": "Los Ocotes", "lat": 16.614199, "lng": -96.720027
},{
"label": "Barranca Larga", "lat": 16.492675, "lng": -96.736315
},{
"label": "Santa Marta Chichihualtepec", "lat": 16.647161, "lng": -96.77314
},{
"label": "Rancho Nogal (Los Jarquines)", "lat": 16.547698, "lng": -96.721168
},{
"label": "Santa Cruz Nexila", "lat": 16.633199, "lng": -96.85071
},{
"label": "Monte del Toro", "lat": 16.676941, "lng": -96.739377
},{
"label": "El Tortuguero", "lat": 16.558466, "lng": -96.742151
},{
"label": "La Cieneguilla", "lat": 16.505309, "lng": -96.743882
},{
"label": "La Capilla", "lat": 16.555823, "lng": -96.704915
},{
"label": "San Juan Logolava", "lat": 16.676899, "lng": -96.807426
}]