[{
"label": "El Rincón", "lat": 17.882403, "lng": -97.794342
},{
"label": "Núcleo Rural Universitario", "lat": 17.829602, "lng": -97.804465
},{
"label": "San Ángel [Fraccionamiento]", "lat": 17.831129, "lng": -97.773361
},{
"label": "Santa Teresa Segunda Sección", "lat": 17.808376, "lng": -97.754268
},{
"label": "El Rosario", "lat": 17.775097, "lng": -97.78447
},{
"label": "Ahuehuetitlán de González", "lat": 17.93804, "lng": -97.77825
},{
"label": "San Rafael Segunda Sección", "lat": 17.808616, "lng": -97.798497
},{
"label": "La Estancia", "lat": 17.791107, "lng": -97.773268
},{
"label": "San Diego", "lat": 17.827113, "lng": -97.774656
},{
"label": "Rancho Ramírez", "lat": 17.874604, "lng": -97.763139
},{
"label": "Acatlima", "lat": 17.828107, "lng": -97.810658
},{
"label": "San Nicolás Tabernillas", "lat": 17.859819, "lng": -97.790122
},{
"label": "San Sebastián Progreso", "lat": 17.811425, "lng": -97.691831
},{
"label": "Señor de los Corazones", "lat": 17.813383, "lng": -97.745584
},{
"label": "El Carmen II [Fraccionamiento]", "lat": 17.795035, "lng": -97.797511
},{
"label": "Magdalena Tetaltepec", "lat": 18.003952, "lng": -97.817686
},{
"label": "San Pedro Yodoyuxi", "lat": 17.737523, "lng": -97.781206
},{
"label": "Reforma Agraria", "lat": 17.823862, "lng": -97.800121
},{
"label": "El Zapote (El Zapote Juquilita)", "lat": 17.777519, "lng": -97.765426
},{
"label": "Rancho Jesús", "lat": 17.804537, "lng": -97.825849
},{
"label": "Santa Teresa", "lat": 17.802959, "lng": -97.764309
},{
"label": "Tabaco", "lat": 17.875476, "lng": -97.755546
},{
"label": "Colonia San Mateo", "lat": 17.814155, "lng": -97.760444
},{
"label": "Agua Salada [Paraje]", "lat": 17.800813, "lng": -97.809365
},{
"label": "Colonia Heroes de la Independencia", "lat": 17.798735, "lng": -97.763368
},{
"label": "Yuxichi", "lat": 17.876882, "lng": -97.736389
},{
"label": "Santa María Ayú", "lat": 17.933537, "lng": -97.800293
},{
"label": "Rancho Reyes", "lat": 17.856082, "lng": -97.76966
},{
"label": "Salto del Agua", "lat": 17.795957, "lng": -97.803119
},{
"label": "Hacienda del Carmen", "lat": 17.794155, "lng": -97.792021
},{
"label": "Colonia Sinaí Primera Sección", "lat": 17.806839, "lng": -97.802128
},{
"label": "Ojo de Agua", "lat": 17.749085, "lng": -97.769557
},{
"label": "Vista Hermosa", "lat": 17.796526, "lng": -97.757218
},{
"label": "La Junta", "lat": 17.828149, "lng": -97.745898
},{
"label": "La Ciénega", "lat": 17.847714, "lng": -97.864221
},{
"label": "San Miguel Papalutla", "lat": 17.762643, "lng": -97.907213
},{
"label": "El Tatoto (Palo de Flor)", "lat": 17.800621, "lng": -97.815304
},{
"label": "Dolores", "lat": 17.853531, "lng": -97.75243
},{
"label": "Agua Dulce", "lat": 17.83717, "lng": -97.790048
},{
"label": "Colonia del Maestro", "lat": 17.823221, "lng": -97.770201
},{
"label": "Las Campanas", "lat": 17.824071, "lng": -97.797004
},{
"label": "Las Palmas", "lat": 17.804454, "lng": -97.806649
},{
"label": "El Castillo", "lat": 17.838237, "lng": -97.751197
},{
"label": "El Molino", "lat": 17.778274, "lng": -97.750982
},{
"label": "Saucitlán de Morelos", "lat": 17.782378, "lng": -97.834959
},{
"label": "Juquilita", "lat": 17.776845, "lng": -97.794065
},{
"label": "Volcanes [Colonia]", "lat": 17.832379, "lng": -97.77534
},{
"label": "Los Naranjos [Fraccionamiento]", "lat": 17.785331, "lng": -97.775758
},{
"label": "Heroica Ciudad de Huajuapan de León", "lat": 17.806837, "lng": -97.776236
},{
"label": "Rancho Burgoa", "lat": 17.812938, "lng": -97.749338
},{
"label": "Santiago Chilixtlahuaca", "lat": 17.90601, "lng": -97.895251
},{
"label": "La Estancia Tercera Sección [Fraccionamiento]", "lat": 17.794484, "lng": -97.766066
},{
"label": "FIDEPAL (Colonia Lázaro Cárdenas del Río)", "lat": 17.825862, "lng": -97.792187
},{
"label": "Los Pinos 2a. Sección [Colonia]", "lat": 17.808725, "lng": -97.803423
},{
"label": "Llano Grande", "lat": 17.899933, "lng": -97.731779
},{
"label": "Colonia Buena Vista", "lat": 17.824432, "lng": -97.816092
},{
"label": "El Girón", "lat": 17.807962, "lng": -97.813752
},{
"label": "San Francisco Yosocuta", "lat": 17.746406, "lng": -97.819244
},{
"label": "Monte Albán [Colonia]", "lat": 17.830803, "lng": -97.772464
},{
"label": "Santa Rosa Segunda Sección", "lat": 17.8245, "lng": -97.77648
},{
"label": "Rancho Solano", "lat": 17.816111, "lng": -97.815936
}]