[{
"label": "De Lache", "lat": 17.222812, "lng": -96.828933
},{
"label": "Las Pilas", "lat": 17.245803, "lng": -96.827678
},{
"label": "Paraje la Soledad (El Arenal)", "lat": 17.239861, "lng": -96.827003
},{
"label": "Magdalena Apasco", "lat": 17.242063, "lng": -96.821091
},{
"label": "San Sebastián Xochimilco", "lat": 17.237845, "lng": -96.840901
},{
"label": "Santa Martha Etla", "lat": 17.250979, "lng": -96.808223
},{
"label": "La Peña", "lat": 17.24776, "lng": -96.826304
},{
"label": "Las Crucecitas", "lat": 17.241096, "lng": -96.802553
},{
"label": "La Libertad Xochimilco (Segunda Sección)", "lat": 17.227213, "lng": -96.845462
},{
"label": "Ex-Hacienda Catano [Fraccionamiento]", "lat": 17.227869, "lng": -96.815373
},{
"label": "San Isidro Catano", "lat": 17.220709, "lng": -96.820919
},{
"label": "La Ciénega", "lat": 17.24312, "lng": -96.812331
}]