[{
"label": "Santa María Yucucú Ojo de Agua", "lat": 17.144971, "lng": -97.266039
},{
"label": "Loma del Cuatillo", "lat": 17.321106, "lng": -97.209576
},{
"label": "El Potrero", "lat": 17.290814, "lng": -97.258024
},{
"label": "Magdalena Jaltepec", "lat": 17.323621, "lng": -97.221277
},{
"label": "San Martín", "lat": 17.168453, "lng": -97.288911
},{
"label": "El Rosario", "lat": 17.298359, "lng": -97.211598
},{
"label": "Guadalupe Victoria", "lat": 17.255651, "lng": -97.278775
},{
"label": "San Miguel", "lat": 17.309562, "lng": -97.247132
},{
"label": "El Nogal", "lat": 17.335676, "lng": -97.212563
},{
"label": "San Isidro", "lat": 17.339384, "lng": -97.231241
},{
"label": "El Paredón", "lat": 17.363486, "lng": -97.183074
},{
"label": "Linda Vista", "lat": 17.324423, "lng": -97.185636
},{
"label": "Loma Larga", "lat": 17.274714, "lng": -97.29296
},{
"label": "La Quebradora", "lat": 17.329133, "lng": -97.15253
},{
"label": "Morelos", "lat": 17.289225, "lng": -97.282015
},{
"label": "La Cumbre", "lat": 17.356481, "lng": -97.169175
},{
"label": "Hidalgo", "lat": 17.351191, "lng": -97.19083
},{
"label": "Llano del Panteón", "lat": 17.31596, "lng": -97.227438
},{
"label": "Loma Carrera", "lat": 17.17685, "lng": -97.266058
},{
"label": "La Unión", "lat": 17.275928, "lng": -97.217465
},{
"label": "Piedra Azul", "lat": 17.361996, "lng": -97.197327
},{
"label": "Santiago Buenavista", "lat": 17.283977, "lng": -97.197421
},{
"label": "Santa Cruz Mitlatongo", "lat": 17.178202, "lng": -97.305166
},{
"label": "El Palmar", "lat": 17.336791, "lng": -97.167014
},{
"label": "El Venado", "lat": 17.250363, "lng": -97.233282
}]