[{
"label": "Rancho Bonifacio Franco", "lat": 17.334008, "lng": -95.103948
},{
"label": "El Carmen", "lat": 16.870246, "lng": -94.976923
},{
"label": "La Noria [Rancho]", "lat": 17.242171, "lng": -95.0706
},{
"label": "Las Hormigas", "lat": 17.291728, "lng": -95.075731
},{
"label": "La Palmita", "lat": 16.85358, "lng": -95.049111
},{
"label": "El Columpio", "lat": 17.337988, "lng": -95.024396
},{
"label": "Las Cañas", "lat": 17.361902, "lng": -95.063541
},{
"label": "Las Flores [Comunidad]", "lat": 17.10588, "lng": -94.79363
},{
"label": "La Victoria", "lat": 17.35959, "lng": -95.204097
},{
"label": "Altamira", "lat": 17.249609, "lng": -95.123717
},{
"label": "Rancho Prieto", "lat": 17.043856, "lng": -94.751285
},{
"label": "Centro de Desarrollo Genético", "lat": 17.262675, "lng": -95.034546
},{
"label": "El Paraíso", "lat": 17.275683, "lng": -95.197764
},{
"label": "Los Potrillos", "lat": 17.300061, "lng": -95.133274
},{
"label": "Barrio Nuevo", "lat": 16.880171, "lng": -95.011459
},{
"label": "La Gloria", "lat": 17.275581, "lng": -95.055218
},{
"label": "Cirilo Méndez", "lat": 17.182891, "lng": -95.059914
},{
"label": "El Faisán", "lat": 17.344724, "lng": -95.099808
},{
"label": "Rivera", "lat": 17.171322, "lng": -95.064043
},{
"label": "Cuauhtémoc", "lat": 17.102413, "lng": -94.885263
},{
"label": "El Chamizal", "lat": 17.142604, "lng": -94.91362
},{
"label": "Rancho Roque", "lat": 17.275561, "lng": -95.053799
},{
"label": "San Pedro Evangelista", "lat": 17.182871, "lng": -95.261111
},{
"label": "Los Ángeles", "lat": 17.394259, "lng": -95.165554
},{
"label": "San Isidro", "lat": 17.388169, "lng": -95.133873
},{
"label": "La Joya", "lat": 17.284547, "lng": -95.054163
},{
"label": "Arroyo Seco", "lat": 17.236805, "lng": -95.141576
},{
"label": "Buena Vista", "lat": 17.119502, "lng": -94.816084
},{
"label": "Rancho Primaveral", "lat": 17.168321, "lng": -94.834766
},{
"label": "Las Vegas", "lat": 17.020512, "lng": -94.910205
},{
"label": "Media Luna", "lat": 17.149784, "lng": -94.823801
},{
"label": "El Talismán", "lat": 17.187916, "lng": -94.898165
},{
"label": "El Ponedero", "lat": 16.874079, "lng": -94.973799
},{
"label": "El Paguital", "lat": 17.266439, "lng": -94.983412
},{
"label": "El Suriano", "lat": 17.404888, "lng": -95.118203
},{
"label": "La Aurora (Desviación Suchilapan) [Rancho]", "lat": 17.35691, "lng": -95.053264
},{
"label": "Chayotillo", "lat": 17.371338, "lng": -95.097254
},{
"label": "La Oaxaqueña", "lat": 16.855863, "lng": -95.05129
},{
"label": "La Línea", "lat": 17.3282, "lng": -95.018836
},{
"label": "El Paso de las Maravillas", "lat": 17.372825, "lng": -95.118013
},{
"label": "El Tucán", "lat": 17.190493, "lng": -94.973744
},{
"label": "Colonia Gabriel Ramos Millán", "lat": 17.191106, "lng": -94.919124
},{
"label": "Fracción el Manantial (Finca el Ubero)", "lat": 17.370354, "lng": -95.105391
},{
"label": "Nuevo Progreso", "lat": 17.137964, "lng": -95.049779
},{
"label": "Los Amigos", "lat": 17.297561, "lng": -95.016763
},{
"label": "Rancho Leticia", "lat": 17.170432, "lng": -95.064192
},{
"label": "Rancho Fausto García", "lat": 16.861412, "lng": -95.033408
},{
"label": "San Bernardo", "lat": 17.367701, "lng": -95.104454
},{
"label": "Nuevo Paraje", "lat": 17.289316, "lng": -95.051608
},{
"label": "Martínez de la Torre", "lat": 17.371389, "lng": -95.198333
},{
"label": "Las Jacarandas", "lat": 17.22504, "lng": -95.014228
},{
"label": "Matías Romero Avendaño", "lat": 16.877889, "lng": -95.042149
},{
"label": "Las Higueras", "lat": 17.132598, "lng": -94.833085
},{
"label": "Cuatro Caminos", "lat": 17.101718, "lng": -94.781201
},{
"label": "La Cascada (Puente el Límite)", "lat": 17.354208, "lng": -95.047451
},{
"label": "Piedras Negras", "lat": 17.099796, "lng": -94.921067
},{
"label": "Casa Blanca", "lat": 17.288966, "lng": -95.034375
},{
"label": "Ubero", "lat": 17.301559, "lng": -94.998145
},{
"label": "Los Limonares", "lat": 17.098563, "lng": -94.90929
},{
"label": "Juno", "lat": 17.193034, "lng": -95.026454
},{
"label": "Monte Oscuro", "lat": 16.889835, "lng": -94.919342
},{
"label": "Francisco Javier Jasso", "lat": 17.131951, "lng": -94.909409
},{
"label": "La Llorona [Rancho]", "lat": 17.07786, "lng": -94.83617
},{
"label": "Santa Clara", "lat": 17.231512, "lng": -95.037358
},{
"label": "El Retiro", "lat": 17.244518, "lng": -95.049224
},{
"label": "Las Palmitas", "lat": 17.180484, "lng": -95.061988
},{
"label": "El Venadito", "lat": 17.282936, "lng": -95.067286
},{
"label": "Colonia Agrícola Ganadera Progreso (El Lirio)", "lat": 17.21579, "lng": -94.913429
},{
"label": "Linda Vista", "lat": 17.180328, "lng": -94.845698
},{
"label": "Las Milpas", "lat": 17.152028, "lng": -95.065059
},{
"label": "San Isidro (Fracción del Rancho Elba)", "lat": 17.380581, "lng": -95.128454
},{
"label": "Rancho Ponce (Los Arrayanes)", "lat": 17.246608, "lng": -95.067435
},{
"label": "Rancho Doce Chica", "lat": 17.339116, "lng": -95.115731
},{
"label": "Monte los Tucanes", "lat": 17.197917, "lng": -94.96638
},{
"label": "San Antonio", "lat": 17.16415, "lng": -95.036999
},{
"label": "Peña Blanca", "lat": 17.401986, "lng": -95.127963
},{
"label": "La Cumbre", "lat": 17.331391, "lng": -95.049374
},{
"label": "La Nueva Esperanza", "lat": 16.890703, "lng": -95.009472
},{
"label": "Siete Hermanos", "lat": 17.267568, "lng": -95.026769
},{
"label": "La Viuda Benítez (Rancho de la Viuda Benítez)", "lat": 17.229691, "lng": -95.001058
},{
"label": "Foresta (El Aserradero)", "lat": 17.071209, "lng": -94.770912
},{
"label": "Los Pintos [Rancho]", "lat": 17.385027, "lng": -95.136912
},{
"label": "El Porvenir", "lat": 17.100406, "lng": -94.941795
},{
"label": "El Moro", "lat": 17.095908, "lng": -94.898309
},{
"label": "Rancho Soñador", "lat": 17.124794, "lng": -94.838088
},{
"label": "El Naranjal", "lat": 17.164882, "lng": -95.015102
},{
"label": "Monte Bello", "lat": 17.167803, "lng": -95.064868
},{
"label": "Ejido Diodoro Carrasco Altamirano", "lat": 17.268478, "lng": -95.027087
},{
"label": "Tres Espigas", "lat": 17.254825, "lng": -95.051099
},{
"label": "Rancho Nuevo", "lat": 16.895954, "lng": -94.932134
},{
"label": "Rancho Alaska", "lat": 17.308719, "lng": -95.138093
},{
"label": "Rancho Seco", "lat": 17.119319, "lng": -94.828104
},{
"label": "Rancho San Manuel", "lat": 17.266637, "lng": -95.024123
},{
"label": "El Limón", "lat": 17.288621, "lng": -95.080968
},{
"label": "Los Jabalines [Rancho]", "lat": 17.357485, "lng": -95.154023
},{
"label": "El Ensueño", "lat": 17.178711, "lng": -95.059813
},{
"label": "Rancho Monte Calvario (Rancho Ombligo)", "lat": 17.335981, "lng": -95.111425
},{
"label": "El Manantial", "lat": 17.369898, "lng": -95.103823
},{
"label": "Paisanos Atitlán", "lat": 16.855524, "lng": -95.032866
},{
"label": "Chayotillo Primero", "lat": 17.368441, "lng": -95.08281
},{
"label": "La Chiclosa", "lat": 17.226842, "lng": -95.004851
},{
"label": "El Platanillo", "lat": 17.121299, "lng": -94.846013
},{
"label": "El Roble (El Portillo)", "lat": 17.13565, "lng": -94.830255
},{
"label": "La Escuadra", "lat": 17.129787, "lng": -94.846488
},{
"label": "San Miguel", "lat": 17.172156, "lng": -95.064894
},{
"label": "Colonia Libertad", "lat": 16.857175, "lng": -95.043995
},{
"label": "La Lagunita", "lat": 17.057742, "lng": -94.765102
},{
"label": "Arroyo Azul", "lat": 17.080114, "lng": -94.77288
},{
"label": "El Gavilán", "lat": 17.183106, "lng": -94.830447
},{
"label": "El Mirador", "lat": 17.250501, "lng": -95.126515
},{
"label": "Río Escondido", "lat": 17.104423, "lng": -94.740799
},{
"label": "Nuevo Ubero", "lat": 17.320104, "lng": -95.050802
},{
"label": "Rancho Félix Maldonado", "lat": 17.374665, "lng": -95.154092
},{
"label": "Colonia Emiliano Zapata", "lat": 16.884139, "lng": -95.00588
},{
"label": "Rancho Elba", "lat": 17.374341, "lng": -95.120128
},{
"label": "El Remolino", "lat": 17.360349, "lng": -95.075945
},{
"label": "El Tarasco", "lat": 17.21781, "lng": -95.000369
},{
"label": "La Morucha [Rancho]", "lat": 17.345818, "lng": -95.091625
},{
"label": "El Llanito", "lat": 16.858343, "lng": -95.053077
},{
"label": "Rancho Alegre", "lat": 17.352491, "lng": -95.081208
},{
"label": "Río Verde", "lat": 17.039341, "lng": -94.782846
},{
"label": "La Herradura", "lat": 17.277098, "lng": -95.040513
},{
"label": "El Naranjo", "lat": 17.289156, "lng": -95.084937
},{
"label": "Edith Constantino Carmona [Colonia]", "lat": 16.881988, "lng": -95.009027
},{
"label": "San Pedro", "lat": 17.416632, "lng": -95.123267
},{
"label": "Colonia Cuauhtémoc", "lat": 17.096768, "lng": -94.895074
},{
"label": "Las Cruces [Rancho]", "lat": 17.26975, "lng": -95.092642
},{
"label": "Rancho Escondido (Sector Seis)", "lat": 17.12732, "lng": -95.059597
},{
"label": "Los Gómez", "lat": 17.426356, "lng": -95.133097
},{
"label": "Playa Varela", "lat": 17.170124, "lng": -94.928876
},{
"label": "Donají", "lat": 17.226209, "lng": -95.051299
},{
"label": "Monte Fiel", "lat": 17.356569, "lng": -95.048451
},{
"label": "Rancho Juan Romero", "lat": 17.063346, "lng": -94.876872
},{
"label": "La Pasada", "lat": 17.045175, "lng": -94.972708
},{
"label": "Vista Hermosa", "lat": 17.053675, "lng": -94.904028
},{
"label": "El Aserradero", "lat": 17.181948, "lng": -94.870523
},{
"label": "Desviación Brena Torres", "lat": 17.218754, "lng": -95.202219
},{
"label": "Barrancones", "lat": 16.841395, "lng": -95.054998
},{
"label": "La Colina de Sión", "lat": 17.356569, "lng": -95.04593
},{
"label": "Rancho San Carlos", "lat": 17.192318, "lng": -94.922838
},{
"label": "La Ceiba", "lat": 17.039209, "lng": -94.956944
},{
"label": "San Pablo", "lat": 17.297001, "lng": -95.095946
},{
"label": "Marisela", "lat": 17.338453, "lng": -95.115492
},{
"label": "Chayotillo Segundo (Rancho Froylán Muñiz)", "lat": 17.369743, "lng": -95.087393
},{
"label": "Las Cruces", "lat": 17.238241, "lng": -95.050116
},{
"label": "San Juan del Río", "lat": 17.25143, "lng": -95.253441
},{
"label": "Buena Vista Dos Hermanos", "lat": 17.353257, "lng": -95.150823
},{
"label": "Rancho Soledad", "lat": 17.406906, "lng": -95.132059
},{
"label": "Palomares", "lat": 17.139688, "lng": -95.061331
},{
"label": "Profesor Otilio Montaño", "lat": 17.146108, "lng": -94.966676
},{
"label": "Vitela (Predio Visuriki)", "lat": 17.238698, "lng": -95.042071
},{
"label": "Las Flores", "lat": 16.885833, "lng": -95.010556
},{
"label": "Paso del Buque (El Bañadero)", "lat": 17.16536, "lng": -95.023665
},{
"label": "Puerta la Palestina", "lat": 17.236816, "lng": -95.026026
},{
"label": "El Retiro [Rancho]", "lat": 17.193897, "lng": -95.297276
},{
"label": "El Tamarindo", "lat": 17.336667, "lng": -95.095278
},{
"label": "El Sacrificio", "lat": 17.292747, "lng": -95.094215
},{
"label": "Guetagana", "lat": 16.945278, "lng": -94.896667
},{
"label": "La Cascarilla", "lat": 17.375556, "lng": -95.204093
},{
"label": "Dos Efes", "lat": 17.182711, "lng": -95.062373
},{
"label": "San Gabriel", "lat": 17.300611, "lng": -95.053866
},{
"label": "La Puerta", "lat": 17.277386, "lng": -95.01712
},{
"label": "Rancho Nereyda Toribio Antonio", "lat": 17.145078, "lng": -95.07055
},{
"label": "David Colmenero", "lat": 17.292705, "lng": -94.985254
},{
"label": "Rancho Oaxaca", "lat": 17.257217, "lng": -95.045834
},{
"label": "La Esperanza", "lat": 17.046131, "lng": -94.762283
},{
"label": "Pentacal (Paso de Buques)", "lat": 17.159198, "lng": -95.053407
},{
"label": "La Aurora [Rancho]", "lat": 17.23562, "lng": -95.023654
},{
"label": "El Corte", "lat": 17.171615, "lng": -94.833911
},{
"label": "Rancho Veracruz", "lat": 17.358931, "lng": -95.09482
},{
"label": "Tolosita", "lat": 17.200938, "lng": -95.051377
},{
"label": "Odisea [Colonia]", "lat": 16.883664, "lng": -95.009318
},{
"label": "Rancho Mayra", "lat": 17.151595, "lng": -95.065629
},{
"label": "El Tortuguero (Rancho Eréndira)", "lat": 17.238817, "lng": -95.127437
},{
"label": "Paso Guayabo", "lat": 16.854648, "lng": -95.007866
}]