[{
"label": "Ciénega", "lat": 18.045551, "lng": -96.95599
},{
"label": "Cotzala", "lat": 18.016787, "lng": -96.958779
},{
"label": "Loma Colorada", "lat": 18.011297, "lng": -96.933148
},{
"label": "San Pedro de los Encinos", "lat": 18.06643, "lng": -96.87802
},{
"label": "Agua Duende", "lat": 18.06289, "lng": -96.897479
},{
"label": "Cacahuatlán", "lat": 18.014857, "lng": -96.906577
},{
"label": "Trapiche Viejo", "lat": 18.005629, "lng": -96.960881
},{
"label": "Agua de Boca", "lat": 18.074562, "lng": -96.974648
},{
"label": "La Ihualeja", "lat": 18.047837, "lng": -96.896869
},{
"label": "Barrio Chico", "lat": 18.055512, "lng": -96.894306
},{
"label": "Buenavista", "lat": 18.006113, "lng": -96.894744
},{
"label": "Capulín Naranjo", "lat": 18.071052, "lng": -96.952621
},{
"label": "San Isidro", "lat": 17.983805, "lng": -96.947349
},{
"label": "Peña Delgada", "lat": 18.050612, "lng": -96.891562
},{
"label": "Loma Tucán", "lat": 18.068173, "lng": -96.93619
},{
"label": "Barrio del Panteón", "lat": 18.032298, "lng": -96.949567
},{
"label": "Llano Teotitlán", "lat": 17.974508, "lng": -96.949765
},{
"label": "Loma Tepehuaje", "lat": 18.034886, "lng": -96.921051
},{
"label": "Mazatlán", "lat": 18.030337, "lng": -96.912284
},{
"label": "Tuna Colorada", "lat": 18.02498, "lng": -96.953589
},{
"label": "Raya Palmar", "lat": 18.076143, "lng": -96.943885
},{
"label": "Barrio Aguacatal", "lat": 18.040382, "lng": -96.954366
},{
"label": "Cerro Central", "lat": 18.039499, "lng": -96.851981
},{
"label": "Loma Mediana", "lat": 18.045484, "lng": -96.843713
},{
"label": "El Encinal", "lat": 18.038101, "lng": -96.842249
},{
"label": "Cerro de Lluvia", "lat": 18.021019, "lng": -96.945543
},{
"label": "Loma Celosa", "lat": 18.070772, "lng": -96.938289
},{
"label": "Capulín (Barrio Capulín)", "lat": 18.028071, "lng": -96.953129
},{
"label": "Loma Grande", "lat": 18.058917, "lng": -96.832874
},{
"label": "Tierra Colorada", "lat": 18.038129, "lng": -96.952193
},{
"label": "San Simón Coyoltepec", "lat": 18.021081, "lng": -96.858635
},{
"label": "La Ciénega (Barrio 20 de Noviembre)", "lat": 17.986264, "lng": -96.955331
},{
"label": "Agua de Cal", "lat": 17.987161, "lng": -96.907214
},{
"label": "Agua Mosquito", "lat": 18.053774, "lng": -96.876162
},{
"label": "Loma Alta", "lat": 18.060831, "lng": -96.849261
},{
"label": "Peña Blanca", "lat": 18.009885, "lng": -96.955753
},{
"label": "Progreso", "lat": 18.07583, "lng": -96.962522
},{
"label": "La Hondura (Loma Rasposa)", "lat": 18.014702, "lng": -96.934119
},{
"label": "Durazno (5 de Mayo)", "lat": 17.969826, "lng": -96.956476
},{
"label": "Zona Uno", "lat": 18.065844, "lng": -96.962108
},{
"label": "Los Reyes", "lat": 18.018864, "lng": -96.901045
},{
"label": "Caracol 1", "lat": 18.026036, "lng": -96.936962
},{
"label": "Caracol 2", "lat": 18.075576, "lng": -96.947154
},{
"label": "Mazatlán Villa de Flores", "lat": 18.032564, "lng": -96.913721
},{
"label": "El Relámpago", "lat": 18.027653, "lng": -96.919946
},{
"label": "El Sabino", "lat": 18.038996, "lng": -96.907301
},{
"label": "El Malangar", "lat": 18.056121, "lng": -96.920269
},{
"label": "Chapulquelite (Pie de Cerro Basura)", "lat": 18.010725, "lng": -96.94681
},{
"label": "Las Águilas", "lat": 18.018224, "lng": -96.941235
},{
"label": "Loma Delgada", "lat": 18.058716, "lng": -96.951403
},{
"label": "Salina Cruz", "lat": 17.991137, "lng": -96.947347
},{
"label": "Aguacatitla", "lat": 18.035612, "lng": -96.860788
},{
"label": "Rancho Nuevo", "lat": 18.033622, "lng": -96.895931
},{
"label": "Agua Sangre", "lat": 18.01862, "lng": -96.911505
},{
"label": "Capulín", "lat": 18.01109, "lng": -96.943464
},{
"label": "La Laguna", "lat": 18.057676, "lng": -96.965545
},{
"label": "Copalillo (Barrio 5 de Mayo)", "lat": 17.966438, "lng": -96.954479
},{
"label": "Pochotepec", "lat": 17.980709, "lng": -96.952584
},{
"label": "Piedra de León", "lat": 18.030074, "lng": -96.895185
},{
"label": "La Raya", "lat": 18.076873, "lng": -96.922127
},{
"label": "San Salvador", "lat": 18.027956, "lng": -96.906134
},{
"label": "Barrio del Valle", "lat": 18.032069, "lng": -96.949198
},{
"label": "Naranjo", "lat": 18.014442, "lng": -96.955088
},{
"label": "Piedra Conejo", "lat": 18.037775, "lng": -96.917675
},{
"label": "El Mirador", "lat": 18.026027, "lng": -96.8534
},{
"label": "Hierba Santa", "lat": 18.05764, "lng": -96.858103
},{
"label": "Piedra Ancha", "lat": 18.030724, "lng": -96.909607
},{
"label": "Llano Largo", "lat": 18.042818, "lng": -96.887719
},{
"label": "Platanillo", "lat": 18.053894, "lng": -96.913118
},{
"label": "Ocote Redondo", "lat": 18.076142, "lng": -96.87569
},{
"label": "Agua Pajarito", "lat": 18.029246, "lng": -96.91643
},{
"label": "El Naranjo", "lat": 18.011511, "lng": -96.930147
},{
"label": "Barrio Caracol", "lat": 18.026063, "lng": -96.946196
},{
"label": "San Pedro", "lat": 18.013241, "lng": -96.886589
},{
"label": "Barrio Guadalupe", "lat": 18.074733, "lng": -96.873174
},{
"label": "El Corral", "lat": 18.023252, "lng": -96.89316
},{
"label": "Almolonga", "lat": 18.022704, "lng": -96.903045
},{
"label": "Panteón", "lat": 18.008404, "lng": -96.959251
},{
"label": "Llano de Fresno", "lat": 18.067291, "lng": -96.864557
},{
"label": "El Caracol [Barrio]", "lat": 18.006338, "lng": -96.953918
},{
"label": "Barrio Durazno", "lat": 18.069847, "lng": -96.872423
},{
"label": "Loma Relámpago", "lat": 18.045273, "lng": -96.951952
},{
"label": "Solotla", "lat": 18.015142, "lng": -96.877839
},{
"label": "Arroyo Zapote", "lat": 18.04788, "lng": -96.840924
},{
"label": "San Vicente", "lat": 18.017447, "lng": -96.977976
},{
"label": "El Coyote [Barrio]", "lat": 18.071886, "lng": -96.966657
},{
"label": "Cruz de Plata", "lat": 18.017081, "lng": -96.949244
},{
"label": "Zona Dos", "lat": 18.064459, "lng": -96.966809
},{
"label": "Naranjo Pochotepec", "lat": 17.963736, "lng": -96.944964
},{
"label": "Ocote Gordo (Barrio Ocote)", "lat": 18.056397, "lng": -96.958776
},{
"label": "Santiago Mirador", "lat": 18.033359, "lng": -96.970026
},{
"label": "La Toma", "lat": 18.066559, "lng": -96.963756
},{
"label": "Barrio Enrique", "lat": 18.023519, "lng": -96.892455
},{
"label": "El Manzano", "lat": 18.056713, "lng": -96.98602
},{
"label": "Cerro la Basura", "lat": 18.002995, "lng": -96.950277
},{
"label": "Las Minas", "lat": 17.983782, "lng": -96.960749
},{
"label": "El Progreso", "lat": 18.036154, "lng": -96.896324
},{
"label": "El Trapiche Viejo", "lat": 18.020507, "lng": -96.916625
},{
"label": "La Juquilita", "lat": 18.043282, "lng": -96.909944
},{
"label": "Llano Guadalupe", "lat": 18.081899, "lng": -96.874999
},{
"label": "Loma Santa Cruz", "lat": 18.059801, "lng": -96.923432
},{
"label": "Soyaltitla", "lat": 18.064995, "lng": -96.865996
},{
"label": "Cacalotepec", "lat": 18.061397, "lng": -96.983274
},{
"label": "Loma Pitaya", "lat": 18.024142, "lng": -96.877074
},{
"label": "Piedra Agujereada", "lat": 18.034867, "lng": -96.949634
},{
"label": "Nopalera", "lat": 18.064335, "lng": -96.962182
},{
"label": "Nacimiento", "lat": 18.04368, "lng": -96.955625
},{
"label": "Nogaltepec", "lat": 18.026307, "lng": -96.948627
},{
"label": "Loma Cozahuico", "lat": 18.033318, "lng": -96.870809
},{
"label": "Agua de Cerro", "lat": 18.073988, "lng": -96.897148
},{
"label": "Piedra Mazacoátl", "lat": 18.037011, "lng": -96.912144
}]