[{
"label": "Paraje Tierra Colorada", "lat": 17.125462, "lng": -96.743418
},{
"label": "Ejido Guadalupe Victoria", "lat": 17.109649, "lng": -96.724838
},{
"label": "Loma Trigo", "lat": 17.116281, "lng": -96.712681
},{
"label": "Río Dulce (Parte Baja)", "lat": 17.137926, "lng": -96.745055
},{
"label": "Guadalupe Victoria Segunda Sección (La Mina)", "lat": 17.104281, "lng": -96.73466
},{
"label": "Los Girasoles [Rancho]", "lat": 17.111602, "lng": -96.697863
},{
"label": "El Bajío (Rancho Guadalupe Victoria)", "lat": 17.103138, "lng": -96.718904
},{
"label": "Guadalupe Victoria", "lat": 17.101148, "lng": -96.721569
},{
"label": "El Pedregal", "lat": 17.121826, "lng": -96.713733
},{
"label": "Viguera", "lat": 17.129931, "lng": -96.749319
},{
"label": "La Loma [Paraje]", "lat": 17.136476, "lng": -96.746854
},{
"label": "Heriberto Castillo Martínez [Colonia]", "lat": 17.108657, "lng": -96.7368
},{
"label": "Entrada del Silencio", "lat": 17.069264, "lng": -96.764546
},{
"label": "El Cerrito [Paraje]", "lat": 17.134227, "lng": -96.745777
},{
"label": "Niño Artillero [Colonia]", "lat": 17.111716, "lng": -96.738886
},{
"label": "Arbolada Ilusión", "lat": 17.074498, "lng": -96.766393
},{
"label": "Río Dulce (Parte Alta)", "lat": 17.136744, "lng": -96.741736
},{
"label": "Solidaridad", "lat": 17.107216, "lng": -96.737349
},{
"label": "El Chilar [Rancho]", "lat": 17.11104, "lng": -96.721779
},{
"label": "Los Encinos [Colonia]", "lat": 17.108375, "lng": -96.740395
},{
"label": "Miravalle", "lat": 17.1268, "lng": -96.747354
},{
"label": "Lomas Panorámicas", "lat": 17.108872, "lng": -96.749809
},{
"label": "El Silencio", "lat": 17.063493, "lng": -96.763191
},{
"label": "Oaxaca de Juárez", "lat": 17.059993, "lng": -96.72545
},{
"label": "Arroyo Loma de Trigo", "lat": 17.114284, "lng": -96.725705
},{
"label": "Colonia Buena Vista", "lat": 17.111563, "lng": -96.746378
},{
"label": "Pueblo Nuevo Parte Alta", "lat": 17.112638, "lng": -96.752559
},{
"label": "Loma Bonita", "lat": 17.110311, "lng": -96.744847
},{
"label": "Los Cerritos [Paraje]", "lat": 17.097587, "lng": -96.691931
},{
"label": "Casas del Sol", "lat": 17.094548, "lng": -96.689697
},{
"label": "Camino a San Luis Beltrán las Salinitas [Paraje]", "lat": 17.098376, "lng": -96.690089
},{
"label": "Lachigulera", "lat": 17.111183, "lng": -96.71555
}]