[{
"label": "La Batea", "lat": 17.357997, "lng": -97.833881
},{
"label": "Santo Domingo Viejo", "lat": 17.310237, "lng": -97.94331
},{
"label": "28 de Mayo", "lat": 17.283051, "lng": -97.834989
},{
"label": "Escondido", "lat": 17.25743, "lng": -97.797181
},{
"label": "San Pedro Yososcuá", "lat": 17.260923, "lng": -97.814325
},{
"label": "Statzi", "lat": 17.277925, "lng": -97.825303
},{
"label": "San Juan Mixtepec Distrito 08", "lat": 17.305726, "lng": -97.831447
},{
"label": "Loma Reyes Almacén", "lat": 17.308573, "lng": -97.90104
},{
"label": "San Pedro Corral", "lat": 17.287126, "lng": -97.821494
},{
"label": "Tierra Blanca (Barrio San Pedro)", "lat": 17.284648, "lng": -97.832203
},{
"label": "San Isidro", "lat": 17.324516, "lng": -97.828384
},{
"label": "Stucua", "lat": 17.303282, "lng": -97.842373
},{
"label": "Unión Cárdenas", "lat": 17.262, "lng": -97.886
},{
"label": "Río Verde", "lat": 17.33213, "lng": -97.878048
},{
"label": "El Capulín", "lat": 17.326698, "lng": -97.90018
},{
"label": "San Sebastián Cahuandaca", "lat": 17.349602, "lng": -97.894003
},{
"label": "Cima de la Peña", "lat": 17.321265, "lng": -97.823106
},{
"label": "Yucumí", "lat": 17.248068, "lng": -97.794936
},{
"label": "Sección Centro Yososcua", "lat": 17.249653, "lng": -97.820111
},{
"label": "Cabayua", "lat": 17.277278, "lng": -97.787999
},{
"label": "Cerro de Lucero", "lat": 17.446001, "lng": -97.855838
},{
"label": "La Escondida", "lat": 17.323142, "lng": -97.89435
},{
"label": "San Juan Cahuayaxi", "lat": 17.387322, "lng": -97.914068
},{
"label": "Arroyo del Sabino", "lat": 17.329802, "lng": -97.838601
},{
"label": "El Águila", "lat": 17.301604, "lng": -97.903368
},{
"label": "San Pedro Calvario", "lat": 17.290736, "lng": -97.827101
},{
"label": "Santa Cruz", "lat": 17.289741, "lng": -97.855326
},{
"label": "Independencia", "lat": 17.307771, "lng": -97.807117
},{
"label": "Ojo de Agua Blanca", "lat": 17.256054, "lng": -97.819791
},{
"label": "Nueva Reforma", "lat": 17.361445, "lng": -97.925915
},{
"label": "Lázaro Cárdenas", "lat": 17.365177, "lng": -97.910168
},{
"label": "Yosonduu", "lat": 17.247619, "lng": -97.878543
},{
"label": "Cerro Metates", "lat": 17.412076, "lng": -97.855862
},{
"label": "Mesón de Guadalupe", "lat": 17.338554, "lng": -97.93228
},{
"label": "Pié del Cerro (Chaá Yucu)", "lat": 17.31445, "lng": -97.807798
},{
"label": "El Cangrejo", "lat": 17.289824, "lng": -97.921239
},{
"label": "Yucunani", "lat": 17.298969, "lng": -97.894281
},{
"label": "Bajo la Peña", "lat": 17.304539, "lng": -97.865165
},{
"label": "Mesón de Guadalupe Primera Sección", "lat": 17.347529, "lng": -97.940947
},{
"label": "Cienega de Manzana", "lat": 17.356275, "lng": -97.938514
},{
"label": "Pueblo Viejo", "lat": 17.389856, "lng": -97.855263
},{
"label": "Santa María Teposlantongo", "lat": 17.254617, "lng": -97.886002
},{
"label": "Ojo de Agua Arenal", "lat": 17.335996, "lng": -97.859165
},{
"label": "Santiago Tiñó", "lat": 17.384772, "lng": -97.885048
},{
"label": "Río Timbre", "lat": 17.351632, "lng": -97.858432
},{
"label": "Arenal Centro", "lat": 17.328573, "lng": -97.852971
},{
"label": "Milpa Tendida", "lat": 17.320974, "lng": -97.873862
},{
"label": "Canamá", "lat": 17.315961, "lng": -97.866758
},{
"label": "Río de la Piedra", "lat": 17.291276, "lng": -97.844018
},{
"label": "Santo Domingo Tierra y Libertad", "lat": 17.306016, "lng": -97.937203
},{
"label": "San Lucas", "lat": 17.282074, "lng": -97.871643
},{
"label": "Rancho Diego", "lat": 17.345599, "lng": -97.882965
},{
"label": "Llano Colorado", "lat": 17.310776, "lng": -97.877553
},{
"label": "El Cuajilote", "lat": 17.3975, "lng": -97.856111
},{
"label": "San Juan Mixtepec Distrito 26", "lat": 16.277539, "lng": -96.299478
},{
"label": "Yosoba", "lat": 17.319491, "lng": -97.833988
},{
"label": "San Pedro Retoño", "lat": 17.282788, "lng": -97.813701
},{
"label": "Las Huertas", "lat": 17.323325, "lng": -97.861764
},{
"label": "Ciénega de la Ardilla", "lat": 17.324002, "lng": -97.903795
},{
"label": "Schiñuu y Matanza", "lat": 17.330003, "lng": -97.844077
},{
"label": "Peña Blanca", "lat": 17.340017, "lng": -97.892986
},{
"label": "El Llano", "lat": 17.320578, "lng": -97.813845
},{
"label": "Loma Redonda", "lat": 17.297308, "lng": -97.878591
},{
"label": "San Isidro Yucumay", "lat": 17.302335, "lng": -97.911589
},{
"label": "Loma Bandera", "lat": 17.305054, "lng": -97.888333
},{
"label": "Llano Grande", "lat": 17.266955, "lng": -97.804513
},{
"label": "Río Azucena", "lat": 17.383486, "lng": -97.859649
},{
"label": "Yerba Buena", "lat": 17.358364, "lng": -97.877928
},{
"label": "Los Tejocotes", "lat": 17.312778, "lng": -97.895556
},{
"label": "San Pedro Ituxión", "lat": 17.278591, "lng": -97.819604
}]