[{
"label": "Yutebehi", "lat": 17.043249, "lng": -97.664356
},{
"label": "Mier y Terán", "lat": 17.023177, "lng": -97.710238
},{
"label": "Cruz Loma de Trigo", "lat": 17.103406, "lng": -97.695809
},{
"label": "Llano Zacate", "lat": 17.100782, "lng": -97.727369
},{
"label": "Cruz Ñunu", "lat": 17.080433, "lng": -97.683357
},{
"label": "Río de Golondrina", "lat": 17.080003, "lng": -97.706899
},{
"label": "Tototiquiki", "lat": 17.043861, "lng": -97.70568
},{
"label": "Yute Kaji", "lat": 17.110334, "lng": -97.710779
},{
"label": "Shinitoo", "lat": 17.051921, "lng": -97.732863
},{
"label": "Nucagne", "lat": 17.055872, "lng": -97.650772
},{
"label": "Ndoyocoyo (Ciénega de Tule)", "lat": 17.113182, "lng": -97.733148
},{
"label": "Yucabaigno", "lat": 17.049248, "lng": -97.652301
},{
"label": "Yutenundi", "lat": 17.078217, "lng": -97.696661
},{
"label": "Guerrero Grande", "lat": 17.042356, "lng": -97.693521
},{
"label": "Loma Larga", "lat": 17.103525, "lng": -97.722565
},{
"label": "Mirador (Icutizundo)", "lat": 17.058091, "lng": -97.654649
},{
"label": "Morelos", "lat": 17.084785, "lng": -97.720081
},{
"label": "Cruz Encino Negro", "lat": 17.102869, "lng": -97.712564
},{
"label": "Buenavista Totohi", "lat": 17.099011, "lng": -97.691153
},{
"label": "Yuteyoso", "lat": 17.054773, "lng": -97.667127
},{
"label": "Progreso", "lat": 17.092514, "lng": -97.679426
},{
"label": "Loma Yuneño", "lat": 17.044368, "lng": -97.654912
},{
"label": "Cabanee (Piedra Oscura)", "lat": 17.070156, "lng": -97.676612
},{
"label": "Ndoyonoyuji (Ciénega de Flores Amarillas)", "lat": 17.058729, "lng": -97.747829
},{
"label": "Cruz Geyuco", "lat": 17.091267, "lng": -97.690256
},{
"label": "Llano de los Toros", "lat": 17.108386, "lng": -97.67535
},{
"label": "Vicente Guerrero", "lat": 17.061243, "lng": -97.699503
},{
"label": "Benito Juárez", "lat": 17.044714, "lng": -97.647323
},{
"label": "Yucunucue", "lat": 17.043054, "lng": -97.675321
},{
"label": "Yusau", "lat": 17.050086, "lng": -97.661068
},{
"label": "Independencia", "lat": 17.095498, "lng": -97.659516
},{
"label": "Yuteshillo", "lat": 17.048616, "lng": -97.665078
},{
"label": "Loma Yozmico", "lat": 17.073208, "lng": -97.702486
},{
"label": "Yucuiji (Zaragoza)", "lat": 17.108875, "lng": -97.689965
},{
"label": "San Esteban Atatlahuca", "lat": 17.066549, "lng": -97.677769
}]