[{
"label": "Río Nube", "lat": 16.545568, "lng": -97.211475
},{
"label": "San José", "lat": 16.525175, "lng": -97.207112
},{
"label": "El Súchil", "lat": 16.523104, "lng": -97.166204
},{
"label": "La Calandria", "lat": 16.54802, "lng": -97.202121
},{
"label": "Río Limar", "lat": 16.532361, "lng": -97.179728
},{
"label": "Piedra Blanca", "lat": 16.581572, "lng": -97.183802
},{
"label": "El Arador", "lat": 16.540908, "lng": -97.1817
},{
"label": "El Carrizal", "lat": 16.510443, "lng": -97.203086
},{
"label": "Llano Verde", "lat": 16.543529, "lng": -97.197362
},{
"label": "Río de Talea", "lat": 16.508238, "lng": -97.16239
},{
"label": "Río Pescadito", "lat": 16.527418, "lng": -97.222209
},{
"label": "Barrio de Totopostle", "lat": 16.546947, "lng": -97.209618
},{
"label": "Los Naranjales", "lat": 16.503842, "lng": -97.210546
},{
"label": "El Ojo de Agua", "lat": 16.531389, "lng": -97.161944
},{
"label": "Río Tigre", "lat": 16.583519, "lng": -97.192323
},{
"label": "Pueblo Nuevo", "lat": 16.58893, "lng": -97.193994
},{
"label": "El Ratón", "lat": 16.561798, "lng": -97.194447
},{
"label": "Río Tambor", "lat": 16.526463, "lng": -97.197642
},{
"label": "Naranjales", "lat": 16.517366, "lng": -97.171381
},{
"label": "El Papayo (Río Papayo)", "lat": 16.508488, "lng": -97.224719
},{
"label": "El Palo de Lima", "lat": 16.490863, "lng": -97.206031
},{
"label": "Ciénega del Río", "lat": 16.501777, "lng": -97.196936
},{
"label": "Los Sabinos", "lat": 16.516353, "lng": -97.155639
},{
"label": "Rincón de Talea", "lat": 16.507821, "lng": -97.150777
},{
"label": "Feliciano Martínez", "lat": 16.512629, "lng": -97.14663
},{
"label": "Manantial de Agua", "lat": 16.510319, "lng": -97.185122
},{
"label": "San Lorenzo Texmelúcan", "lat": 16.585491, "lng": -97.198974
}]