[{
"label": "San Juan Ozolotepec", "lat": 16.133008, "lng": -96.259293
},{
"label": "San Bartolo Lapaguía", "lat": 16.05871, "lng": -96.176726
},{
"label": "Río de Pisca", "lat": 16.11579, "lng": -96.154481
},{
"label": "Río Platanar", "lat": 16.074207, "lng": -96.148027
},{
"label": "Rincón Escalera", "lat": 16.087888, "lng": -96.159727
},{
"label": "Santiago Lapaguía", "lat": 16.135921, "lng": -96.191234
},{
"label": "Lluvet", "lat": 16.104836, "lng": -96.272667
},{
"label": "Santa Catarina Xanaguía", "lat": 16.090131, "lng": -96.244194
},{
"label": "Cerro de Olla", "lat": 16.090868, "lng": -96.104566
},{
"label": "Palo Grande", "lat": 16.089236, "lng": -96.266162
},{
"label": "Río Costoche", "lat": 16.145399, "lng": -96.165239
},{
"label": "Cerro de Agua", "lat": 16.093229, "lng": -96.271955
},{
"label": "Detras del Cerro", "lat": 16.097206, "lng": -96.286007
},{
"label": "San Andrés Lovene", "lat": 16.040071, "lng": -96.203381
},{
"label": "Lat-Cial", "lat": 16.097948, "lng": -96.26274
}]