[{
"label": "Paraíso", "lat": 15.870268, "lng": -95.838379
},{
"label": "El Crucero de Chacalapa", "lat": 15.874394, "lng": -95.93353
},{
"label": "El Bejuco", "lat": 15.996903, "lng": -95.737825
},{
"label": "Morro Ayuta", "lat": 15.912011, "lng": -95.850294
},{
"label": "San Francisco de Asís", "lat": 16.100956, "lng": -95.619919
},{
"label": "El Popoyote", "lat": 15.956357, "lng": -95.72164
},{
"label": "Playa Grande", "lat": 15.84283, "lng": -95.905492
},{
"label": "San Pedro Huamelula", "lat": 16.029032, "lng": -95.668856
},{
"label": "Tapanalá", "lat": 15.965556, "lng": -95.725415
},{
"label": "San Isidro Chacalapa", "lat": 15.926753, "lng": -95.934638
},{
"label": "Río Papaya", "lat": 16.031019, "lng": -95.711197
},{
"label": "El Gavilán", "lat": 16.088568, "lng": -95.660224
},{
"label": "Río Seco", "lat": 15.935016, "lng": -95.752286
},{
"label": "Santa María", "lat": 15.994568, "lng": -95.702975
},{
"label": "Los Cocos", "lat": 16.077686, "lng": -95.664089
},{
"label": "El Mojón", "lat": 15.948325, "lng": -95.849001
},{
"label": "Rancho Maximino Cruz", "lat": 16.092902, "lng": -95.648649
},{
"label": "Paja Blanca", "lat": 15.929644, "lng": -95.746483
},{
"label": "Las Jícaras", "lat": 16.119249, "lng": -95.590786
},{
"label": "El Porvenir", "lat": 15.983813, "lng": -95.720047
},{
"label": "El Coyul", "lat": 15.914359, "lng": -95.81031
},{
"label": "Guayacán", "lat": 15.972173, "lng": -95.717458
},{
"label": "Trapichillo", "lat": 16.095801, "lng": -95.62423
},{
"label": "El Limón", "lat": 15.932516, "lng": -95.77584
}]