[{
"label": "Palo Aguacate", "lat": 17.930959, "lng": -96.800838
},{
"label": "Llano Nopal", "lat": 17.937678, "lng": -96.801744
},{
"label": "Peña Colorada", "lat": 17.933669, "lng": -96.799233
},{
"label": "Peña Ardilla", "lat": 17.938114, "lng": -96.794123
},{
"label": "Cerro Pelón", "lat": 17.916679, "lng": -96.805385
},{
"label": "Agua Ceniza", "lat": 17.917296, "lng": -96.791358
},{
"label": "San Miguel Santa Flor", "lat": 17.921083, "lng": -96.799301
},{
"label": "Palo Mora", "lat": 17.931855, "lng": -96.779986
},{
"label": "Cerro Culebra", "lat": 17.928043, "lng": -96.806182
}]