[{
"label": "La Cruz Yaguche", "lat": 16.79228, "lng": -97.025457
},{
"label": "Río Culebra", "lat": 16.799411, "lng": -97.018914
},{
"label": "La Mariposa", "lat": 16.824741, "lng": -96.999073
},{
"label": "Los Maizales Tempraneros", "lat": 16.823997, "lng": -97.028018
},{
"label": "La Carbonera", "lat": 16.851742, "lng": -97.056579
},{
"label": "Llano San Juan", "lat": 16.818926, "lng": -97.010824
},{
"label": "El Manzanito", "lat": 16.862099, "lng": -97.043273
},{
"label": "Río Concha", "lat": 16.820394, "lng": -97.018599
},{
"label": "El Peral", "lat": 16.82103, "lng": -96.964431
},{
"label": "El Río Hilo", "lat": 16.801221, "lng": -96.997227
},{
"label": "San Fernando de Matamoros", "lat": 16.841971, "lng": -97.152147
},{
"label": "Rancho Tejas", "lat": 16.790769, "lng": -97.013561
},{
"label": "San Antonino el Alto", "lat": 16.815701, "lng": -97.029374
},{
"label": "El Mirasol", "lat": 16.785668, "lng": -96.993493
},{
"label": "La Mina", "lat": 16.833338, "lng": -97.018216
},{
"label": "San Andrés el Alto", "lat": 16.844643, "lng": -97.052327
}]