[{
"label": "La Reforma (Yoscama)", "lat": 17.530945, "lng": -97.728422
},{
"label": "San Antonio Yodonduza Monteverde", "lat": 17.502389, "lng": -97.73004
},{
"label": "La Colonita", "lat": 17.551726, "lng": -97.721821
},{
"label": "Segunda Sección", "lat": 17.531236, "lng": -97.723523
},{
"label": "San Isidro Monteverde", "lat": 17.469389, "lng": -97.707785
},{
"label": "Guadalupe Monteverde", "lat": 17.508616, "lng": -97.711332
},{
"label": "Santa María de las Nieves Monteverde", "lat": 17.520375, "lng": -97.739759
},{
"label": "Cocoyo", "lat": 17.531721, "lng": -97.713611
},{
"label": "San Miguel Monteverde", "lat": 17.530523, "lng": -97.791931
},{
"label": "Colonia Hidalgo", "lat": 17.511696, "lng": -97.70466
},{
"label": "San Francisco Caballúa", "lat": 17.490445, "lng": -97.7169
},{
"label": "Guadalupe de las Flores", "lat": 17.539404, "lng": -97.73832
},{
"label": "San José Monteverde", "lat": 17.494803, "lng": -97.7242
},{
"label": "Primera Sección", "lat": 17.536548, "lng": -97.72311
},{
"label": "San Antonino Monte Verde", "lat": 17.533614, "lng": -97.720629
}]