[{
"label": "Ejido la Revolución", "lat": 17.174144, "lng": -95.191744
},{
"label": "The Real", "lat": 17.115113, "lng": -95.138358
},{
"label": "Brena Torres", "lat": 17.244843, "lng": -95.19558
},{
"label": "Maluco", "lat": 16.992428, "lng": -94.998741
},{
"label": "El Bajío", "lat": 17.051123, "lng": -95.016459
},{
"label": "Los Sauces [Rancho]", "lat": 17.143122, "lng": -95.137639
},{
"label": "Santa Ana", "lat": 17.053071, "lng": -95.084905
},{
"label": "Faustino Bartolo", "lat": 16.944787, "lng": -95.171968
},{
"label": "Las Maravillas (Rancho las Maravillas)", "lat": 17.212958, "lng": -94.984706
},{
"label": "San Juan Viejo", "lat": 17.040209, "lng": -95.166117
},{
"label": "José María Morelos", "lat": 17.24013, "lng": -94.985517
},{
"label": "Arroyo Lirio", "lat": 17.223447, "lng": -95.298618
},{
"label": "La Aurora", "lat": 17.025975, "lng": -95.007746
},{
"label": "Arroyo Azul", "lat": 17.113456, "lng": -94.956167
},{
"label": "Huisicil", "lat": 17.03106, "lng": -95.119797
},{
"label": "Yugoxi", "lat": 16.986541, "lng": -95.132358
},{
"label": "Los Limones", "lat": 16.977511, "lng": -95.033164
},{
"label": "Kopmuj (Cerro Tejón)", "lat": 17.009063, "lng": -95.225246
},{
"label": "Buenavista", "lat": 17.044595, "lng": -95.06345
},{
"label": "Puente Malatengo (Rancho Grande)", "lat": 17.006752, "lng": -95.012417
},{
"label": "Pueblo Nuevo", "lat": 16.96739, "lng": -95.070339
},{
"label": "Hierba Santa", "lat": 16.954706, "lng": -95.015388
},{
"label": "Pachiñe Encinal", "lat": 16.996243, "lng": -95.112221
},{
"label": "Arroyo Limón", "lat": 17.159342, "lng": -95.147646
},{
"label": "Encinal Colorado", "lat": 17.00944, "lng": -95.107079
},{
"label": "Vixidu (Cerro Güichipilín)", "lat": 17.038549, "lng": -95.016227
},{
"label": "Los Cedros", "lat": 17.097816, "lng": -95.03877
},{
"label": "Cinco Hermanos", "lat": 16.967143, "lng": -94.978681
},{
"label": "El Solitario", "lat": 17.173493, "lng": -95.169384
},{
"label": "Colonia Istmeña el Zapote", "lat": 17.348775, "lng": -95.046217
},{
"label": "Rancho Alegre", "lat": 17.132207, "lng": -95.100883
},{
"label": "Las Amapolas", "lat": 17.169414, "lng": -95.171788
},{
"label": "Ampliación Colonia Istmeña (El Zapote)", "lat": 17.141198, "lng": -95.097479
},{
"label": "El Zacatal", "lat": 16.940968, "lng": -95.201484
},{
"label": "Kagpot (Mamey)", "lat": 17.020332, "lng": -95.203676
},{
"label": "Ramos Millán", "lat": 17.136371, "lng": -95.093578
},{
"label": "San Juanito", "lat": 17.089599, "lng": -95.183858
},{
"label": "La Peña [Rancho]", "lat": 17.276486, "lng": -95.152128
},{
"label": "Jot", "lat": 17.019588, "lng": -95.219462
},{
"label": "Los Pérez", "lat": 17.186775, "lng": -95.16605
},{
"label": "Santa Fe", "lat": 17.003904, "lng": -95.000138
},{
"label": "Huapinol", "lat": 16.996206, "lng": -95.177351
},{
"label": "Ocotal", "lat": 16.949964, "lng": -95.129648
},{
"label": "Plan de San Luis", "lat": 17.298722, "lng": -94.982997
},{
"label": "Paso Real de Sarabia", "lat": 17.074222, "lng": -95.045712
},{
"label": "Río Pachiñe", "lat": 16.970379, "lng": -95.06556
},{
"label": "El Triunfo", "lat": 17.260916, "lng": -94.98476
},{
"label": "El Vaticano (Llano Cola)", "lat": 17.018204, "lng": -94.999859
},{
"label": "El Robalo", "lat": 17.165573, "lng": -95.164998
},{
"label": "Mogoñé Viejo", "lat": 17.005295, "lng": -95.02853
},{
"label": "Nuevo Progreso", "lat": 17.012634, "lng": -95.031165
},{
"label": "El Palmar", "lat": 16.975238, "lng": -95.049056
},{
"label": "Durán", "lat": 17.08904, "lng": -95.040741
},{
"label": "Rancho Hermanos Pacheco", "lat": 17.138523, "lng": -95.132636
},{
"label": "Nuevo Brena Torres", "lat": 17.238293, "lng": -95.242559
},{
"label": "Vista Hermosa", "lat": 17.014656, "lng": -95.009824
},{
"label": "San Juan Guichicovi", "lat": 16.962829, "lng": -95.095094
},{
"label": "Arroyo Cuchara", "lat": 17.039031, "lng": -95.234982
},{
"label": "La Lomita (Paso Real)", "lat": 17.094316, "lng": -95.040706
},{
"label": "Rancho Mil Problemas", "lat": 17.137463, "lng": -95.084685
},{
"label": "Aguacatengo", "lat": 16.978802, "lng": -95.170879
},{
"label": "El Aserradero", "lat": 17.054262, "lng": -94.978666
},{
"label": "Rancho Cabeza de Tigre", "lat": 16.965093, "lng": -95.000055
},{
"label": "Piedra Blanca", "lat": 16.986869, "lng": -95.013834
},{
"label": "El Ocotalito", "lat": 16.960373, "lng": -95.128358
},{
"label": "San Martín", "lat": 17.111601, "lng": -95.050413
},{
"label": "Unidad y Progreso", "lat": 17.121207, "lng": -95.234268
},{
"label": "Estación Mogoñé", "lat": 16.994599, "lng": -95.037037
},{
"label": "Barrio Alvarado", "lat": 16.938591, "lng": -95.089853
},{
"label": "Las Malvinas", "lat": 17.103025, "lng": -95.042211
},{
"label": "Huanacaxtle", "lat": 17.035833, "lng": -95.0075
},{
"label": "Lomería", "lat": 16.947991, "lng": -95.069891
},{
"label": "El Milagro de Dios", "lat": 16.954032, "lng": -95.108624
},{
"label": "La Zacatera", "lat": 17.093606, "lng": -94.963239
},{
"label": "Barranca Grande", "lat": 16.980934, "lng": -95.224288
},{
"label": "El Sacrificio", "lat": 17.149065, "lng": -95.173652
},{
"label": "Arroyo Guajolote", "lat": 17.035878, "lng": -95.14611
},{
"label": "Leonardo González", "lat": 17.14983, "lng": -95.118371
},{
"label": "La Loma", "lat": 16.966769, "lng": -95.082261
},{
"label": "Coyol Seco", "lat": 16.993144, "lng": -95.006633
},{
"label": "Chocolate", "lat": 16.931584, "lng": -95.089341
},{
"label": "El Zarzal", "lat": 17.013435, "lng": -95.037246
},{
"label": "La Esperanza", "lat": 17.107571, "lng": -95.038939
},{
"label": "Estación Sarabia", "lat": 17.066372, "lng": -95.02491
},{
"label": "San Francisco", "lat": 17.150895, "lng": -95.119396
},{
"label": "San Antonio [Barrio]", "lat": 17.018858, "lng": -95.030119
},{
"label": "Río del Sol (Yogoch)", "lat": 16.994845, "lng": -95.226939
},{
"label": "Vicente Guerrero", "lat": 17.282886, "lng": -95.157978
},{
"label": "Benito Juárez", "lat": 17.136929, "lng": -94.975444
},{
"label": "Río de Guasamando", "lat": 17.045535, "lng": -95.201288
},{
"label": "Boca del Monte", "lat": 17.061705, "lng": -95.014348
},{
"label": "La Soledad", "lat": 17.07523, "lng": -95.037243
},{
"label": "Rancho Narcizo", "lat": 17.271223, "lng": -95.143739
},{
"label": "El Increíble", "lat": 17.125175, "lng": -94.973092
},{
"label": "Santa Anita", "lat": 17.049863, "lng": -95.078221
},{
"label": "Colonia Istmeña (Sección el Zapote)", "lat": 17.163668, "lng": -95.108366
}]