[{
"label": "Bazalache", "lat": 16.954858, "lng": -96.526071
},{
"label": "Paraje Lambasá", "lat": 16.949942, "lng": -96.537213
},{
"label": "Loyu Seed", "lat": 16.965053, "lng": -96.54269
},{
"label": "San Juan Guelavía", "lat": 16.956763, "lng": -96.545832
},{
"label": "Quiatstais", "lat": 16.958222, "lng": -96.538401
},{
"label": "Runes Baac", "lat": 16.952361, "lng": -96.531894
},{
"label": "Loguichiviyu", "lat": 16.947711, "lng": -96.542707
}]