[{
"label": "Cerro Minas", "lat": 15.94534, "lng": -96.283584
},{
"label": "Mango Solo", "lat": 15.910606, "lng": -96.340683
},{
"label": "Copalitilla", "lat": 15.966218, "lng": -96.335133
},{
"label": "San Pedrito", "lat": 15.937948, "lng": -96.356206
},{
"label": "El Gavilán", "lat": 16.01577, "lng": -96.302881
},{
"label": "Buenavista", "lat": 16.007084, "lng": -96.308254
},{
"label": "Loma Cruz", "lat": 15.9942, "lng": -96.333158
},{
"label": "San Cristóbal", "lat": 15.985746, "lng": -96.316378
},{
"label": "Río Pena", "lat": 16.012824, "lng": -96.305597
},{
"label": "La Violeta", "lat": 15.985092, "lng": -96.349088
},{
"label": "Santa Catarina", "lat": 15.977396, "lng": -96.352426
},{
"label": "El Naranjo", "lat": 15.936667, "lng": -96.293326
},{
"label": "Barrio del Panteón", "lat": 15.999539, "lng": -96.324457
},{
"label": "Llano Chilar", "lat": 15.985859, "lng": -96.364271
},{
"label": "Mira León", "lat": 15.946096, "lng": -96.311205
},{
"label": "Piedra Hueca", "lat": 15.938497, "lng": -96.300655
},{
"label": "Rancho Cañada de Minas", "lat": 15.952629, "lng": -96.266791
},{
"label": "La Guacamaya", "lat": 15.921117, "lng": -96.367051
},{
"label": "Fresnillo", "lat": 15.929316, "lng": -96.363551
},{
"label": "Llano Canela", "lat": 15.96241, "lng": -96.368317
},{
"label": "El Borrego", "lat": 15.969271, "lng": -96.404746
},{
"label": "San Mateo Piñas", "lat": 15.999508, "lng": -96.335189
},{
"label": "Río Gijón", "lat": 16.00785, "lng": -96.347363
},{
"label": "Copalita de Cerro León", "lat": 15.968416, "lng": -96.395856
},{
"label": "San Cristóbal Alto", "lat": 16.010146, "lng": -96.320889
},{
"label": "Juquila", "lat": 15.929016, "lng": -96.370967
},{
"label": "Sulfato", "lat": 15.947993, "lng": -96.322109
},{
"label": "El Pilar", "lat": 15.914939, "lng": -96.354026
},{
"label": "Rancho Santiago", "lat": 15.967204, "lng": -96.385032
},{
"label": "Los Silva", "lat": 15.933628, "lng": -96.38695
},{
"label": "Cerro León", "lat": 15.978974, "lng": -96.377063
},{
"label": "Juquilita", "lat": 15.911018, "lng": -96.360838
},{
"label": "El Vergel", "lat": 15.96041, "lng": -96.389579
},{
"label": "El Mirasol", "lat": 15.91807, "lng": -96.335549
},{
"label": "Santo Niño", "lat": 15.924202, "lng": -96.359112
},{
"label": "La Mojonera", "lat": 15.934817, "lng": -96.349735
},{
"label": "Río Temblor", "lat": 15.989863, "lng": -96.342401
},{
"label": "Río Culebra", "lat": 15.969744, "lng": -96.351331
},{
"label": "El Comal", "lat": 15.928708, "lng": -96.355661
},{
"label": "Té Limón", "lat": 15.917027, "lng": -96.363654
},{
"label": "Lachixena", "lat": 15.983637, "lng": -96.340501
},{
"label": "Río Lucero", "lat": 15.953457, "lng": -96.373067
},{
"label": "Agua Caliente", "lat": 15.977742, "lng": -96.299488
},{
"label": "El Perdiz", "lat": 15.938853, "lng": -96.340149
},{
"label": "Loma Limón", "lat": 15.923074, "lng": -96.299133
},{
"label": "Ojo Venado", "lat": 15.990052, "lng": -96.280546
},{
"label": "Frente al Sol", "lat": 15.935884, "lng": -96.346409
},{
"label": "Río Hueso", "lat": 15.943454, "lng": -96.357383
},{
"label": "Mixteca", "lat": 15.920533, "lng": -96.312019
},{
"label": "Cerro de Hacha", "lat": 15.955738, "lng": -96.357146
},{
"label": "Macahuite", "lat": 15.923222, "lng": -96.316031
},{
"label": "La Compañía", "lat": 15.921793, "lng": -96.350697
},{
"label": "Copalita las Palmas", "lat": 15.962535, "lng": -96.279805
}]