[{
"label": "El Vergel", "lat": 17.153717, "lng": -97.514156
},{
"label": "San Pedro Mártir", "lat": 17.153344, "lng": -97.536291
},{
"label": "San Pedro el Alto", "lat": 17.149316, "lng": -97.460809
},{
"label": "Santa Cruz", "lat": 17.147543, "lng": -97.540488
},{
"label": "San Mateo Peñasco", "lat": 17.150794, "lng": -97.533645
},{
"label": "El Rosario", "lat": 17.146411, "lng": -97.524961
}]