[{
"label": "San Isidro Lagunas", "lat": 17.589787, "lng": -97.513806
},{
"label": "La Soledad", "lat": 17.544038, "lng": -97.520318
},{
"label": "San Andrés Lagunas", "lat": 17.574427, "lng": -97.522746
},{
"label": "Guadalupe Lagunas", "lat": 17.579373, "lng": -97.530992
},{
"label": "Tercera Sección", "lat": 17.579131, "lng": -97.523754
}]