[{
"label": "Yucumesa", "lat": 17.503211, "lng": -97.446447
},{
"label": "Yucuninde", "lat": 17.513958, "lng": -97.434665
},{
"label": "El Colibrí", "lat": 17.521466, "lng": -97.446461
},{
"label": "Yodonocuito", "lat": 17.509364, "lng": -97.454783
},{
"label": "Paraje Tandaa (Sección Segunda)", "lat": 17.512873, "lng": -97.485409
},{
"label": "Santa Catarina Río Delgado", "lat": 17.474349, "lng": -97.524301
},{
"label": "Primera Sección (Pozas Frías o Andúa)", "lat": 17.516935, "lng": -97.489451
},{
"label": "El Rosario", "lat": 17.490199, "lng": -97.532176
},{
"label": "Guadalupe Vista Hermosa", "lat": 17.520313, "lng": -97.612972
},{
"label": "El Molino", "lat": 17.487664, "lng": -97.444061
},{
"label": "La Campana", "lat": 17.498445, "lng": -97.454608
},{
"label": "San Pedro y San Pablo Teposcolula", "lat": 17.51207, "lng": -97.488189
},{
"label": "San Miguel Tixá", "lat": 17.500243, "lng": -97.519109
},{
"label": "La Calera", "lat": 17.507155, "lng": -97.468305
},{
"label": "Instituto Oaxaqueño Profesional de Educación Federal", "lat": 17.502776, "lng": -97.474368
},{
"label": "El Llano de Río Delgado", "lat": 17.485713, "lng": -97.533706
},{
"label": "La Unión Tixá", "lat": 17.538052, "lng": -97.570063
},{
"label": "Sección Tercera (Paraje la Cruz)", "lat": 17.505554, "lng": -97.474247
},{
"label": "San Francisco de Asís", "lat": 17.507969, "lng": -97.495463
},{
"label": "San Felipe Ixtapa", "lat": 17.494029, "lng": -97.524369
},{
"label": "Guadalupe Tixa", "lat": 17.508933, "lng": -97.517487
},{
"label": "El Alarcón", "lat": 17.493119, "lng": -97.473544
},{
"label": "Santo Domingo Tlachitongo", "lat": 17.4167, "lng": -97.339819
},{
"label": "Santo Tomás Tecolotitlán", "lat": 17.482824, "lng": -97.520714
},{
"label": "Juan José López Cruz", "lat": 17.511255, "lng": -97.498664
}]