[{
"label": "Lázaro Cárdenas", "lat": 17.919878, "lng": -96.437306
},{
"label": "Arroyo Chivato", "lat": 17.904267, "lng": -96.50429
},{
"label": "Colonia Ampliación Aeropuerto", "lat": 17.89365, "lng": -96.515758
},{
"label": "Paso Armadillo (Santa Catalina)", "lat": 17.885921, "lng": -96.5089
},{
"label": "Cerro Frijol", "lat": 17.899319, "lng": -96.433258
},{
"label": "Santa Flora", "lat": 17.938134, "lng": -96.461429
},{
"label": "Arroyo Aguacate", "lat": 17.910121, "lng": -96.497464
},{
"label": "Paso Escaleras", "lat": 17.920158, "lng": -96.483603
},{
"label": "Santa Cruz Tepetotutla", "lat": 17.739534, "lng": -96.558238
},{
"label": "San Antonio del Barrio", "lat": 17.758853, "lng": -96.556209
},{
"label": "Piedra de Azúcar", "lat": 17.925106, "lng": -96.449218
},{
"label": "Benito Juárez [Colonia]", "lat": 17.926441, "lng": -96.455361
},{
"label": "San Pedro Tlatepusco", "lat": 17.785652, "lng": -96.48453
},{
"label": "General Emiliano Zapata", "lat": 17.926562, "lng": -96.438316
},{
"label": "San Antonio Analco", "lat": 17.839543, "lng": -96.556424
},{
"label": "Santiago Tlatepusco", "lat": 17.826458, "lng": -96.510256
},{
"label": "Nuevo Arroyo Tambor el Caracol", "lat": 17.951869, "lng": -96.43417
},{
"label": "Peña Blanca (Colonia San Martín Peña Blanca)", "lat": 17.893045, "lng": -96.552295
},{
"label": "Peña Blanca", "lat": 17.894823, "lng": -96.545988
},{
"label": "Arroyo Tigre", "lat": 17.921274, "lng": -96.454056
},{
"label": "Encinal", "lat": 17.873094, "lng": -96.526634
},{
"label": "Cerro de Hojas", "lat": 17.890061, "lng": -96.459476
},{
"label": "Santa Flora [Congregación]", "lat": 17.929614, "lng": -96.457368
},{
"label": "Caracoles Estrella", "lat": 17.945965, "lng": -96.42825
},{
"label": "Santo Tomás Texas", "lat": 17.869895, "lng": -96.453304
},{
"label": "Arroyo Tambor", "lat": 17.93435, "lng": -96.469698
},{
"label": "Nuevo Santa Flora", "lat": 17.905219, "lng": -96.444074
},{
"label": "Cerro Caracol", "lat": 17.89974, "lng": -96.534658
},{
"label": "San Felipe Usila", "lat": 17.879395, "lng": -96.528363
},{
"label": "Arroyo Iguana", "lat": 17.899225, "lng": -96.491029
},{
"label": "Cerro Verde", "lat": 17.955188, "lng": -96.507999
}]