[{
"label": "Barrio Tierra Azul (Cuarta Sección)", "lat": 17.459088, "lng": -98.003725
},{
"label": "San Miguel Tlacotepec", "lat": 17.453624, "lng": -98.007239
},{
"label": "San Martín Sabinillo", "lat": 17.484443, "lng": -98.015455
},{
"label": "El Puente", "lat": 17.431163, "lng": -98.004931
},{
"label": "Colonia San Ramos (Colonia Reforma)", "lat": 17.455206, "lng": -98.001664
},{
"label": "Barrio para Abajo", "lat": 17.448982, "lng": -98.007346
},{
"label": "La Reforma", "lat": 17.426013, "lng": -98.013685
},{
"label": "Santiago Nuxaño", "lat": 17.403655, "lng": -98.012327
},{
"label": "Xinitioco", "lat": 17.41631, "lng": -97.988612
},{
"label": "Yosondalla", "lat": 17.454905, "lng": -98.029517
},{
"label": "Altavista", "lat": 17.4492, "lng": -98.000616
},{
"label": "Rancho Nuevo", "lat": 17.451958, "lng": -98.018678
},{
"label": "Vista Hermosa", "lat": 17.456821, "lng": -98.012595
},{
"label": "Guadalupe Nucate", "lat": 17.43975, "lng": -98.037376
},{
"label": "Agua Buena", "lat": 17.424757, "lng": -98.023901
}]