[{
"label": "San José", "lat": 16.138339, "lng": -97.10584
},{
"label": "La Laguna", "lat": 16.211979, "lng": -97.045383
},{
"label": "Llano Chuparrosa", "lat": 16.209352, "lng": -97.158344
},{
"label": "Luz de la Luna", "lat": 16.138909, "lng": -97.065882
},{
"label": "Frumencio Salinas Juárez", "lat": 16.20708, "lng": -97.144526
},{
"label": "Santa María Rancho Nuevo", "lat": 16.178184, "lng": -97.117463
},{
"label": "El Rosario", "lat": 16.138925, "lng": -97.079248
},{
"label": "Armenia", "lat": 16.177753, "lng": -97.082474
},{
"label": "San Miguel", "lat": 16.191695, "lng": -97.134346
},{
"label": "Santa Lucía Tierra Blanca", "lat": 16.164164, "lng": -97.127411
},{
"label": "La Asunción", "lat": 16.183009, "lng": -97.096994
},{
"label": "Santa Cruz (Rancho Escondido)", "lat": 16.178863, "lng": -97.150756
},{
"label": "San Isidro", "lat": 16.165247, "lng": -97.105289
},{
"label": "San Juan Lachao Pueblo Viejo", "lat": 16.233143, "lng": -97.137639
},{
"label": "San José Costa Rica", "lat": 16.141485, "lng": -97.083909
},{
"label": "Santa Catarina", "lat": 16.192046, "lng": -97.153601
},{
"label": "Piedra del Rayo", "lat": 16.227351, "lng": -97.060966
},{
"label": "Los Mulatos", "lat": 16.154769, "lng": -97.082328
},{
"label": "Santa Fe", "lat": 16.156713, "lng": -97.076782
},{
"label": "San José el Corozal", "lat": 16.160357, "lng": -97.092466
},{
"label": "El Portillo", "lat": 16.227538, "lng": -97.15194
},{
"label": "Ojo de Agua", "lat": 16.144191, "lng": -97.113013
},{
"label": "La Ciénega", "lat": 16.189485, "lng": -97.151166
},{
"label": "Guadalupe", "lat": 16.138526, "lng": -97.101057
},{
"label": "Cañada Río Oriente", "lat": 16.146039, "lng": -97.090659
},{
"label": "Río Sal", "lat": 16.190756, "lng": -97.097679
},{
"label": "Dolores", "lat": 16.148704, "lng": -97.074867
},{
"label": "Santa Catarina Cerro del Vidrio", "lat": 16.252366, "lng": -97.152575
},{
"label": "El Doscientos Uno", "lat": 16.161947, "lng": -97.087719
},{
"label": "San Martín", "lat": 16.169062, "lng": -97.125876
},{
"label": "Silvio Reyes", "lat": 16.183701, "lng": -97.069551
},{
"label": "Los Laureles", "lat": 16.160764, "lng": -97.065545
},{
"label": "El Recuerdo (La Neblina)", "lat": 16.187381, "lng": -97.133885
},{
"label": "La Reforma", "lat": 16.142979, "lng": -97.145015
},{
"label": "Portillo Limón", "lat": 16.137235, "lng": -97.108756
},{
"label": "Tierra Colorada", "lat": 16.169851, "lng": -97.172484
},{
"label": "San Juan Lachao", "lat": 16.158538, "lng": -97.125108
},{
"label": "Duraznal", "lat": 16.203158, "lng": -97.088048
},{
"label": "Los Jiménez", "lat": 16.246067, "lng": -97.145661
},{
"label": "San Antonio", "lat": 16.234645, "lng": -97.152394
},{
"label": "El Platanar", "lat": 16.198117, "lng": -97.159572
},{
"label": "El Ocote", "lat": 16.182669, "lng": -97.146913
},{
"label": "Las Nieves", "lat": 16.172714, "lng": -97.065705
},{
"label": "San Rafael", "lat": 16.156579, "lng": -97.070121
},{
"label": "El Tablero", "lat": 16.229288, "lng": -97.052911
},{
"label": "La Esperanza", "lat": 16.183474, "lng": -97.139386
},{
"label": "Santa Rosa de Lima", "lat": 16.168513, "lng": -97.092364
},{
"label": "San Francisco", "lat": 16.167285, "lng": -97.131327
},{
"label": "La Unión", "lat": 16.155172, "lng": -97.120106
},{
"label": "Providencia", "lat": 16.167798, "lng": -97.07867
}]