[{
"label": "Llano Manteca", "lat": 16.97375, "lng": -96.910472
},{
"label": "Santa Bárbara", "lat": 16.945622, "lng": -96.896688
},{
"label": "Piedra Blanca", "lat": 16.953115, "lng": -96.904326
},{
"label": "Río Minas", "lat": 16.998881, "lng": -96.857084
},{
"label": "La Plazuelita", "lat": 16.967341, "lng": -96.870705
},{
"label": "El Esponjado", "lat": 16.986965, "lng": -96.922477
},{
"label": "Llano del Toro", "lat": 16.969062, "lng": -96.89941
},{
"label": "Rebollero", "lat": 16.993431, "lng": -96.839636
},{
"label": "Río Jalapilla", "lat": 17.011361, "lng": -96.889631
},{
"label": "El Magueyal", "lat": 16.975956, "lng": -96.894245
},{
"label": "Mina Ruina", "lat": 16.959815, "lng": -96.878338
},{
"label": "El Poleo", "lat": 16.979934, "lng": -96.919286
},{
"label": "El Zacatón", "lat": 16.951812, "lng": -96.896924
},{
"label": "San Pablo Cuatro Venados", "lat": 16.982708, "lng": -96.89111
},{
"label": "La Nevería", "lat": 16.960069, "lng": -96.907468
},{
"label": "El Moral", "lat": 16.992195, "lng": -96.858184
},{
"label": "Ojo de Agua", "lat": 16.952777, "lng": -96.880372
},{
"label": "San Cristóbal", "lat": 17.01679, "lng": -96.862336
}]