[{
"label": "Palo Solo", "lat": 17.83672, "lng": -97.260106
},{
"label": "Nata", "lat": 17.779957, "lng": -97.311901
},{
"label": "Rancho Navarrete", "lat": 17.829075, "lng": -97.293226
},{
"label": "Santa Cruz Capulálpam", "lat": 17.765116, "lng": -97.397113
},{
"label": "Rancho Julián Cruz López (San Miguel)", "lat": 17.807556, "lng": -97.345598
},{
"label": "San Miguel Tequixtepec", "lat": 17.802861, "lng": -97.341655
},{
"label": "Brecha a Nata (Barrio San José)", "lat": 17.798674, "lng": -97.324642
},{
"label": "Buena Vista", "lat": 17.820809, "lng": -97.304136
},{
"label": "Socorro Romero Sánchez [Granja Porcina]", "lat": 17.782402, "lng": -97.345736
}]