[{
"label": "El Palacio", "lat": 16.005219, "lng": -96.070531
},{
"label": "Majahual", "lat": 15.808957, "lng": -96.00634
},{
"label": "La Merced del Potrero", "lat": 16.047456, "lng": -96.070455
},{
"label": "Copalitilla", "lat": 15.906453, "lng": -96.149016
},{
"label": "Mandimbo", "lat": 15.892499, "lng": -96.208734
},{
"label": "Corral de Piedra", "lat": 15.93505, "lng": -96.106768
},{
"label": "Loma Larga o San Isidro", "lat": 15.905442, "lng": -96.228071
},{
"label": "Rincón Grande", "lat": 16.090489, "lng": -96.097886
},{
"label": "Portillo las Muelles", "lat": 15.882268, "lng": -96.237726
},{
"label": "Cerro Virgen", "lat": 15.97131, "lng": -96.119134
},{
"label": "Las Nubes", "lat": 15.898858, "lng": -96.239316
},{
"label": "Coatecas Uno", "lat": 15.925123, "lng": -96.121748
},{
"label": "Copalita la Hamaca", "lat": 15.892176, "lng": -96.188655
},{
"label": "Llano Palacio", "lat": 15.911814, "lng": -96.208148
},{
"label": "Tepalcate", "lat": 15.887744, "lng": -96.024206
},{
"label": "Barrio Nuevo", "lat": 16.051956, "lng": -96.073094
},{
"label": "El Mirador", "lat": 15.951753, "lng": -96.179611
},{
"label": "La Chimdova", "lat": 15.960811, "lng": -96.034044
},{
"label": "Piedras Negras (El Salado)", "lat": 16.001718, "lng": -96.056826
},{
"label": "Cerro Horno", "lat": 15.974729, "lng": -96.122808
},{
"label": "Tierra Blanca", "lat": 15.941891, "lng": -96.083086
},{
"label": "San Isidro", "lat": 15.944939, "lng": -96.047848
},{
"label": "Colorado Grande", "lat": 16.011975, "lng": -96.088103
},{
"label": "Cafetal Camila", "lat": 15.928861, "lng": -96.222968
},{
"label": "Santa María Petatengo", "lat": 15.969074, "lng": -96.022028
},{
"label": "Cerro Guía", "lat": 16.03915, "lng": -96.157676
},{
"label": "El Zapote", "lat": 15.915884, "lng": -96.220335
},{
"label": "Ocotillal", "lat": 15.836801, "lng": -96.08291
},{
"label": "La Pluma", "lat": 15.935336, "lng": -96.072488
},{
"label": "Guanacaslito", "lat": 15.902342, "lng": -96.179221
},{
"label": "California", "lat": 15.936233, "lng": -96.238872
},{
"label": "El Faro", "lat": 15.996428, "lng": -96.114345
},{
"label": "La Constancia", "lat": 15.969323, "lng": -96.136606
},{
"label": "San Lorenzo", "lat": 15.942754, "lng": -96.038944
},{
"label": "Arroyo Piedra", "lat": 15.918933, "lng": -96.163744
},{
"label": "La Presa (El Tanque)", "lat": 15.950695, "lng": -96.081303
},{
"label": "El Tigre", "lat": 15.979836, "lng": -96.038069
},{
"label": "El Achote", "lat": 15.927138, "lng": -96.062716
},{
"label": "Barra Copalita", "lat": 15.817678, "lng": -96.062617
},{
"label": "Istmo", "lat": 15.993985, "lng": -96.105775
},{
"label": "El Xúchil", "lat": 15.925602, "lng": -96.212728
},{
"label": "El Palmar", "lat": 15.92848, "lng": -96.111038
},{
"label": "El Manila", "lat": 15.930012, "lng": -96.172684
},{
"label": "La Reja", "lat": 15.910715, "lng": -96.165442
},{
"label": "Ojo de Agua", "lat": 15.884516, "lng": -96.226182
},{
"label": "La Bocana", "lat": 15.799241, "lng": -96.045833
},{
"label": "Santa María Xadani", "lat": 15.94924, "lng": -96.073607
},{
"label": "La Ciénega", "lat": 15.878523, "lng": -96.203953
},{
"label": "El Mamey", "lat": 15.983242, "lng": -96.091095
},{
"label": "Macahuital", "lat": 15.844625, "lng": -96.062604
},{
"label": "El Encinal", "lat": 15.987621, "lng": -96.101512
},{
"label": "Mamey", "lat": 16.055593, "lng": -96.096755
},{
"label": "Las Nardas", "lat": 15.950939, "lng": -96.032312
},{
"label": "Agua Zarca", "lat": 15.972294, "lng": -96.002888
},{
"label": "La Blas Xadani", "lat": 15.875503, "lng": -96.115926
},{
"label": "La Ceiba", "lat": 15.844633, "lng": -96.103594
},{
"label": "Yuviaga", "lat": 15.969229, "lng": -96.183314
},{
"label": "Llano Jícara", "lat": 15.909039, "lng": -96.172813
},{
"label": "Coatecas Dos", "lat": 15.926898, "lng": -96.119321
},{
"label": "San Miguel del Puerto", "lat": 15.921633, "lng": -96.174852
},{
"label": "El Granadillo", "lat": 15.912051, "lng": -96.155543
},{
"label": "Arroyo Arena", "lat": 15.980286, "lng": -96.108172
},{
"label": "Santa Catarina Jamixtepec", "lat": 16.017024, "lng": -96.041375
},{
"label": "Monte Carlo", "lat": 15.998958, "lng": -96.098249
},{
"label": "Zimatán", "lat": 15.940849, "lng": -96.025329
},{
"label": "Cerro Lobo", "lat": 16.046881, "lng": -96.138096
},{
"label": "La Peña", "lat": 15.994324, "lng": -96.062191
},{
"label": "Cerro de Lumbre", "lat": 15.901371, "lng": -96.054017
},{
"label": "Nopalito", "lat": 15.917825, "lng": -96.208766
},{
"label": "El Tamarindo", "lat": 15.941181, "lng": -96.098717
},{
"label": "Cerro Milpa", "lat": 15.971653, "lng": -96.141098
},{
"label": "El Edén", "lat": 15.895681, "lng": -96.232968
},{
"label": "San Antonio", "lat": 15.93324, "lng": -96.170623
},{
"label": "El Arroyón", "lat": 15.909297, "lng": -96.135942
},{
"label": "Tepehuaje", "lat": 15.930055, "lng": -96.032421
},{
"label": "Las Muelles", "lat": 15.88313, "lng": -96.213336
},{
"label": "Llano Grande", "lat": 15.92144, "lng": -96.126683
},{
"label": "Corralito", "lat": 15.983793, "lng": -96.017319
},{
"label": "El Aguacate", "lat": 15.976958, "lng": -96.083714
},{
"label": "Piedra Azul", "lat": 15.890695, "lng": -96.151547
},{
"label": "El Chepil", "lat": 16.085259, "lng": -96.081221
},{
"label": "Llano Arriera", "lat": 15.942734, "lng": -96.027842
},{
"label": "Los Ramírez", "lat": 15.894186, "lng": -96.245523
},{
"label": "Llano Palacio Dos (Los González)", "lat": 15.905392, "lng": -96.217654
},{
"label": "El Escondido", "lat": 15.926856, "lng": -96.116731
},{
"label": "El Limón", "lat": 15.947456, "lng": -96.088154
}]