[{
"label": "Rancho Freeworld (Rancho Pinzón)", "lat": 16.212504, "lng": -95.102948
},{
"label": "Huazantlán del Río", "lat": 16.22005, "lng": -95.127336
},{
"label": "San Pablo", "lat": 16.2067, "lng": -95.000882
},{
"label": "Villa Hermosa", "lat": 16.212292, "lng": -95.123749
},{
"label": "Costa Rica", "lat": 16.198254, "lng": -95.016368
},{
"label": "San Martín", "lat": 16.214326, "lng": -95.131507
},{
"label": "Colonia Cuauhtémoc", "lat": 16.190449, "lng": -95.118674
},{
"label": "El Pacífico", "lat": 16.205673, "lng": -95.010705
},{
"label": "Barrio Nuevo", "lat": 16.202062, "lng": -94.976699
},{
"label": "La Reforma", "lat": 16.193334, "lng": -95.073996
},{
"label": "Laguna Santa Cruz", "lat": 16.215579, "lng": -94.960595
},{
"label": "Colonia Juárez", "lat": 16.209897, "lng": -95.027419
},{
"label": "Mariano Oviedo Juárez", "lat": 16.205485, "lng": -94.986743
},{
"label": "Deor Pin (Lodo Blanco)", "lat": 16.218058, "lng": -94.993979
},{
"label": "Kambaj Beay Ndek (Pueblo a Orilla del Mar)", "lat": 16.217854, "lng": -94.984197
},{
"label": "San Mateo del Mar", "lat": 16.2097, "lng": -94.981892
}]