[{
"label": "Guadalupe", "lat": 17.409569, "lng": -97.597813
},{
"label": "San Martín Huamelúlpam", "lat": 17.397404, "lng": -97.602352
},{
"label": "Reforma", "lat": 17.407747, "lng": -97.630119
},{
"label": "Morelos", "lat": 17.396856, "lng": -97.590012
},{
"label": "Progreso", "lat": 17.388607, "lng": -97.606377
},{
"label": "Segunda Sección", "lat": 17.395403, "lng": -97.610259
},{
"label": "Totonundoo", "lat": 17.413966, "lng": -97.583222
},{
"label": "Sección Primera", "lat": 17.389961, "lng": -97.596572
},{
"label": "Unión", "lat": 17.389644, "lng": -97.618058
},{
"label": "Tercera Sección", "lat": 17.404568, "lng": -97.614231
},{
"label": "Independencia", "lat": 17.395419, "lng": -97.627201
}]