[{
"label": "El Palenque", "lat": 16.814132, "lng": -96.827209
},{
"label": "El Marqués", "lat": 16.802256, "lng": -96.784044
},{
"label": "Pozo Pajarito", "lat": 16.821573, "lng": -96.790125
},{
"label": "Ex-Hacienda de la Niña Andrea", "lat": 16.829354, "lng": -96.777124
},{
"label": "Rancho Besaro", "lat": 16.834114, "lng": -96.790198
},{
"label": "San Pablo Huixtepec", "lat": 16.826736, "lng": -96.781005
},{
"label": "Barbas", "lat": 16.810181, "lng": -96.825487
},{
"label": "Paraje Vitigotiopa", "lat": 16.830441, "lng": -96.790094
},{
"label": "Yarechi", "lat": 16.838119, "lng": -96.802215
},{
"label": "Las Cruces", "lat": 16.798031, "lng": -96.792173
},{
"label": "Barrio San Antonio", "lat": 16.814202, "lng": -96.779515
},{
"label": "Loma del Ocote", "lat": 16.818121, "lng": -96.808856
},{
"label": "Llano Largo", "lat": 16.805129, "lng": -96.794173
},{
"label": "Río Morón", "lat": 16.806163, "lng": -96.797871
},{
"label": "Lachigova", "lat": 16.815101, "lng": -96.796771
}]