[{
"label": "El Huarumbo", "lat": 15.992605, "lng": -97.089372
},{
"label": "Arroyo Tepehuaje", "lat": 15.987362, "lng": -96.92204
},{
"label": "Universo [Colonia]", "lat": 15.90372, "lng": -97.069266
},{
"label": "El Toledo", "lat": 15.998375, "lng": -97.063243
},{
"label": "Nueva Flandes", "lat": 16.20068, "lng": -96.193768
},{
"label": "San Miguelito [Rancho]", "lat": 15.973282, "lng": -97.057195
},{
"label": "Regadío", "lat": 15.917866, "lng": -97.047149
},{
"label": "Vivo Resorts", "lat": 15.916308, "lng": -97.185018
},{
"label": "San Miguel [Colonia]", "lat": 15.889288, "lng": -97.063834
},{
"label": "Las Negras", "lat": 15.947661, "lng": -97.186493
},{
"label": "Agua Fría", "lat": 16.192895, "lng": -96.23897
},{
"label": "San Andrés Copala", "lat": 15.999916, "lng": -97.144593
},{
"label": "La Frutilla", "lat": 15.980632, "lng": -97.065981
},{
"label": "Los Limones", "lat": 15.929735, "lng": -97.081614
},{
"label": "Agua de las Flores", "lat": 16.244911, "lng": -96.185971
},{
"label": "El Salitre", "lat": 15.954878, "lng": -97.00258
},{
"label": "Arroyo Seco", "lat": 15.877305, "lng": -97.067633
},{
"label": "Mandingas", "lat": 15.918353, "lng": -97.077901
},{
"label": "El Gallo", "lat": 15.945681, "lng": -97.177959
},{
"label": "Los Ficus [Club Campestre]", "lat": 15.894408, "lng": -97.076083
},{
"label": "Puerto Escondido", "lat": 15.862502, "lng": -97.071296
},{
"label": "La Esperanza Verde [Fraccionamiento]", "lat": 15.88125, "lng": -97.102891
},{
"label": "El Pescadito", "lat": 15.981279, "lng": -97.002614
},{
"label": "El Zacatal", "lat": 16.018655, "lng": -97.117014
},{
"label": "El Zapote", "lat": 15.938097, "lng": -97.041954
},{
"label": "Colonia Aeropuerto", "lat": 15.890821, "lng": -97.08334
},{
"label": "Puente San José", "lat": 15.919648, "lng": -97.082925
},{
"label": "La Puesta del Sol", "lat": 15.943488, "lng": -97.176895
},{
"label": "Salto del Agua", "lat": 15.987899, "lng": -96.936079
},{
"label": "Río Chiquito", "lat": 15.98639, "lng": -96.971279
},{
"label": "La Laguna [Fraccionamiento]", "lat": 15.888406, "lng": -97.087253
},{
"label": "Las Hamacas", "lat": 15.936412, "lng": -97.157115
},{
"label": "La Yerba Santa", "lat": 15.942171, "lng": -97.07328
},{
"label": "Cerro Zopilote", "lat": 15.945793, "lng": -97.032602
},{
"label": "Aguaje del Zapote", "lat": 15.940024, "lng": -97.157782
},{
"label": "Cerro Limón", "lat": 15.977886, "lng": -96.942676
},{
"label": "Barrio de las Flores", "lat": 15.919925, "lng": -97.114659
},{
"label": "La Agüita", "lat": 15.9635, "lng": -97.082403
},{
"label": "Plan de Mina", "lat": 15.947763, "lng": -96.973164
},{
"label": "Barrio Arriba", "lat": 15.929982, "lng": -97.121414
},{
"label": "La Ceiba", "lat": 15.951181, "lng": -97.191177
},{
"label": "Pueblo Viejo", "lat": 15.960554, "lng": -97.044002
},{
"label": "La Isla del Gallo", "lat": 15.940155, "lng": -97.173122
},{
"label": "El Jícaro", "lat": 15.886232, "lng": -97.110831
},{
"label": "Las Tres Palmas", "lat": 15.911307, "lng": -97.131832
},{
"label": "Los Manantiales (La Pita)", "lat": 15.877355, "lng": -97.102315
},{
"label": "La Reforma", "lat": 15.98688, "lng": -96.982832
},{
"label": "Bajos de Chila", "lat": 15.922384, "lng": -97.119619
},{
"label": "La Alejandría", "lat": 15.940017, "lng": -97.165669
},{
"label": "Colonia Bugambilias", "lat": 15.91654, "lng": -97.127405
},{
"label": "Los Nanches", "lat": 15.964307, "lng": -97.093646
},{
"label": "Los Reyes [Fraccionamiento]", "lat": 15.881343, "lng": -97.096349
},{
"label": "Lomas de San Pedro", "lat": 15.891749, "lng": -97.080719
},{
"label": "Las Salinas", "lat": 15.920549, "lng": -97.152719
},{
"label": "Los Macuiles", "lat": 15.885379, "lng": -97.090154
},{
"label": "San Pedro Mixtepec Distrito 26", "lat": 16.271822, "lng": -96.28272
},{
"label": "El Cuajilote", "lat": 15.973326, "lng": -97.064816
},{
"label": "El Tlachicón", "lat": 15.998102, "lng": -97.026874
},{
"label": "San Pedro Mixtepec Distrito 22", "lat": 15.982644, "lng": -97.083832
},{
"label": "El Macuil", "lat": 15.938473, "lng": -97.076843
},{
"label": "Cerro de la Vieja (Rancho Pequeño)", "lat": 15.892082, "lng": -97.115829
},{
"label": "La Lucerna", "lat": 15.900386, "lng": -97.084366
},{
"label": "Comuncito", "lat": 15.979555, "lng": -97.048651
},{
"label": "El Manzanal", "lat": 16.185039, "lng": -96.167094
},{
"label": "La Cofradía", "lat": 15.968611, "lng": -97.038613
},{
"label": "Carrizal", "lat": 15.982843, "lng": -97.0314
},{
"label": "La Cañada", "lat": 15.986831, "lng": -97.11935
},{
"label": "La Unión", "lat": 15.897418, "lng": -97.045321
},{
"label": "Portillo el Maluco", "lat": 15.958063, "lng": -97.019706
},{
"label": "Rancho Conejo", "lat": 16.191118, "lng": -96.225133
},{
"label": "Macahuite Blanco", "lat": 16.009094, "lng": -97.064443
},{
"label": "Ministerios de Amor Eterno Asociación Cultural", "lat": 15.939346, "lng": -97.169742
},{
"label": "Palma Sola", "lat": 15.913724, "lng": -97.123873
},{
"label": "Los Paragüitos", "lat": 15.922891, "lng": -97.125812
},{
"label": "El Porvenir", "lat": 16.027893, "lng": -97.128121
},{
"label": "Colonia Independencia", "lat": 15.877367, "lng": -97.06033
},{
"label": "Colonia Guadalupe", "lat": 15.897121, "lng": -97.073979
}]