[{
"label": "Rancho Hernández", "lat": 18.108334, "lng": -96.57236
},{
"label": "Mina de Arena", "lat": 18.126687, "lng": -96.712721
},{
"label": "Agua Lejos San Martín", "lat": 18.103912, "lng": -96.622305
},{
"label": "Cañada Grande", "lat": 18.262496, "lng": -96.695938
},{
"label": "Nuevo Maldonado (Altamira)", "lat": 18.138091, "lng": -96.646508
},{
"label": "Altamira", "lat": 18.135196, "lng": -96.655192
},{
"label": "Agua Pescado", "lat": 18.150632, "lng": -96.709958
},{
"label": "Agua Pólvora", "lat": 18.11317, "lng": -96.639029
},{
"label": "Sitio Iglesia", "lat": 18.225622, "lng": -96.693035
},{
"label": "Agua Camarón (Pozo de Águila)", "lat": 18.201027, "lng": -96.667995
},{
"label": "Rancho González", "lat": 18.120833, "lng": -96.598056
},{
"label": "Cerro Caballero", "lat": 18.142571, "lng": -96.716339
},{
"label": "Agua Pared", "lat": 18.162908, "lng": -96.666114
},{
"label": "Rancho Carrera (Altamira)", "lat": 18.122696, "lng": -96.648819
},{
"label": "Agua San José", "lat": 18.181751, "lng": -96.723521
},{
"label": "Agua Platanillo Uno", "lat": 18.180698, "lng": -96.724697
},{
"label": "San Isidro", "lat": 18.105856, "lng": -96.616775
},{
"label": "Agua Urraca", "lat": 18.163581, "lng": -96.705004
},{
"label": "Agua Murciélago", "lat": 18.219528, "lng": -96.680489
},{
"label": "Loma Alta Tierra Colorada", "lat": 18.166598, "lng": -96.674829
},{
"label": "Cerro Trueno", "lat": 18.209834, "lng": -96.73852
},{
"label": "Santa Catarina", "lat": 18.18606, "lng": -96.626141
},{
"label": "Palo Zorrillo", "lat": 18.231944, "lng": -96.682222
},{
"label": "Cerro Rabón", "lat": 18.102444, "lng": -96.5804
},{
"label": "Agua Iglesia", "lat": 18.209837, "lng": -96.652994
},{
"label": "Plan de Guadalupe", "lat": 18.157885, "lng": -96.735924
},{
"label": "Rancho Pineda", "lat": 18.130059, "lng": -96.600544
},{
"label": "Agua Caracol Buena Vista", "lat": 18.204738, "lng": -96.6557
},{
"label": "Agua Jabalí", "lat": 18.18289, "lng": -96.64144
},{
"label": "Agua Verde", "lat": 18.150836, "lng": -96.720397
},{
"label": "Agua de Palo", "lat": 18.214488, "lng": -96.673022
},{
"label": "Piedra de la Luz", "lat": 18.158004, "lng": -96.659317
},{
"label": "Camino de Yeso", "lat": 18.148298, "lng": -96.744344
},{
"label": "Cabeza de Tierra", "lat": 18.187546, "lng": -96.69158
},{
"label": "Rancho Meseta", "lat": 18.155153, "lng": -96.656203
},{
"label": "Cerro Central", "lat": 18.146955, "lng": -96.603647
},{
"label": "Llano Nuevo de la Cruz", "lat": 18.144429, "lng": -96.651679
},{
"label": "Rancho Peinecillo", "lat": 18.13488, "lng": -96.595181
},{
"label": "Agua Golondrina Sección II", "lat": 18.199495, "lng": -96.696783
},{
"label": "Unión de Hidalgo", "lat": 18.227265, "lng": -96.748079
},{
"label": "Cerro Negro", "lat": 18.169441, "lng": -96.689525
},{
"label": "Agua Sótano", "lat": 18.125314, "lng": -96.732231
},{
"label": "Piedras Negras", "lat": 18.141424, "lng": -96.731474
},{
"label": "Cerro Palmaje", "lat": 18.218856, "lng": -96.689748
},{
"label": "Rancho Avendaño", "lat": 18.140033, "lng": -96.614027
},{
"label": "Cerro Palmera", "lat": 18.153728, "lng": -96.699383
},{
"label": "Cerro Buena Vista", "lat": 18.138662, "lng": -96.702877
},{
"label": "Agua Calabaza (Agua Tortuga)", "lat": 18.166549, "lng": -96.708493
},{
"label": "Rancho Cerqueda", "lat": 18.158438, "lng": -96.593582
},{
"label": "Agua Caballero", "lat": 18.160821, "lng": -96.710639
},{
"label": "Agua Otate", "lat": 18.145818, "lng": -96.722797
},{
"label": "Agua Pescadito", "lat": 18.17618, "lng": -96.618371
},{
"label": "Agua Tinta (Pozo de Águila)", "lat": 18.201463, "lng": -96.679933
},{
"label": "Cerro Papel", "lat": 18.173726, "lng": -96.707705
},{
"label": "Agua de Cedro", "lat": 18.111422, "lng": -96.597146
},{
"label": "Peña Blanca", "lat": 18.179829, "lng": -96.65916
},{
"label": "Cerro Chiquito", "lat": 18.191259, "lng": -96.623143
},{
"label": "Cerro Otate", "lat": 18.179857, "lng": -96.683029
},{
"label": "Rancho Antonio", "lat": 18.160808, "lng": -96.653661
},{
"label": "Cerro de los Pinos", "lat": 18.106116, "lng": -96.726379
},{
"label": "Pozo de Águila", "lat": 18.193726, "lng": -96.678579
},{
"label": "Cerro Álamo", "lat": 18.088249, "lng": -96.582681
},{
"label": "Agua Teopoxco", "lat": 18.121695, "lng": -96.736259
},{
"label": "Agua Sitio Iglesia", "lat": 18.226035, "lng": -96.679267
},{
"label": "Plan de Laguna", "lat": 18.158234, "lng": -96.728366
},{
"label": "Llano de Naranjo", "lat": 18.215133, "lng": -96.681251
},{
"label": "Loma Alta Cerro Central", "lat": 18.157536, "lng": -96.613732
},{
"label": "Rancho Rivera", "lat": 18.127337, "lng": -96.627367
},{
"label": "Aguacatitla", "lat": 18.191216, "lng": -96.73292
},{
"label": "Agua de Aceite", "lat": 18.156855, "lng": -96.731296
},{
"label": "Agua de Luna", "lat": 18.228969, "lng": -96.71347
},{
"label": "Cerro de Maíz", "lat": 18.127875, "lng": -96.717361
},{
"label": "Palo Plumaje", "lat": 18.172786, "lng": -96.721051
},{
"label": "Peña Grande", "lat": 18.18633, "lng": -96.637535
},{
"label": "Cerro de la Raya", "lat": 18.158234, "lng": -96.739992
},{
"label": "Cerro Alto", "lat": 18.24575, "lng": -96.702758
},{
"label": "Agua Colorada", "lat": 18.119686, "lng": -96.730466
},{
"label": "Los Naranjos", "lat": 18.109011, "lng": -96.614328
},{
"label": "Rancho Miranda (Altamira)", "lat": 18.140326, "lng": -96.659674
},{
"label": "Cerro de Cueva", "lat": 18.198326, "lng": -96.716696
},{
"label": "Cerro Liquidámbar", "lat": 18.145711, "lng": -96.679855
},{
"label": "Agua Fría", "lat": 18.154478, "lng": -96.71256
},{
"label": "Agua Pumarosa", "lat": 18.182164, "lng": -96.62442
},{
"label": "Cerro de la Cruz (Puerto Buenavista)", "lat": 18.217997, "lng": -96.664277
},{
"label": "Piedra Ancha", "lat": 18.154039, "lng": -96.627406
},{
"label": "Agua Ciénega", "lat": 18.184893, "lng": -96.655145
},{
"label": "San José Tenango", "lat": 18.150762, "lng": -96.717209
},{
"label": "Agua Apestosa", "lat": 18.150925, "lng": -96.651274
},{
"label": "Agua de Grillo", "lat": 18.160821, "lng": -96.703956
},{
"label": "Cerro Liquidámbar Árnica", "lat": 18.124824, "lng": -96.722931
},{
"label": "Cerro Frío", "lat": 18.214714, "lng": -96.699992
},{
"label": "Cerro Verde [Rancho]", "lat": 18.134064, "lng": -96.58639
},{
"label": "Cerro Ocote", "lat": 18.10683, "lng": -96.714879
},{
"label": "Loma de la Cruz", "lat": 18.156855, "lng": -96.645706
},{
"label": "Agua Rayón", "lat": 18.209742, "lng": -96.693486
},{
"label": "Rancho Dávila", "lat": 18.142999, "lng": -96.601523
},{
"label": "Rancho Quiroga", "lat": 18.15564, "lng": -96.737948
},{
"label": "Vista Hermosa", "lat": 18.19053, "lng": -96.723947
},{
"label": "Agua Obscura", "lat": 18.129208, "lng": -96.722728
},{
"label": "Sitio Caballero", "lat": 18.189149, "lng": -96.652868
},{
"label": "Rancho Pantoja", "lat": 18.168708, "lng": -96.62766
},{
"label": "Palo Gordo", "lat": 18.112222, "lng": -96.725556
},{
"label": "Agua Vista", "lat": 18.163321, "lng": -96.678532
},{
"label": "San Jorge Buena Vista", "lat": 18.170036, "lng": -96.713622
},{
"label": "Patio Viejo", "lat": 18.208769, "lng": -96.661257
},{
"label": "Agua Platanillo", "lat": 18.17565, "lng": -96.737245
},{
"label": "El Potrero", "lat": 18.136593, "lng": -96.739458
},{
"label": "Cerro Relámpago", "lat": 18.142069, "lng": -96.723288
},{
"label": "Agua Sótano (Puerto Buenavista)", "lat": 18.214386, "lng": -96.640309
},{
"label": "Agua Fuerte", "lat": 18.22499, "lng": -96.674763
},{
"label": "Agua Dulce", "lat": 18.162446, "lng": -96.670348
},{
"label": "Agua Camarón (San Martín)", "lat": 18.115604, "lng": -96.621459
},{
"label": "Agua de Golondrina", "lat": 18.196338, "lng": -96.691582
},{
"label": "Rancho González Segunda Sección", "lat": 18.133494, "lng": -96.609228
},{
"label": "Las Maravillas", "lat": 18.095924, "lng": -96.58116
},{
"label": "San Martín Caballero", "lat": 18.108545, "lng": -96.633826
},{
"label": "Agua Caballo", "lat": 18.171343, "lng": -96.680969
},{
"label": "Tierra Colorada (Agua Colorada)", "lat": 18.173983, "lng": -96.670157
},{
"label": "Puerto Buenavista", "lat": 18.218091, "lng": -96.651781
},{
"label": "Rancho Morelos", "lat": 18.114987, "lng": -96.600436
},{
"label": "Génova Nuevo Progreso", "lat": 18.2429, "lng": -96.714368
},{
"label": "Agua de la Fuente", "lat": 18.169579, "lng": -96.630894
},{
"label": "Rancho Guadalupe", "lat": 18.111112, "lng": -96.623361
},{
"label": "Rancho Nuevo Pescadito", "lat": 18.165756, "lng": -96.614669
},{
"label": "Cerro Grande", "lat": 18.202339, "lng": -96.633049
},{
"label": "Agua de Rayo", "lat": 18.15988, "lng": -96.716806
},{
"label": "Cañada de Mamey", "lat": 18.184681, "lng": -96.708352
},{
"label": "Agua Cuchara", "lat": 18.15218, "lng": -96.705009
},{
"label": "Las Ruinas", "lat": 18.138833, "lng": -96.625333
},{
"label": "Piedra de Arena", "lat": 18.186111, "lng": -96.698056
},{
"label": "Barrio San Jerónimo", "lat": 18.212495, "lng": -96.745594
},{
"label": "Piedra del Sol", "lat": 18.170319, "lng": -96.71587
},{
"label": "Cerro Yerba de Pollo", "lat": 18.192036, "lng": -96.672342
},{
"label": "Cerro Totomoxtle", "lat": 18.143129, "lng": -96.585116
},{
"label": "Teocuatlán", "lat": 18.161218, "lng": -96.644821
},{
"label": "Rancho García Central", "lat": 18.113991, "lng": -96.587264
},{
"label": "Rancho Herrera", "lat": 18.154523, "lng": -96.612527
},{
"label": "Rancho Martínez Central", "lat": 18.154106, "lng": -96.620973
},{
"label": "Agua Canoa", "lat": 18.147179, "lng": -96.653558
},{
"label": "Llano de Árnica", "lat": 18.130584, "lng": -96.7359
}]