[{
"label": "El Palenque", "lat": 17.028076, "lng": -96.695356
},{
"label": "Primera Secci贸n San Antonio de la Cal", "lat": 17.030266, "lng": -96.694707
},{
"label": "Lomas de la Presa", "lat": 17.02401, "lng": -96.698164
},{
"label": "Primera Secci贸n el Portillo", "lat": 17.036549, "lng": -96.693666
},{
"label": "San Antonio de la Cal", "lat": 17.031313, "lng": -96.699284
},{
"label": "Ampliaci贸n San Antonio de la Cal", "lat": 17.049883, "lng": -96.701856
},{
"label": "La Mezquitera", "lat": 17.038968, "lng": -96.70133
},{
"label": "Tercera Secci贸n la Nopalera", "lat": 17.021728, "lng": -96.697822
},{
"label": "Ojo de Agua", "lat": 17.017659, "lng": -96.695631
},{
"label": "Campo de Tiro", "lat": 17.035251, "lng": -96.691202
}]