[{
"label": "Río Colorado", "lat": 17.39129, "lng": -97.276788
},{
"label": "San Miguel Tecomatlán", "lat": 17.394044, "lng": -97.267991
},{
"label": "San Isidro", "lat": 17.396123, "lng": -97.262001
},{
"label": "Santa Cruz", "lat": 17.397737, "lng": -97.266336
},{
"label": "El Conejo", "lat": 17.397879, "lng": -97.275664
}]