[{
"label": "Lachiguí", "lat": 16.469629, "lng": -96.447792
},{
"label": "Dviongo", "lat": 16.472544, "lng": -96.54408
},{
"label": "San Esteban Amatlán", "lat": 16.503832, "lng": -96.549754
},{
"label": "Lachiguizo", "lat": 16.429135, "lng": -96.530244
},{
"label": "Rancho Viejo", "lat": 16.437587, "lng": -96.509345
},{
"label": "Guetavero", "lat": 16.498426, "lng": -96.464515
},{
"label": "Zagalá", "lat": 16.401914, "lng": -96.531363
},{
"label": "Yegoveo", "lat": 16.463845, "lng": -96.466824
},{
"label": "Chirotete", "lat": 16.467272, "lng": -96.489832
},{
"label": "Guigoza", "lat": 16.505839, "lng": -96.492957
},{
"label": "Sitio del Palmar", "lat": 16.51439, "lng": -96.489538
},{
"label": "Tejocote", "lat": 16.517606, "lng": -96.497073
},{
"label": "Logoche", "lat": 16.422519, "lng": -96.533208
},{
"label": "Las Salinas", "lat": 16.437746, "lng": -96.432706
},{
"label": "Buenavista", "lat": 16.454635, "lng": -96.556648
},{
"label": "El Tanque (El Sabino)", "lat": 16.408298, "lng": -96.496843
},{
"label": "Aguacate", "lat": 16.557461, "lng": -96.493917
},{
"label": "Antigual", "lat": 16.531196, "lng": -96.481366
},{
"label": "Tanitoni", "lat": 16.468097, "lng": -96.420011
},{
"label": "San Luis Amatlán", "lat": 16.389468, "lng": -96.497115
},{
"label": "Nopalera (Guelaxóchitl)", "lat": 16.468576, "lng": -96.506809
},{
"label": "San Antonio Chiguivana", "lat": 16.414234, "lng": -96.434528
},{
"label": "Cacalote", "lat": 16.444166, "lng": -96.508023
},{
"label": "Yegosé", "lat": 16.381639, "lng": -96.458458
},{
"label": "Gozachina", "lat": 16.505699, "lng": -96.487176
},{
"label": "El Laurel [Rancho]", "lat": 16.398222, "lng": -96.438114
},{
"label": "Herobeche", "lat": 16.388679, "lng": -96.415139
},{
"label": "Los Pinos", "lat": 16.408606, "lng": -96.435047
},{
"label": "San Isidro Guishe", "lat": 16.367099, "lng": -96.528528
},{
"label": "El Espino", "lat": 16.490252, "lng": -96.454407
}]