[{
"label": "San Pedro Yosoñama", "lat": 17.427307, "lng": -97.772315
},{
"label": "Unión Hidalgo", "lat": 17.393395, "lng": -97.693062
},{
"label": "Peña Colorada", "lat": 17.478146, "lng": -97.796508
},{
"label": "Piedra Lisa", "lat": 17.438908, "lng": -97.798828
},{
"label": "San Juan Ñumí", "lat": 17.398289, "lng": -97.706421
},{
"label": "Yutajiqui", "lat": 17.396752, "lng": -97.697921
},{
"label": "Río Centro Ñumí", "lat": 17.392135, "lng": -97.687647
},{
"label": "San Pedro Ñumí", "lat": 17.377977, "lng": -97.669604
},{
"label": "Vistahermosa", "lat": 17.466481, "lng": -97.800717
},{
"label": "Guadalupe Mirasol Ñumí", "lat": 17.358976, "lng": -97.710545
},{
"label": "Monte Negro", "lat": 17.412229, "lng": -97.669267
},{
"label": "San José Ñumí", "lat": 17.403716, "lng": -97.749475
},{
"label": "Buenavista", "lat": 17.447458, "lng": -97.795024
},{
"label": "Pueblo Nuevo", "lat": 17.442031, "lng": -97.77155
},{
"label": "San Isidro Yosoñama", "lat": 17.422613, "lng": -97.761157
},{
"label": "San Antonio Nduasico (Nduaxico)", "lat": 17.390003, "lng": -97.708403
},{
"label": "Pie de Mogote", "lat": 17.393112, "lng": -97.703556
},{
"label": "El Llano", "lat": 17.401644, "lng": -97.696501
},{
"label": "Llano de Cebolla", "lat": 17.484979, "lng": -97.82596
},{
"label": "Sabinillo", "lat": 17.453202, "lng": -97.788788
},{
"label": "Santo Domingo Yosoñama", "lat": 17.434217, "lng": -97.769258
},{
"label": "La Paz Yosoñama", "lat": 17.438911, "lng": -97.782538
},{
"label": "Río San Juan", "lat": 17.398122, "lng": -97.6828
},{
"label": "San Isidro Ñumí", "lat": 17.363256, "lng": -97.69091
},{
"label": "Santa Rosa", "lat": 17.39224, "lng": -97.726385
}]