[{
"label": "La Cañada (Monte Rubio)", "lat": 16.522995, "lng": -96.917233
},{
"label": "Shilegua", "lat": 16.495129, "lng": -96.955954
},{
"label": "San Francisco Sola", "lat": 16.514966, "lng": -96.9744
},{
"label": "Pie de Guitillete", "lat": 16.524792, "lng": -96.958375
},{
"label": "Agua Fría", "lat": 16.545556, "lng": -96.941955
},{
"label": "Quialela", "lat": 16.487333, "lng": -96.954167
},{
"label": "El Obispo", "lat": 16.557853, "lng": -96.927599
},{
"label": "Tercera Sección", "lat": 16.520314, "lng": -96.963689
},{
"label": "Yugosica", "lat": 16.503529, "lng": -96.953913
},{
"label": "Gotzengo", "lat": 16.499379, "lng": -96.923737
}]