[{
"label": "San Juan Bautista Atatlahuca", "lat": 17.531096, "lng": -96.829941
},{
"label": "Barrio Ayuntamiento", "lat": 17.536387, "lng": -96.828967
},{
"label": "Zoquiápam Boca de los Ríos", "lat": 17.557603, "lng": -96.849716
},{
"label": "El Llano", "lat": 17.530444, "lng": -96.832505
},{
"label": "El Porvenir", "lat": 17.529612, "lng": -96.808322
},{
"label": "Barrio del Calvario", "lat": 17.53674, "lng": -96.826056
}]