[{
"label": "San Juan Teponaxtla", "lat": 17.717596, "lng": -96.720792
},{
"label": "San Juan Tepeuxila", "lat": 17.722881, "lng": -96.841103
},{
"label": "Llano Limón", "lat": 17.801686, "lng": -96.737572
},{
"label": "Los Leyva", "lat": 17.716462, "lng": -96.64716
},{
"label": "El Pipe", "lat": 17.815723, "lng": -96.716994
},{
"label": "San Pedro Cuyaltepec", "lat": 17.770177, "lng": -96.790083
},{
"label": "San Sebastián Tlacolula", "lat": 17.705098, "lng": -96.790482
},{
"label": "Llano Fusil", "lat": 17.813279, "lng": -96.751208
},{
"label": "Río de San Pedro", "lat": 17.778254, "lng": -96.790817
},{
"label": "San Andrés Pápalo", "lat": 17.745128, "lng": -96.770095
}]