[{
"label": "Las Pilas", "lat": 17.741111, "lng": -98.262778
},{
"label": "El Partideño", "lat": 17.797645, "lng": -98.289301
},{
"label": "El Zapote Blanco", "lat": 17.743432, "lng": -98.296744
},{
"label": "Corral de San Juan", "lat": 17.737616, "lng": -98.296128
},{
"label": "Sabino Largo", "lat": 17.746915, "lng": -98.295796
},{
"label": "Agua de Cobre", "lat": 17.756529, "lng": -98.292592
},{
"label": "San José Chepetlán", "lat": 17.829191, "lng": -98.286405
},{
"label": "Agua Fría (Miguel González)", "lat": 17.746448, "lng": -98.277415
},{
"label": "Luis Flores", "lat": 17.744132, "lng": -98.281197
},{
"label": "San Juan Ihualtepec", "lat": 17.739842, "lng": -98.288846
},{
"label": "Cidronio González", "lat": 17.741357, "lng": -98.283327
}]