[{
"label": "Refugio de Morelos", "lat": 17.588359, "lng": -97.440708
},{
"label": "Barrio de los Osorno", "lat": 17.605049, "lng": -97.435209
},{
"label": "Cuadra el Hule", "lat": 17.5448, "lng": -97.429986
},{
"label": "Río Colorado (Rancho Yusadolo)", "lat": 17.614985, "lng": -97.382303
},{
"label": "Reforma", "lat": 17.638373, "lng": -97.411042
},{
"label": "San Miguel Marcos Pérez", "lat": 17.629934, "lng": -97.39177
},{
"label": "El Calvario", "lat": 17.559005, "lng": -97.428062
},{
"label": "Santa María Pozoltepec", "lat": 17.589722, "lng": -97.384167
},{
"label": "Cuadra Número Uno", "lat": 17.558195, "lng": -97.42038
},{
"label": "San Juan Teposcolula", "lat": 17.550645, "lng": -97.424684
},{
"label": "La Cieneguilla", "lat": 17.574091, "lng": -97.393218
},{
"label": "La Garita", "lat": 17.551641, "lng": -97.41747
},{
"label": "Tierra Blanca", "lat": 17.564027, "lng": -97.426757
},{
"label": "Desviación Yucudaa", "lat": 17.57378, "lng": -97.424378
},{
"label": "La Siempre Viva", "lat": 17.562473, "lng": -97.417296
},{
"label": "Satayuco", "lat": 17.570423, "lng": -97.437356
},{
"label": "La Rosa", "lat": 17.610973, "lng": -97.422416
}]