[{
"label": "Santa Cruz Teotilálpam", "lat": 17.961554, "lng": -96.691714
},{
"label": "Chorro de Agua", "lat": 17.921516, "lng": -96.698305
},{
"label": "Santa María Bella Vista", "lat": 17.909432, "lng": -96.686886
},{
"label": "San Andrés Teotilálpam", "lat": 17.954131, "lng": -96.656588
},{
"label": "Cerro de Olla", "lat": 17.912318, "lng": -96.666662
},{
"label": "San Gaspar", "lat": 17.912205, "lng": -96.631192
},{
"label": "La Rejoya", "lat": 17.987383, "lng": -96.544539
},{
"label": "Cerro Joya", "lat": 17.897274, "lng": -96.6558
},{
"label": "Aguacate", "lat": 17.957645, "lng": -96.588343
},{
"label": "Flor Batavia", "lat": 17.987128, "lng": -96.519646
},{
"label": "Linda Vista", "lat": 17.95748, "lng": -96.641431
},{
"label": "Santiago Mayoltianguis", "lat": 17.894568, "lng": -96.562928
},{
"label": "La Escalera", "lat": 17.972625, "lng": -96.562593
},{
"label": "Piedra Colorada", "lat": 17.956048, "lng": -96.597264
},{
"label": "El Zacatal", "lat": 17.921096, "lng": -96.659179
},{
"label": "La Pochota", "lat": 17.948316, "lng": -96.583662
},{
"label": "Loma Santo Tomás", "lat": 18.007564, "lng": -96.510995
},{
"label": "Salto del Agua", "lat": 17.960169, "lng": -96.666781
},{
"label": "Colonia Constitución", "lat": 17.933431, "lng": -96.625154
},{
"label": "Llano Algodón", "lat": 17.936015, "lng": -96.676428
},{
"label": "Arroyo Tambor", "lat": 17.954229, "lng": -96.576602
},{
"label": "Lucrecia de Matamoros", "lat": 17.915393, "lng": -96.653114
},{
"label": "Guadalupe (Barrio Guadalupe)", "lat": 17.964636, "lng": -96.697422
},{
"label": "El Malangar", "lat": 17.958194, "lng": -96.566853
},{
"label": "Río Amarillo", "lat": 17.924961, "lng": -96.660504
},{
"label": "Río Hondo", "lat": 17.931132, "lng": -96.703756
},{
"label": "Ojo de Agua", "lat": 17.928347, "lng": -96.599716
},{
"label": "Arroyo Plata", "lat": 17.994502, "lng": -96.496624
}]