[{
"label": "San Antonio Tutla", "lat": 17.194363, "lng": -95.306202
},{
"label": "Lázaro Cárdenas", "lat": 17.200031, "lng": -95.145091
},{
"label": "Las Mandarinas", "lat": 17.129804, "lng": -95.197853
},{
"label": "Nuevo Centro", "lat": 17.192271, "lng": -95.273183
},{
"label": "Los Raudales", "lat": 17.380516, "lng": -95.236858
},{
"label": "Los Pinos [Rancho]", "lat": 17.227856, "lng": -95.281688
},{
"label": "San Pedro Acatlán Grande", "lat": 17.050147, "lng": -95.520239
},{
"label": "San Juan Mazatlán", "lat": 17.031124, "lng": -95.446467
},{
"label": "San José de las Flores", "lat": 17.350108, "lng": -95.398295
},{
"label": "San Antonio del Valle", "lat": 16.997094, "lng": -95.235084
},{
"label": "La Palestina", "lat": 17.225457, "lng": -95.143598
},{
"label": "La Mixtequita", "lat": 17.204378, "lng": -95.217813
},{
"label": "Rancho Juárez", "lat": 17.079598, "lng": -95.332284
},{
"label": "Tierra Negra", "lat": 17.217326, "lng": -95.441728
},{
"label": "Arroyo Arena", "lat": 17.196081, "lng": -95.334772
},{
"label": "Las Palomas", "lat": 17.227519, "lng": -95.278128
},{
"label": "Rancho San Antonio", "lat": 17.088174, "lng": -95.583878
},{
"label": "El Pedregal", "lat": 17.33562, "lng": -95.257498
},{
"label": "Santiago Tutla", "lat": 17.192274, "lng": -95.374704
},{
"label": "Andrés Guillén Tadeo", "lat": 17.279179, "lng": -95.19677
},{
"label": "Rancho Sansón", "lat": 17.178783, "lng": -95.401137
},{
"label": "Gustavo Díaz Ordaz", "lat": 17.27272, "lng": -95.266538
},{
"label": "Madero", "lat": 17.349074, "lng": -95.228121
},{
"label": "Santa María Villa Hermosa", "lat": 17.142515, "lng": -95.521777
},{
"label": "Los Valles", "lat": 16.937411, "lng": -95.334398
},{
"label": "Constitución Mexicana", "lat": 17.341449, "lng": -95.372819
},{
"label": "La Joya", "lat": 17.338752, "lng": -95.250348
},{
"label": "La Estrella", "lat": 17.194871, "lng": -95.266945
},{
"label": "General Felipe Ángeles", "lat": 17.343313, "lng": -95.318937
},{
"label": "Doce de Julio", "lat": 17.276687, "lng": -95.113774
},{
"label": "Loma Santa Cruz", "lat": 16.989191, "lng": -95.324326
},{
"label": "La Nueva Esperanza", "lat": 17.119387, "lng": -95.574756
},{
"label": "Los Fresnos", "lat": 17.236083, "lng": -95.341074
},{
"label": "La Esperanza", "lat": 17.292665, "lng": -95.105924
},{
"label": "San Pedro Chimaltepec", "lat": 16.996072, "lng": -95.659703
},{
"label": "Tierra Nueva", "lat": 17.192222, "lng": -95.291667
},{
"label": "Monte Águila", "lat": 17.131567, "lng": -95.251884
},{
"label": "La Cañada", "lat": 17.282166, "lng": -95.205836
},{
"label": "El Tortuguero", "lat": 17.328208, "lng": -95.267623
},{
"label": "La Soledad", "lat": 17.216628, "lng": -95.180322
},{
"label": "Los Naranjos [Rancho]", "lat": 17.210813, "lng": -95.336308
},{
"label": "Nuevo Progreso", "lat": 17.344198, "lng": -95.149009
},{
"label": "Islas Verdes", "lat": 17.350411, "lng": -95.28367
},{
"label": "San José de los Reyes el Pípila", "lat": 17.281051, "lng": -95.246741
},{
"label": "Santiago Malacatepec", "lat": 17.016733, "lng": -95.608074
},{
"label": "Villa Nueva", "lat": 17.298845, "lng": -95.300283
},{
"label": "Rancho Nuevo", "lat": 17.231215, "lng": -95.243216
}]