[{
"label": "Barrio del Guapinol", "lat": 17.477784, "lng": -98.267082
},{
"label": "Guadalupe Nogales", "lat": 17.481042, "lng": -98.308402
},{
"label": "San Marcos Natividad", "lat": 17.475479, "lng": -98.293913
},{
"label": "Vicente Reyes Camacho", "lat": 17.482702, "lng": -98.299238
},{
"label": "El Amate", "lat": 17.503604, "lng": -98.264424
},{
"label": "Barrio del Carmen", "lat": 17.448253, "lng": -98.278853
},{
"label": "San Francisco Tlapancingo", "lat": 17.484124, "lng": -98.268909
}]