[{
"label": "El Aserradero", "lat": 16.90302, "lng": -97.310064
},{
"label": "La Muralla", "lat": 16.887321, "lng": -97.298166
},{
"label": "Buena Vista (San Isidro el Potrero)", "lat": 16.940673, "lng": -97.272511
},{
"label": "Río Palma", "lat": 16.911566, "lng": -97.304999
},{
"label": "Unión y Progreso", "lat": 16.766599, "lng": -97.479168
},{
"label": "San Sebastián Yutanino", "lat": 16.789934, "lng": -97.460872
},{
"label": "Las Juntas (San Isidro el Potrero)", "lat": 16.913986, "lng": -97.282536
},{
"label": "Agua Tierna", "lat": 16.902088, "lng": -97.305171
},{
"label": "El Boquerón", "lat": 16.908252, "lng": -97.336933
},{
"label": "San Isidro el Potrero", "lat": 16.923407, "lng": -97.274111
},{
"label": "Río Ocote", "lat": 16.907304, "lng": -97.376094
},{
"label": "San Francisco Cahuacuá", "lat": 16.893563, "lng": -97.305594
},{
"label": "El Cucharal", "lat": 16.926235, "lng": -97.413325
},{
"label": "El Frijol de Yutanino", "lat": 16.715383, "lng": -97.445036
},{
"label": "Morelos", "lat": 16.923154, "lng": -97.322823
},{
"label": "El Ahijadero", "lat": 16.835802, "lng": -97.343153
},{
"label": "El Alazán", "lat": 16.853087, "lng": -97.302999
},{
"label": "El Garabatal", "lat": 16.835758, "lng": -97.362792
},{
"label": "Induasavi", "lat": 16.775276, "lng": -97.502984
},{
"label": "Ocote", "lat": 16.897179, "lng": -97.345616
},{
"label": "Yucuatoto (San Isidro el Potrero)", "lat": 16.920052, "lng": -97.259892
},{
"label": "El Aguacate", "lat": 16.829447, "lng": -97.336664
},{
"label": "Llano Ratón", "lat": 16.801662, "lng": -97.437403
},{
"label": "El Aguacatal", "lat": 16.936946, "lng": -97.327006
},{
"label": "El Duraznal", "lat": 16.875674, "lng": -97.284894
},{
"label": "Llano de Agua", "lat": 16.927735, "lng": -97.369749
},{
"label": "Paraje la Calavera (Llano la Calavera)", "lat": 16.944397, "lng": -97.33554
},{
"label": "Ojo de Agua", "lat": 16.930301, "lng": -97.340729
},{
"label": "Loma Tigre", "lat": 16.929197, "lng": -97.394571
},{
"label": "La Ciénega", "lat": 16.912796, "lng": -97.290911
},{
"label": "El Limón", "lat": 16.870949, "lng": -97.358864
}]