[{
"label": "Río Jordán", "lat": 16.901359, "lng": -96.506602
},{
"label": "San Bartolomé Quialana", "lat": 16.901888, "lng": -96.501206
},{
"label": "Paraje Rugeolach", "lat": 16.902674, "lng": -96.497885
},{
"label": "Buena Vista", "lat": 16.892595, "lng": -96.500846
},{
"label": "Bonifacio Martínez Sánchez", "lat": 16.906511, "lng": -96.493351
}]