[{
"label": "San Sebastián Río Hondo", "lat": 16.182831, "lng": -96.464061
},{
"label": "Ampliación San Sebastián", "lat": 16.186348, "lng": -96.483591
},{
"label": "Cieneguilla", "lat": 16.181147, "lng": -96.387176
},{
"label": "El Jefe", "lat": 16.221905, "lng": -96.430195
},{
"label": "Pueblo Viejo", "lat": 16.174079, "lng": -96.434873
},{
"label": "Las Palmas", "lat": 16.188833, "lng": -96.453264
},{
"label": "Río Molino", "lat": 16.206952, "lng": -96.470273
},{
"label": "La Fábrica", "lat": 16.197244, "lng": -96.423194
},{
"label": "San Felipe Cieneguilla", "lat": 16.204038, "lng": -96.413767
},{
"label": "Río San José", "lat": 16.163099, "lng": -96.400899
},{
"label": "Tres Ocotes", "lat": 16.196975, "lng": -96.441108
},{
"label": "Piedra Negra", "lat": 16.195681, "lng": -96.482387
},{
"label": "El Portillo", "lat": 16.189763, "lng": -96.459901
},{
"label": "San Bernardo", "lat": 16.177953, "lng": -96.427485
}]