[{
"label": "San Juan", "lat": 17.372042, "lng": -96.736486
},{
"label": "Lachiblari", "lat": 17.404787, "lng": -96.688964
},{
"label": "San Miguel Aloápam", "lat": 17.412913, "lng": -96.691465
},{
"label": "San Isidro Aloápam", "lat": 17.433929, "lng": -96.656906
},{
"label": "Aloápam", "lat": 17.410809, "lng": -96.694996
},{
"label": "El Sombrerote", "lat": 17.380337, "lng": -96.754605
}]