[{
"label": "Frente al Tecnológico", "lat": 16.360014, "lng": -98.247704
},{
"label": "Marcos Leonel Peña Guzmán", "lat": 16.349788, "lng": -98.239344
},{
"label": "San José Estancia Grande", "lat": 16.365203, "lng": -98.251286
},{
"label": "El Mirador", "lat": 16.367405, "lng": -98.248066
},{
"label": "La Habra", "lat": 16.342054, "lng": -98.24215
},{
"label": "Alto el Pozo", "lat": 16.394898, "lng": -98.277841
},{
"label": "La Esperanza", "lat": 16.386513, "lng": -98.270521
}]