[{
"label": "Rancho Luis Solórzano", "lat": 16.481852, "lng": -95.148689
},{
"label": "Rancho Matías Solórzano", "lat": 16.47821, "lng": -95.145319
},{
"label": "Rancho San Martín", "lat": 16.461949, "lng": -95.143134
},{
"label": "Rancho Crisóforo Hernández", "lat": 16.458314, "lng": -95.148559
},{
"label": "San Pedro Comitancillo", "lat": 16.490304, "lng": -95.159878
},{
"label": "Rancho Reyes", "lat": 16.482765, "lng": -95.131943
}]