[{
"label": "Pie de la Cuesta", "lat": 16.620833, "lng": -98.126389
},{
"label": "San Francisco Sayultepec", "lat": 16.596088, "lng": -98.130105
},{
"label": "El Platanar", "lat": 16.624316, "lng": -98.170433
},{
"label": "San Antonio Ocotlán", "lat": 16.647919, "lng": -98.165365
},{
"label": "Colonia 6 de Enero", "lat": 16.62286, "lng": -98.143633
},{
"label": "Barrio del Carmen", "lat": 16.616812, "lng": -98.146742
},{
"label": "Agua Zarca", "lat": 16.590385, "lng": -98.183766
},{
"label": "Cuarta Sección (Barrio del Hospital)", "lat": 16.615303, "lng": -98.162129
},{
"label": "Rancho de la Casa Peña", "lat": 16.622382, "lng": -98.151463
},{
"label": "Chicapilla", "lat": 16.564879, "lng": -98.164468
},{
"label": "Ocotlán", "lat": 16.64599, "lng": -98.204122
},{
"label": "El Pájaro", "lat": 16.598586, "lng": -98.173933
},{
"label": "La Culebra", "lat": 16.556384, "lng": -98.189704
},{
"label": "Alto de las Mesas", "lat": 16.578441, "lng": -98.162805
},{
"label": "La Hormiga", "lat": 16.672497, "lng": -98.158847
},{
"label": "Buenavista", "lat": 16.63608, "lng": -98.192066
},{
"label": "Charco el Gallo (Hornos de Cal)", "lat": 16.71395, "lng": -98.173624
},{
"label": "Barrio de la Cruz", "lat": 16.604321, "lng": -98.159851
},{
"label": "San Juan Cacahuatepec", "lat": 16.613734, "lng": -98.156092
},{
"label": "El Ciruelo", "lat": 16.586198, "lng": -98.199307
},{
"label": "El Camalote", "lat": 16.71229, "lng": -98.140399
},{
"label": "La Cruz (Leodegario Cruz)", "lat": 16.599123, "lng": -98.144255
}]