[{
"label": "El Rincón", "lat": 15.837903, "lng": -96.281905
},{
"label": "Barrio Corralito", "lat": 15.821408, "lng": -96.311826
},{
"label": "Bajos de Coyula", "lat": 15.704797, "lng": -96.306058
},{
"label": "Barrio de la Soledad", "lat": 15.839729, "lng": -96.323237
},{
"label": "San Andrés", "lat": 15.902054, "lng": -96.246339
},{
"label": "Guarumbo", "lat": 15.825451, "lng": -96.325798
},{
"label": "Las Cadenas", "lat": 15.784443, "lng": -96.165959
},{
"label": "Aguaje el Zapote", "lat": 15.765788, "lng": -96.260426
},{
"label": "Puente de Xúchilt", "lat": 15.789958, "lng": -96.208628
},{
"label": "La Aurora", "lat": 15.798218, "lng": -96.246553
},{
"label": "Río Tangolunda (La Jabalina)", "lat": 15.797864, "lng": -96.114117
},{
"label": "Las Pozas (San Antonio las Pozas)", "lat": 15.821412, "lng": -96.257208
},{
"label": "El Faisán [Fraccionamiento]", "lat": 15.788213, "lng": -96.191126
},{
"label": "El Yoche", "lat": 15.786446, "lng": -96.256147
},{
"label": "Puente Todos Santos", "lat": 15.786155, "lng": -96.288354
},{
"label": "El Faisán Alto (El Faisán II)", "lat": 15.813635, "lng": -96.187287
},{
"label": "El Nueve", "lat": 15.932735, "lng": -96.285556
},{
"label": "El Cocús (Tres Cruces)", "lat": 15.757279, "lng": -96.277034
},{
"label": "Arroyo Limón", "lat": 15.819719, "lng": -96.281876
},{
"label": "Todos Santos", "lat": 15.820417, "lng": -96.267423
},{
"label": "Puente Copalita", "lat": 15.817175, "lng": -96.067194
},{
"label": "Copalita [Parque Eco-Arqueológico]", "lat": 15.79261, "lng": -96.054414
},{
"label": "El Hule", "lat": 15.835468, "lng": -96.185252
},{
"label": "Residencial Conejos", "lat": 15.768974, "lng": -96.076011
},{
"label": "Llano Ciruelo", "lat": 15.798676, "lng": -96.303785
},{
"label": "Bahía Cacaluta (Playa del Rey)", "lat": 15.735218, "lng": -96.169107
},{
"label": "El Zapote (La Chuparrosa)", "lat": 15.837638, "lng": -96.189639
},{
"label": "Laguna Macuil (Granadillo)", "lat": 15.790299, "lng": -96.292766
},{
"label": "Puente de Coyula", "lat": 15.750538, "lng": -96.298566
},{
"label": "Macahuitillo", "lat": 15.782217, "lng": -96.284548
},{
"label": "Cerro Chino", "lat": 15.853664, "lng": -96.241912
},{
"label": "La Entrega", "lat": 15.742978, "lng": -96.129137
},{
"label": "Arroyo Chahué", "lat": 15.788699, "lng": -96.144276
},{
"label": "Sector H Tres", "lat": 15.766676, "lng": -96.145306
},{
"label": "San Agustín", "lat": 15.685115, "lng": -96.239227
},{
"label": "Balcones de Tangolunda", "lat": 15.771138, "lng": -96.081724
},{
"label": "La Mina [Barrio]", "lat": 15.844304, "lng": -96.320669
},{
"label": "Arroyo González", "lat": 15.785413, "lng": -96.222117
},{
"label": "Monte Cristo", "lat": 15.933813, "lng": -96.259984
},{
"label": "El Crucero de Huatulco", "lat": 15.763508, "lng": -96.272875
},{
"label": "Tangolunda", "lat": 15.774763, "lng": -96.097364
},{
"label": "Huatunalco (Barra de Huatunalco)", "lat": 15.692865, "lng": -96.329717
},{
"label": "Derramadero", "lat": 15.714639, "lng": -96.310168
},{
"label": "El Morro", "lat": 15.819656, "lng": -96.322596
},{
"label": "La Ceiba", "lat": 15.851935, "lng": -96.111476
},{
"label": "Pueblo Viejo", "lat": 15.822279, "lng": -96.227694
},{
"label": "Bahías de Huatulco [Aeropuerto Internacional]", "lat": 15.772011, "lng": -96.258843
},{
"label": "Hacienda Vieja", "lat": 15.827939, "lng": -96.291688
},{
"label": "Paso Limón", "lat": 15.836499, "lng": -96.349116
},{
"label": "Santa Clara", "lat": 15.911371, "lng": -96.244006
},{
"label": "Las Palmas", "lat": 15.817105, "lng": -96.176965
},{
"label": "San Agustín [Fraccionamiento Residencial]", "lat": 15.762356, "lng": -96.275
},{
"label": "Bahía de Santa Cruz Huatulco", "lat": 15.7543, "lng": -96.132459
},{
"label": "Bajos del Arenal", "lat": 15.728221, "lng": -96.251899
},{
"label": "Sector U-Dos Norte", "lat": 15.787722, "lng": -96.142278
},{
"label": "Puente de Cuajinicuil", "lat": 15.775106, "lng": -96.233169
},{
"label": "Juquilita", "lat": 15.95024, "lng": -96.254765
},{
"label": "Chacalmata", "lat": 15.852773, "lng": -96.309469
},{
"label": "Manantial", "lat": 15.858683, "lng": -96.312778
},{
"label": "Xúchil el Alto", "lat": 15.859651, "lng": -96.230138
},{
"label": "El Arrocito", "lat": 15.762846, "lng": -96.100085
},{
"label": "La Guerrilla (La Casa Mixteca)", "lat": 15.778869, "lng": -96.063599
},{
"label": "El Crucero [Fraccionamiento]", "lat": 15.761926, "lng": -96.277697
},{
"label": "El Tamarindo", "lat": 15.836276, "lng": -96.324673
},{
"label": "Colonia Vicente Guerrero", "lat": 15.789755, "lng": -96.154508
},{
"label": "Piedra de Moros", "lat": 15.799138, "lng": -96.230991
},{
"label": "Arroyo el Almacén", "lat": 15.786207, "lng": -96.169081
},{
"label": "Agua Hedionda", "lat": 15.857111, "lng": -96.27625
},{
"label": "El Apanguito", "lat": 15.868813, "lng": -96.365173
},{
"label": "Cacaluta [Colonia]", "lat": 15.783246, "lng": -96.175403
},{
"label": "Santa María Huatulco", "lat": 15.836111, "lng": -96.322093
},{
"label": "Los Olivos", "lat": 15.78759, "lng": -96.164039
},{
"label": "Secrets Huatulco Resort & Spa", "lat": 15.78269, "lng": -96.065526
},{
"label": "San Pablo Huatulco", "lat": 15.922395, "lng": -96.262169
},{
"label": "Cuapinolito (Azulillo)", "lat": 15.820389, "lng": -96.31825
},{
"label": "La Bocana de Copalita", "lat": 15.787298, "lng": -96.055708
},{
"label": "El Parajito", "lat": 15.793126, "lng": -96.136515
},{
"label": "El Zarzal", "lat": 15.712373, "lng": -96.292916
},{
"label": "La Erradura", "lat": 15.835861, "lng": -96.335935
},{
"label": "Boca Vieja (Barra Boca Vieja)", "lat": 15.692783, "lng": -96.309655
},{
"label": "Alemania", "lat": 15.948489, "lng": -96.244666
},{
"label": "Arroyo Súchil", "lat": 15.844068, "lng": -96.222425
},{
"label": "Crucecita", "lat": 15.764759, "lng": -96.135075
},{
"label": "UMAR", "lat": 15.779317, "lng": -96.160209
},{
"label": "San Francisco Limoncito", "lat": 15.827153, "lng": -96.240003
},{
"label": "Cuajinicuil", "lat": 15.861125, "lng": -96.262826
},{
"label": "La Unión", "lat": 15.744192, "lng": -96.292999
},{
"label": "Miramar", "lat": 15.907999, "lng": -96.264426
},{
"label": "Laguna Seca [Rancho]", "lat": 15.79412, "lng": -96.128662
},{
"label": "Sector U-Dos Sur", "lat": 15.779289, "lng": -96.1416
},{
"label": "Playa Maguey", "lat": 15.733762, "lng": -96.151454
},{
"label": "El Arenoso (San Juan Diego Arenoso)", "lat": 15.79129, "lng": -96.157844
}]