[{
"label": "El Sabino", "lat": 16.579348, "lng": -97.015441
},{
"label": "Texcoco", "lat": 16.571497, "lng": -97.033704
},{
"label": "Santa María Sola", "lat": 16.566713, "lng": -97.013188
},{
"label": "Tierra Blanca", "lat": 16.562086, "lng": -97.049985
},{
"label": "Rancho Viejo", "lat": 16.553374, "lng": -97.046602
},{
"label": "Santa Rosa Matagallinas", "lat": 16.588603, "lng": -97.019793
},{
"label": "Colón", "lat": 16.564013, "lng": -97.029192
},{
"label": "La Rosa", "lat": 16.611425, "lng": -97.043665
}]