[{
"label": "Lázaro Cárdenas", "lat": 16.903271, "lng": -97.585081
},{
"label": "La Cuchara", "lat": 16.826809, "lng": -97.480362
},{
"label": "Yavisa", "lat": 16.801799, "lng": -97.566598
},{
"label": "Yolotepec de la Paz", "lat": 16.87172, "lng": -97.501198
},{
"label": "Chacua", "lat": 16.795094, "lng": -97.562204
},{
"label": "Yuniñe", "lat": 16.783261, "lng": -97.583952
},{
"label": "Cuajilotes", "lat": 16.743965, "lng": -97.55897
},{
"label": "Yucujillo", "lat": 16.885009, "lng": -97.585378
},{
"label": "Plumas", "lat": 16.839146, "lng": -97.605759
},{
"label": "Alacrán", "lat": 16.923141, "lng": -97.555524
},{
"label": "Yaviñuu", "lat": 16.850587, "lng": -97.463781
},{
"label": "Buenavista", "lat": 16.851656, "lng": -97.524724
},{
"label": "Yucumagñu", "lat": 16.870643, "lng": -97.600498
},{
"label": "Guanacastle", "lat": 16.764624, "lng": -97.552893
},{
"label": "Atalaya", "lat": 16.955985, "lng": -97.564076
},{
"label": "Cabandihui", "lat": 16.833121, "lng": -97.585797
},{
"label": "Primavera", "lat": 16.887178, "lng": -97.611918
},{
"label": "La Joya", "lat": 16.842277, "lng": -97.457167
},{
"label": "San Miguel Ixcatlán", "lat": 16.895906, "lng": -97.503576
},{
"label": "Xatachiso", "lat": 16.809665, "lng": -97.560787
},{
"label": "Rancho Alegre", "lat": 16.897, "lng": -97.495326
},{
"label": "Santiago Yosondúa", "lat": 16.873377, "lng": -97.576609
},{
"label": "Jatanúhu (Adolfo López Mateos)", "lat": 16.898036, "lng": -97.602071
},{
"label": "Chandilly", "lat": 16.867455, "lng": -97.488122
},{
"label": "Yuku Yaa", "lat": 16.893866, "lng": -97.536628
},{
"label": "La Cumbre", "lat": 16.830264, "lng": -97.408683
},{
"label": "Yuku Yuu", "lat": 16.784455, "lng": -97.567384
},{
"label": "Yuchicha", "lat": 16.934636, "lng": -97.579632
},{
"label": "Sector Cuatro", "lat": 16.876059, "lng": -97.573171
},{
"label": "Nduasicui", "lat": 16.809295, "lng": -97.568385
},{
"label": "Yerba Santa", "lat": 16.815596, "lng": -97.592045
},{
"label": "Vergel", "lat": 16.819697, "lng": -97.564591
},{
"label": "La Cascada", "lat": 16.866774, "lng": -97.581041
},{
"label": "El Espinal", "lat": 16.892124, "lng": -97.626248
},{
"label": "El Sabino", "lat": 16.90098, "lng": -97.567165
},{
"label": "Cabecera de Cañada", "lat": 16.864432, "lng": -97.543767
},{
"label": "Chikava", "lat": 16.814383, "lng": -97.526814
},{
"label": "Las Trojas", "lat": 16.895823, "lng": -97.618171
},{
"label": "Sector Dos", "lat": 16.867303, "lng": -97.578216
},{
"label": "El Chasqueño", "lat": 16.792545, "lng": -97.572036
},{
"label": "Santa Catarina Cuanana", "lat": 16.814002, "lng": -97.470634
},{
"label": "Cañada de Galicia", "lat": 16.826553, "lng": -97.53954
},{
"label": "Imperio", "lat": 16.916563, "lng": -97.597397
}]