[{
"label": "Tierra Azul", "lat": 16.996011, "lng": -97.756041
},{
"label": "Yucaba", "lat": 17.035897, "lng": -97.749905
},{
"label": "Plan de Zaragoza", "lat": 16.966881, "lng": -97.74703
},{
"label": "Unión y Progreso", "lat": 16.999809, "lng": -97.748772
},{
"label": "Satullujia", "lat": 17.001208, "lng": -97.747044
},{
"label": "Gitoyuba", "lat": 16.978087, "lng": -97.749593
},{
"label": "Santiago Nuyoó", "lat": 17.015173, "lng": -97.766539
},{
"label": "Caballaa", "lat": 16.983833, "lng": -97.733718
},{
"label": "Toshieca", "lat": 16.999988, "lng": -97.751798
},{
"label": "Siktkava (Arriba de la Peña)", "lat": 17.019426, "lng": -97.764886
},{
"label": "Yucubey de Cuitláhuac", "lat": 17.038846, "lng": -97.738986
},{
"label": "Loma Bonita de Juárez", "lat": 17.013379, "lng": -97.75068
},{
"label": "Majara", "lat": 17.004444, "lng": -97.735623
},{
"label": "Shinizo", "lat": 17.050987, "lng": -97.751861
},{
"label": "Teshilla", "lat": 17.011036, "lng": -97.757434
},{
"label": "Yucunino de Guerrero", "lat": 17.044556, "lng": -97.757589
}]