[{
"label": "Paraje Vivero", "lat": 17.365827, "lng": -96.513254
},{
"label": "Santa María Jaltianguis", "lat": 17.365613, "lng": -96.528271
},{
"label": "Barrio San José", "lat": 17.365364, "lng": -96.526263
},{
"label": "Betzitiaá", "lat": 17.361082, "lng": -96.516879
},{
"label": "La Cumbre (El Campamento)", "lat": 17.347477, "lng": -96.530992
},{
"label": "Shia Yaa Bec Cuú", "lat": 17.370008, "lng": -96.513554
}]