[{
"label": "Jazmín Morelos", "lat": 17.661477, "lng": -97.153522
},{
"label": "Yodorancho (Tierra Caliente)", "lat": 17.677754, "lng": -97.122819
},{
"label": "San Antonio Nduayaco", "lat": 17.685563, "lng": -97.147542
},{
"label": "Tierra Colorada", "lat": 17.614005, "lng": -97.14225
},{
"label": "N' Di Cawa", "lat": 17.647193, "lng": -97.147089
},{
"label": "Santiago Apoala", "lat": 17.648603, "lng": -97.136945
},{
"label": "Unión Palo Solo", "lat": 17.704491, "lng": -97.133535
},{
"label": "Unión Buena Vista (Yodocanit o Yodocani)", "lat": 17.631378, "lng": -97.133143
}]