[{
"label": "Guadalupe Yosoyúa", "lat": 17.119133, "lng": -97.495975
},{
"label": "Río Grande", "lat": 17.129753, "lng": -97.517594
},{
"label": "Yucha-Baa", "lat": 17.113474, "lng": -97.5139
},{
"label": "Santa María Yosoyúa", "lat": 17.120186, "lng": -97.514792
},{
"label": "Buenavista", "lat": 17.104912, "lng": -97.498362
},{
"label": "Santa Cruz", "lat": 17.095657, "lng": -97.496734
}]