[{
"label": "Colonia Zapata", "lat": 17.157107, "lng": -96.268364
},{
"label": "Lachicuel", "lat": 17.144804, "lng": -96.246829
},{
"label": "Santo Domingo Xagacía", "lat": 17.155543, "lng": -96.267961
},{
"label": "Llano de Mulas", "lat": 17.150163, "lng": -96.250681
},{
"label": "Río Xagacía", "lat": 17.157401, "lng": -96.247286
},{
"label": "Lashe Huashine", "lat": 17.153706, "lng": -96.273219
}]