[{
"label": "Santiago Jocotepec", "lat": 17.53568, "lng": -95.944416
},{
"label": "San Alfredo", "lat": 17.670073, "lng": -95.885491
},{
"label": "Cerro Cotorra", "lat": 17.694711, "lng": -96.097121
},{
"label": "Plan Mata de Caña", "lat": 17.761908, "lng": -96.075348
},{
"label": "Soledad Vista Hermosa", "lat": 17.694039, "lng": -95.952108
},{
"label": "Escárcega", "lat": 17.667132, "lng": -96.108947
},{
"label": "Isleta o Bayley", "lat": 17.719797, "lng": -95.903105
},{
"label": "San Antonio las Palmas", "lat": 17.673694, "lng": -96.091733
},{
"label": "Rancho Palmar", "lat": 17.729704, "lng": -96.106652
},{
"label": "La Alicia", "lat": 17.65167, "lng": -96.012668
},{
"label": "Las Palmas", "lat": 17.76208, "lng": -95.899258
},{
"label": "Rancho Santa Elena", "lat": 17.61694, "lng": -95.899081
},{
"label": "Monte Negro", "lat": 17.588373, "lng": -95.873692
},{
"label": "El Ojo de Agua", "lat": 17.649942, "lng": -95.987609
},{
"label": "El Número Cuatro", "lat": 17.607466, "lng": -95.921426
},{
"label": "Los Dolores", "lat": 17.642146, "lng": -95.988071
},{
"label": "Linda Vista", "lat": 17.631382, "lng": -96.016057
},{
"label": "San José Río Manso (Nuevo Río Manso)", "lat": 17.704235, "lng": -95.900147
},{
"label": "San Vicente Arroyo Jabalí", "lat": 17.659734, "lng": -96.029259
},{
"label": "San Pedro Tepinapa Comunal", "lat": 17.602019, "lng": -96.016663
},{
"label": "San Juan Carrizo", "lat": 17.684687, "lng": -95.950661
},{
"label": "Piedra de Parroquín", "lat": 17.805157, "lng": -95.988252
},{
"label": "Arroyo Tinta", "lat": 17.671478, "lng": -96.105648
},{
"label": "La Esperanza", "lat": 17.670439, "lng": -95.887206
},{
"label": "Cerro Caliente", "lat": 17.611449, "lng": -95.925888
},{
"label": "La Isla", "lat": 17.771358, "lng": -95.908566
},{
"label": "Plan Martín Chino", "lat": 17.786376, "lng": -96.007726
},{
"label": "Río Chiquito", "lat": 17.618856, "lng": -95.936444
},{
"label": "Plan de San Luis", "lat": 17.787374, "lng": -95.940474
},{
"label": "Arroyo Bobo", "lat": 17.567577, "lng": -95.919801
},{
"label": "Paso de San Jacobo", "lat": 17.650158, "lng": -95.885185
},{
"label": "El Porvenir", "lat": 17.575284, "lng": -95.951138
},{
"label": "San Pedro Tepinapa", "lat": 17.57301, "lng": -96.008201
},{
"label": "San Miguel Ecatepec", "lat": 17.720955, "lng": -95.968479
},{
"label": "Estela", "lat": 17.680697, "lng": -95.894076
},{
"label": "Vuelta Baja", "lat": 17.723478, "lng": -95.876213
},{
"label": "San Miguel Lachixola", "lat": 17.513016, "lng": -95.920561
},{
"label": "Playa Limón", "lat": 17.77695, "lng": -96.037088
},{
"label": "Luis Echeverría", "lat": 17.634422, "lng": -95.917998
}]