[{
"label": "Yutanicani", "lat": 16.271073, "lng": -97.984408
},{
"label": "Barrio Ñucahua", "lat": 16.306944, "lng": -97.91
},{
"label": "La Cobranza", "lat": 16.205, "lng": -97.921431
},{
"label": "Familia Cortés", "lat": 16.257028, "lng": -97.972667
},{
"label": "El Sufrimiento [Rancho]", "lat": 16.219483, "lng": -97.93038
},{
"label": "Las Pintas (El Tejal)", "lat": 16.15493, "lng": -97.915068
},{
"label": "El Potrero", "lat": 16.096943, "lng": -97.92254
},{
"label": "Narvayo", "lat": 16.252472, "lng": -97.967722
},{
"label": "Santa María Huazolotitlán", "lat": 16.302222, "lng": -97.912861
},{
"label": "José María Morelos", "lat": 16.20395, "lng": -97.929763
},{
"label": "Paso del Jiote", "lat": 16.215285, "lng": -97.959328
},{
"label": "Santa María Chicometepec", "lat": 16.175023, "lng": -97.966956
},{
"label": "Los Peregrinos", "lat": 16.263839, "lng": -97.978253
},{
"label": "Barrio Chico", "lat": 16.303269, "lng": -97.918678
},{
"label": "Cerro Blanco", "lat": 16.228009, "lng": -97.944071
},{
"label": "El Ojaral", "lat": 16.242588, "lng": -97.925221
},{
"label": "Cerro el Chivo", "lat": 16.220759, "lng": -97.92054
},{
"label": "El Tico", "lat": 16.150864, "lng": -97.93276
},{
"label": "El Zapotillo", "lat": 16.302276, "lng": -97.90674
}]