[{
"label": "Guadalupe", "lat": 16.819413, "lng": -97.890991
},{
"label": "Guadalupe Nuevo Centro", "lat": 16.796402, "lng": -97.901896
},{
"label": "El Cangrejo", "lat": 16.853055, "lng": -98.00814
},{
"label": "Tres Arroyos", "lat": 16.793503, "lng": -97.990228
},{
"label": "San Juan Viejo", "lat": 16.812301, "lng": -98.017408
},{
"label": "Aquiles Serdán", "lat": 16.844739, "lng": -97.988436
},{
"label": "Rancho San Pedro", "lat": 16.783647, "lng": -97.983874
},{
"label": "El Rosario", "lat": 16.861875, "lng": -97.978682
},{
"label": "Santa Cecilia [Barrio]", "lat": 16.769153, "lng": -97.983042
},{
"label": "Las Juntas", "lat": 16.777446, "lng": -98.032469
},{
"label": "Las Palmas", "lat": 16.789009, "lng": -98.036394
},{
"label": "Llano Chapultepec", "lat": 16.731127, "lng": -98.026085
},{
"label": "Coyul Grande", "lat": 16.728626, "lng": -97.920648
},{
"label": "San Miguel", "lat": 16.725377, "lng": -98.004131
},{
"label": "San Marcos Nejapa", "lat": 16.714884, "lng": -98.007043
},{
"label": "Los Manguitos", "lat": 16.761776, "lng": -98.027414
},{
"label": "Tierra Colorada", "lat": 16.827287, "lng": -97.99991
},{
"label": "El Coyulito", "lat": 16.812986, "lng": -97.947817
},{
"label": "Santa Cruz de Rufino Tamayo", "lat": 16.70911, "lng": -98.008982
},{
"label": "San Felipe Atotonilco", "lat": 16.757472, "lng": -98.056348
},{
"label": "Atotonilco", "lat": 16.759444, "lng": -98.043548
},{
"label": "Loma del Carnero", "lat": 16.840431, "lng": -97.994962
},{
"label": "San Antonio Zaragoza", "lat": 16.808228, "lng": -98.036727
},{
"label": "El Naranjo", "lat": 16.687309, "lng": -97.982391
},{
"label": "San Juan Cabeza del Río", "lat": 16.755643, "lng": -97.883105
},{
"label": "San Vicente Piñas", "lat": 16.785431, "lng": -98.059834
},{
"label": "Limón Santa Ana [Barrio]", "lat": 16.774251, "lng": -97.987178
},{
"label": "La Culebra", "lat": 16.859776, "lng": -98.058818
},{
"label": "San Isidro Amatitlán", "lat": 16.856407, "lng": -98.022928
},{
"label": "Santa Cruz Tutiahua", "lat": 16.768086, "lng": -97.911062
},{
"label": "La Virgen", "lat": 16.802047, "lng": -98.006301
},{
"label": "Santa María Zacatepec", "lat": 16.763894, "lng": -97.989878
},{
"label": "Llano de la Viuda", "lat": 16.755032, "lng": -98.005977
},{
"label": "El Tapanco", "lat": 16.816744, "lng": -97.998548
},{
"label": "Santiago Llano Grande", "lat": 16.675527, "lng": -97.936188
},{
"label": "El Cuete", "lat": 16.783768, "lng": -98.002448
}]