[{
"label": "Santos Reyes Tepejillo", "lat": 17.437756, "lng": -97.938323
},{
"label": "Río Alto", "lat": 17.438791, "lng": -97.922643
},{
"label": "Familia Orozco", "lat": 17.427704, "lng": -97.937368
},{
"label": "Los López [Rancho]", "lat": 17.431541, "lng": -97.934769
},{
"label": "Corral de Piedra", "lat": 17.451012, "lng": -97.943615
},{
"label": "Chapultepec", "lat": 17.444446, "lng": -97.940128
},{
"label": "Buenavista [Rancho]", "lat": 17.431973, "lng": -97.938352
},{
"label": "Prisciliano", "lat": 17.452504, "lng": -97.918319
},{
"label": "Río del Puente", "lat": 17.458786, "lng": -97.919785
},{
"label": "Rancho Domingo Cruz", "lat": 17.418763, "lng": -97.92249
},{
"label": "Campo de Aviación", "lat": 17.427393, "lng": -97.933109
},{
"label": "Sión", "lat": 17.454729, "lng": -97.930669
},{
"label": "Guadalupe Tepejillo", "lat": 17.429148, "lng": -97.973243
},{
"label": "Rancho Yojosiyoo", "lat": 17.445561, "lng": -97.923576
},{
"label": "San Miguel de Cárdenas", "lat": 17.429654, "lng": -97.946414
},{
"label": "Escondido [Rancho]", "lat": 17.429749, "lng": -97.940115
}]