[{
"label": "Santiago Chazumba", "lat": 18.188768, "lng": -97.68054
},{
"label": "Sanchico", "lat": 18.210943, "lng": -97.718095
},{
"label": "Escalerillas", "lat": 18.238409, "lng": -97.726731
},{
"label": "San Sebastián (Agua de San Sebastián)", "lat": 18.267588, "lng": -97.681417
},{
"label": "La Cucharilla", "lat": 18.209745, "lng": -97.639979
},{
"label": "El Higo [Nueva Sociedad Agrícola]", "lat": 18.186281, "lng": -97.688176
},{
"label": "Sociedad Gutiérrez (Sociedad Agrícola)", "lat": 18.186101, "lng": -97.698022
},{
"label": "Rancho Arco", "lat": 18.07046, "lng": -97.624741
},{
"label": "Buenavista", "lat": 18.236391, "lng": -97.712862
},{
"label": "San José Chichihualtepec", "lat": 18.188114, "lng": -97.810287
},{
"label": "Santo Domingo Tianguistengo", "lat": 18.28082, "lng": -97.796222
},{
"label": "Acaquizápam", "lat": 18.144139, "lng": -97.732667
},{
"label": "Colmenillo", "lat": 18.255205, "lng": -97.675109
},{
"label": "San Sebastián de la Frontera", "lat": 18.251455, "lng": -97.654192
},{
"label": "Maninaltepec", "lat": 18.0687, "lng": -97.644122
},{
"label": "San Isidro [Barrio]", "lat": 18.173023, "lng": -97.691648
},{
"label": "Paredones", "lat": 18.221741, "lng": -97.732283
},{
"label": "Lunatitlán del Progreso", "lat": 18.180974, "lng": -97.739251
},{
"label": "Barrio Santa Lucía", "lat": 18.205332, "lng": -97.684971
},{
"label": "Río Limón (San Isidro Río Limón)", "lat": 18.242684, "lng": -97.802079
},{
"label": "San Juan Frontera", "lat": 18.214242, "lng": -97.838125
},{
"label": "Paraíso", "lat": 18.149831, "lng": -97.681248
},{
"label": "El Chimalayo", "lat": 18.214561, "lng": -97.735529
},{
"label": "Barrio Tanchii", "lat": 18.213069, "lng": -97.692619
},{
"label": "Pastores", "lat": 18.162566, "lng": -97.682891
},{
"label": "Trinidad Huaxtepec", "lat": 18.156397, "lng": -97.706015
},{
"label": "Los Pirules", "lat": 18.195437, "lng": -97.65852
},{
"label": "La Virgen", "lat": 18.261503, "lng": -97.686202
},{
"label": "Olleras de Bustamante", "lat": 18.219333, "lng": -97.710919
},{
"label": "Los Salas", "lat": 18.218201, "lng": -97.666853
},{
"label": "El Higo", "lat": 18.198618, "lng": -97.718197
},{
"label": "San Juan Nochixtlán", "lat": 18.106533, "lng": -97.649441
}]