[{
"label": "Unión y Suspiro", "lat": 17.011338, "lng": -97.814313
},{
"label": "Kabakuiji", "lat": 17.049341, "lng": -97.776414
},{
"label": "Agua Colorada", "lat": 16.997539, "lng": -97.804979
},{
"label": "El Mirador", "lat": 17.031958, "lng": -97.793325
},{
"label": "Yukuiyo", "lat": 17.083522, "lng": -97.799381
},{
"label": "La Primavera", "lat": 17.003063, "lng": -97.809767
},{
"label": "Abajo de Alazán", "lat": 17.052574, "lng": -97.817306
},{
"label": "Yatayuku", "lat": 17.069148, "lng": -97.815777
},{
"label": "Chapultepec Zaragoza", "lat": 16.975161, "lng": -97.814541
},{
"label": "Yuteyubi", "lat": 17.04891, "lng": -97.786029
},{
"label": "La Y", "lat": 16.98583, "lng": -97.801933
},{
"label": "Las Trancas", "lat": 17.038577, "lng": -97.837191
},{
"label": "Zaragoza", "lat": 16.989123, "lng": -97.791498
},{
"label": "Escalería I", "lat": 17.023223, "lng": -97.788939
},{
"label": "Llano San Miguel", "lat": 17.026973, "lng": -97.802242
},{
"label": "Yosonicaje", "lat": 17.069812, "lng": -97.78801
},{
"label": "Reyes Llano Grande", "lat": 17.018003, "lng": -97.803889
},{
"label": "Ojo de Agua", "lat": 17.010768, "lng": -97.801169
},{
"label": "Mal Paso", "lat": 17.01167, "lng": -97.79735
},{
"label": "Guadalupe Buenavista", "lat": 17.031526, "lng": -97.804662
},{
"label": "Yuviyo", "lat": 17.031621, "lng": -97.767518
},{
"label": "Santa María Yucuhiti", "lat": 17.018193, "lng": -97.769509
},{
"label": "La Soledad Caballo Rucio", "lat": 17.044575, "lng": -97.804332
},{
"label": "Peña Flor", "lat": 17.05253, "lng": -97.836802
},{
"label": "Ino-Itún", "lat": 17.036235, "lng": -97.786049
},{
"label": "Cabacaya", "lat": 17.029929, "lng": -97.776979
},{
"label": "San Isidro Paz y Progreso", "lat": 17.074142, "lng": -97.837094
},{
"label": "Tutin-Kañi", "lat": 17.056111, "lng": -97.786047
},{
"label": "12 de Mayo", "lat": 17.021313, "lng": -97.798091
},{
"label": "La Hierba Santa", "lat": 17.010599, "lng": -97.805085
},{
"label": "Tunuhu", "lat": 17.036974, "lng": -97.779326
},{
"label": "Carrizalillo", "lat": 17.047792, "lng": -97.819109
},{
"label": "Loma Grande", "lat": 17.0264, "lng": -97.832389
},{
"label": "Shinicuiti Loma Angosta (Shinicuiti)", "lat": 17.019349, "lng": -97.768194
},{
"label": "Escalería II", "lat": 17.013723, "lng": -97.793371
},{
"label": "Guayabal", "lat": 17.042317, "lng": -97.811475
},{
"label": "Linda Vista", "lat": 17.042226, "lng": -97.804248
},{
"label": "Tierra Azul", "lat": 16.997749, "lng": -97.799101
},{
"label": "Peña Blanca", "lat": 17.045178, "lng": -97.775469
},{
"label": "Llano del Triunfo", "lat": 17.084787, "lng": -97.791294
},{
"label": "La Esperanza", "lat": 16.992656, "lng": -97.797249
},{
"label": "Arriba de Alazán", "lat": 17.062098, "lng": -97.808419
},{
"label": "Yuvita'a", "lat": 17.026361, "lng": -97.773239
},{
"label": "San Felipe de Jesús Pueblo Viejo", "lat": 17.029065, "lng": -97.781615
},{
"label": "Takava", "lat": 17.063126, "lng": -97.779757
},{
"label": "Laguna Seca", "lat": 17.060491, "lng": -97.786469
},{
"label": "Miramar", "lat": 17.000952, "lng": -97.799399
},{
"label": "Loma Hicarión", "lat": 17.054388, "lng": -97.826728
},{
"label": "Paraje Viejo", "lat": 17.022961, "lng": -97.809639
},{
"label": "Rancho Nuevo", "lat": 17.030594, "lng": -97.812395
}]