[{
"label": "Rancho Igu", "lat": 16.3668, "lng": -95.083927
},{
"label": "Capilla de la Santa Cruz", "lat": 16.346222, "lng": -95.05139
},{
"label": "Rancho Juquilita", "lat": 16.396298, "lng": -95.027961
},{
"label": "Ta Ricardo (Rafael López Jiménez)", "lat": 16.372639, "lng": -95.011115
},{
"label": "San Valentín", "lat": 16.39124, "lng": -95.028315
},{
"label": "Los Mangos [Rancho]", "lat": 16.371163, "lng": -95.008425
},{
"label": "Hermanos Guerra", "lat": 16.371322, "lng": -95.057021
},{
"label": "Nueva Vida [Colonia]", "lat": 16.411944, "lng": -95.014708
},{
"label": "Las Palmas", "lat": 16.413872, "lng": -95.022824
},{
"label": "Rancho San Juan", "lat": 16.354792, "lng": -95.011249
},{
"label": "Rancho María Isabel", "lat": 16.368809, "lng": -95.049939
},{
"label": "Colonia 10 de Mayo", "lat": 16.356359, "lng": -95.02353
},{
"label": "María Cruz", "lat": 16.377346, "lng": -95.027638
},{
"label": "Tres de Mayo", "lat": 16.378498, "lng": -95.013583
},{
"label": "Jacinto Santiago Hernández", "lat": 16.378812, "lng": -95.01273
},{
"label": "Rancho Ángel de la Cruz", "lat": 16.408581, "lng": -95.055678
},{
"label": "Rancho Guadalupe", "lat": 16.376539, "lng": -95.007476
},{
"label": "Rancho Elías Antonio Jiménez", "lat": 16.368636, "lng": -95.054859
},{
"label": "Binu Gada [Colonia]", "lat": 16.408349, "lng": -95.026216
},{
"label": "San Antonio", "lat": 16.407887, "lng": -95.052866
},{
"label": "La Soledad [Colonia]", "lat": 16.4138, "lng": -95.020961
},{
"label": "3 de Mayo", "lat": 16.370176, "lng": -95.000812
},{
"label": "Rancho Guerra", "lat": 16.374367, "lng": -95.006584
},{
"label": "Las Cruces (Rancho Macario)", "lat": 16.361942, "lng": -95.052992
},{
"label": "Rancho Santa Martha (Rancho las Ovejas)", "lat": 16.384247, "lng": -95.062991
},{
"label": "Dos Arbolitos", "lat": 16.382623, "lng": -95.007444
},{
"label": "Yolanda", "lat": 16.374036, "lng": -95.000882
},{
"label": "Rancho Isabel", "lat": 16.398346, "lng": -95.026444
},{
"label": "Rancho Luis de la Cruz Martínez", "lat": 16.408254, "lng": -95.039235
},{
"label": "Esteban Figueroa", "lat": 16.391976, "lng": -95.004675
},{
"label": "Los Martínez", "lat": 16.36, "lng": -95.009498
},{
"label": "Santa María Xadani", "lat": 16.360301, "lng": -95.01985
},{
"label": "Beza Yaga", "lat": 16.396113, "lng": -95.026685
},{
"label": "San Luciano", "lat": 16.375525, "lng": -95.008446
},{
"label": "Rancho Yudxi Benda", "lat": 16.390704, "lng": -95.026638
}]