[{
"label": "San Sebastián del Monte", "lat": 17.677604, "lng": -98.021537
},{
"label": "San Juan Reyes", "lat": 17.728314, "lng": -97.977754
},{
"label": "Santa Catarina", "lat": 17.68734, "lng": -97.946256
},{
"label": "Loma Cahuatache", "lat": 17.6435, "lng": -98.046058
},{
"label": "Cuchilla Tepexquixtle", "lat": 17.654021, "lng": -98.047368
},{
"label": "Yetla de Juárez", "lat": 17.665016, "lng": -97.990052
},{
"label": "Cahuatichi", "lat": 17.642967, "lng": -98.061849
},{
"label": "Cerro Barrigón", "lat": 17.647703, "lng": -98.042162
},{
"label": "Colonia Industrial", "lat": 17.668337, "lng": -97.967764
},{
"label": "San Andrés Sabinillo", "lat": 17.739845, "lng": -98.031266
},{
"label": "Cerro de la Mañana", "lat": 17.66864, "lng": -98.037203
},{
"label": "El Mezquite", "lat": 17.670666, "lng": -98.045318
},{
"label": "Santo Domingo Tonalá", "lat": 17.674612, "lng": -97.963932
},{
"label": "Encino Grande (Lázaro Cárdenas)", "lat": 17.73056, "lng": -98.026798
},{
"label": "San Isidro Laguna Seca", "lat": 17.713337, "lng": -98.024817
},{
"label": "Juquila Loma Larga", "lat": 17.705559, "lng": -98.042395
},{
"label": "Cuenca Lechera Cerro Blanco (La Posta)", "lat": 17.687032, "lng": -97.975998
},{
"label": "Natividad", "lat": 17.688008, "lng": -97.962925
},{
"label": "San Antonio el Progreso", "lat": 17.710568, "lng": -98.01312
},{
"label": "San Antonio de los Arcos", "lat": 17.674274, "lng": -97.979
}]