[{
"label": "El Punto", "lat": 17.221364, "lng": -96.583165
},{
"label": "La Colorada", "lat": 17.1528, "lng": -96.608883
},{
"label": "Las Ánimas", "lat": 17.2347, "lng": -96.570064
},{
"label": "San Pedro Nexicho", "lat": 17.264419, "lng": -96.583113
},{
"label": "El Cebollal", "lat": 17.244027, "lng": -96.58187
},{
"label": "El Calvario", "lat": 17.263389, "lng": -96.564307
},{
"label": "Xielave", "lat": 17.167417, "lng": -96.530016
},{
"label": "Salida a la Capilla", "lat": 17.268802, "lng": -96.559574
},{
"label": "Santa Catarina Ixtepeji", "lat": 17.265549, "lng": -96.561699
},{
"label": "Las Margaritas", "lat": 17.144708, "lng": -96.611574
},{
"label": "Loma Grande", "lat": 17.201784, "lng": -96.588255
},{
"label": "Tierra Colorada", "lat": 17.155342, "lng": -96.614241
},{
"label": "El Cerezal", "lat": 17.239935, "lng": -96.561925
},{
"label": "Yovaneli", "lat": 17.140317, "lng": -96.584615
},{
"label": "Cañada de León", "lat": 17.141808, "lng": -96.627941
},{
"label": "Linda Vista (El Pasajuego)", "lat": 17.140106, "lng": -96.617538
},{
"label": "Loma de Reinoso", "lat": 17.269478, "lng": -96.536499
},{
"label": "El Manzanal (Tierra Colorada)", "lat": 17.159215, "lng": -96.606751
},{
"label": "Shelabeny", "lat": 17.276847, "lng": -96.540261
},{
"label": "Yuvila", "lat": 17.183909, "lng": -96.568894
},{
"label": "El Paso", "lat": 17.186899, "lng": -96.605384
},{
"label": "Los Eucaliptos [Rancho]", "lat": 17.255531, "lng": -96.547862
},{
"label": "La Cumbre", "lat": 17.174179, "lng": -96.604803
},{
"label": "Xía Ixtepeji", "lat": 17.30611, "lng": -96.52741
},{
"label": "Río Frio", "lat": 17.186767, "lng": -96.608481
},{
"label": "La Hacienda", "lat": 17.257764, "lng": -96.582618
},{
"label": "Cruz de Vaneli", "lat": 17.160704, "lng": -96.579462
},{
"label": "Rosa Blanca", "lat": 17.165682, "lng": -96.604753
},{
"label": "Rancho Filemón Vicente", "lat": 17.283857, "lng": -96.526171
}]