[{
"label": "Sierra Llano Grande", "lat": 16.19465, "lng": -96.631366
},{
"label": "La Chinilla", "lat": 16.158374, "lng": -96.603368
},{
"label": "Río Tenate", "lat": 16.153015, "lng": -96.614497
},{
"label": "La Chinera", "lat": 16.150829, "lng": -96.624396
},{
"label": "El Sumidero", "lat": 16.203406, "lng": -96.609263
},{
"label": "El Carrizal", "lat": 16.164658, "lng": -96.60137
},{
"label": "Santa Lucía Miahuatlán", "lat": 16.186473, "lng": -96.618211
},{
"label": "La Cofradía", "lat": 16.12281, "lng": -96.621488
},{
"label": "El Gavilán", "lat": 16.157683, "lng": -96.634569
},{
"label": "Río Comal", "lat": 16.231548, "lng": -96.634908
},{
"label": "El Encanto", "lat": 16.227678, "lng": -96.619729
},{
"label": "San Isidro el Queyón", "lat": 16.226456, "lng": -96.648121
},{
"label": "Paraje del Ocote", "lat": 16.186163, "lng": -96.603406
}]