[{
"label": "La Muralla", "lat": 16.490782, "lng": -97.842562
},{
"label": "La Cuchara", "lat": 16.578694, "lng": -97.667324
},{
"label": "Corral de Piedra", "lat": 16.498349, "lng": -97.56805
},{
"label": "Yucuyá", "lat": 16.572963, "lng": -97.602908
},{
"label": "Olintepec", "lat": 16.498074, "lng": -97.622265
},{
"label": "Las Limas", "lat": 16.509753, "lng": -97.681526
},{
"label": "Llano Verde", "lat": 16.548915, "lng": -97.680341
},{
"label": "Pueblo Viejo", "lat": 16.550556, "lng": -97.629722
},{
"label": "Caña Muerta", "lat": 16.574269, "lng": -97.638023
},{
"label": "Tierra Colorada", "lat": 16.553923, "lng": -97.655025
},{
"label": "San Lucas Atoyaquillo", "lat": 16.493881, "lng": -97.608788
},{
"label": "Buenavista", "lat": 16.616151, "lng": -97.78845
},{
"label": "Tierra Blanca", "lat": 16.588768, "lng": -97.671019
},{
"label": "El Mosco", "lat": 16.540368, "lng": -97.655183
},{
"label": "El Tetlate", "lat": 16.615037, "lng": -97.701398
},{
"label": "Macahuite Nuevo", "lat": 16.607973, "lng": -97.706526
},{
"label": "Santiago Ixtayutla", "lat": 16.565006, "lng": -97.651969
},{
"label": "El Carasol", "lat": 16.514274, "lng": -97.780597
},{
"label": "Río Verde", "lat": 16.584347, "lng": -97.59951
},{
"label": "El Huamuche", "lat": 16.493742, "lng": -97.724874
},{
"label": "El Ocote", "lat": 16.500249, "lng": -97.78205
},{
"label": "Yutacua", "lat": 16.606384, "lng": -97.626241
},{
"label": "El Naranjo", "lat": 16.583553, "lng": -97.755531
},{
"label": "Llano Escondido", "lat": 16.546952, "lng": -97.669747
},{
"label": "El Frutillo", "lat": 16.494205, "lng": -97.776439
},{
"label": "Xiniyuba", "lat": 16.563643, "lng": -97.631242
},{
"label": "La Humedad", "lat": 16.584833, "lng": -97.656547
},{
"label": "Las Trojes", "lat": 16.491681, "lng": -97.582401
},{
"label": "Nuyucu", "lat": 16.561663, "lng": -97.661567
},{
"label": "El Duraznal", "lat": 16.49428, "lng": -97.675641
},{
"label": "El Coyul", "lat": 16.583868, "lng": -97.775396
},{
"label": "Nusutia", "lat": 16.600216, "lng": -97.669334
},{
"label": "Villa Nueva", "lat": 16.560661, "lng": -97.823452
},{
"label": "Macahuite", "lat": 16.543274, "lng": -97.646668
}]