[{
"label": "Los Anonales", "lat": 16.803758, "lng": -96.883649
},{
"label": "Rancho Jacaranda", "lat": 16.795, "lng": -96.875833
},{
"label": "San Mateo Mixtepec", "lat": 16.783714, "lng": -96.943034
},{
"label": "El Carrizal", "lat": 16.795682, "lng": -96.887401
},{
"label": "Santa Cruz Mixtepec", "lat": 16.792443, "lng": -96.882407
},{
"label": "Río Culebra (El Tlacuache)", "lat": 16.789899, "lng": -96.916602
},{
"label": "El Peñasco", "lat": 16.797925, "lng": -96.885792
},{
"label": "San Juan Viejo", "lat": 16.791238, "lng": -96.909409
},{
"label": "La Rastra", "lat": 16.777076, "lng": -96.867729
},{
"label": "Trapiche Santa Cruz", "lat": 16.763195, "lng": -96.858061
},{
"label": "Ex-Hacienda de Dolores", "lat": 16.787859, "lng": -96.874535
},{
"label": "Emiliano Zapata", "lat": 16.759702, "lng": -96.833412
},{
"label": "Arroyo del Sabino", "lat": 16.799356, "lng": -96.880814
},{
"label": "Los Ortiz", "lat": 16.799605, "lng": -96.878212
},{
"label": "Yegogola", "lat": 16.788606, "lng": -96.870177
},{
"label": "Yegovego", "lat": 16.791713, "lng": -96.897124
}]