[{
"label": "Las Pilas", "lat": 15.796938, "lng": -96.666481
},{
"label": "Taraguntín", "lat": 15.812194, "lng": -96.57663
},{
"label": "Río Grande", "lat": 15.844243, "lng": -96.696419
},{
"label": "Barrio Alto", "lat": 15.845954, "lng": -96.673876
},{
"label": "Barrio del Río", "lat": 15.824537, "lng": -96.671112
},{
"label": "Las Cuevas", "lat": 15.806335, "lng": -96.609215
},{
"label": "Piedra del Sol", "lat": 15.872003, "lng": -96.630817
},{
"label": "Yerba Santa", "lat": 15.800374, "lng": -96.645527
},{
"label": "Cerro Campana Alto", "lat": 15.858029, "lng": -96.607329
},{
"label": "Santo Domingo de Morelos", "lat": 15.833004, "lng": -96.668076
},{
"label": "Barrio del Puente", "lat": 15.843147, "lng": -96.604961
},{
"label": "Cerro Hermoso", "lat": 15.837074, "lng": -96.665883
},{
"label": "Barrio Nuevo", "lat": 15.833866, "lng": -96.655361
},{
"label": "Los Sebastianes", "lat": 15.791827, "lng": -96.6332
},{
"label": "San José Piedras Negras", "lat": 15.83649, "lng": -96.591258
},{
"label": "Piedra del Descanso", "lat": 15.874111, "lng": -96.658626
},{
"label": "Macahuitera", "lat": 15.830102, "lng": -96.622706
},{
"label": "Cerro Campana", "lat": 15.848295, "lng": -96.645116
},{
"label": "Bajos de Santo Domingo", "lat": 15.829473, "lng": -96.685548
},{
"label": "Cañada Brava", "lat": 15.834601, "lng": -96.638119
},{
"label": "Cerro San Antonio", "lat": 15.87285, "lng": -96.663292
},{
"label": "Paso San Antonio", "lat": 15.847244, "lng": -96.658862
}]