[{
"label": "Pie del Cerro", "lat": 16.221463, "lng": -98.13811
},{
"label": "Mango Solo", "lat": 16.22812, "lng": -98.053514
},{
"label": "Cruz del Itacuán", "lat": 16.287973, "lng": -98.024773
},{
"label": "Yutah Tiata", "lat": 16.287572, "lng": -98.072809
},{
"label": "Hermanos Mondragón [Rancho]", "lat": 16.155062, "lng": -97.9921
},{
"label": "El Garrobo", "lat": 16.142621, "lng": -98.007219
},{
"label": "Tres Pozos", "lat": 16.210886, "lng": -98.025878
},{
"label": "San Isidro [Fraccionamiento]", "lat": 16.362773, "lng": -98.066349
},{
"label": "El Paraíso", "lat": 16.300411, "lng": -98.039553
},{
"label": "Rancho Ramírez", "lat": 16.205281, "lng": -98.059362
},{
"label": "El Carrizo", "lat": 16.254363, "lng": -98.030683
},{
"label": "Los Hornos Grandes", "lat": 16.305011, "lng": -98.063811
},{
"label": "Tierra Blanca", "lat": 16.262018, "lng": -98.209136
},{
"label": "El Chamizal", "lat": 16.236996, "lng": -98.043407
},{
"label": "San Isidro", "lat": 16.221301, "lng": -98.04442
},{
"label": "Arroyo Seco", "lat": 16.245949, "lng": -98.114888
},{
"label": "Los Pocitos", "lat": 16.204119, "lng": -98.00562
},{
"label": "La Palma del Coyul", "lat": 16.300201, "lng": -98.081897
},{
"label": "Corralero", "lat": 16.236389, "lng": -98.189167
},{
"label": "El Tamal", "lat": 16.337879, "lng": -98.18465
},{
"label": "Fernando Castrejón Herrera [Rancho]", "lat": 16.335937, "lng": -98.211906
},{
"label": "San Luis", "lat": 16.199748, "lng": -98.007582
},{
"label": "El Gusanito", "lat": 16.310411, "lng": -98.072439
},{
"label": "Elías Tello Sánchez", "lat": 16.264902, "lng": -98.131124
},{
"label": "Los Hachiotes", "lat": 16.215674, "lng": -98.053069
},{
"label": "Yutacuiñe", "lat": 16.33335, "lng": -98.033889
},{
"label": "Rancho del Santo", "lat": 16.370882, "lng": -98.176342
},{
"label": "Rose Mary", "lat": 16.307159, "lng": -98.041996
},{
"label": "El Tejeruco", "lat": 16.309057, "lng": -98.23771
},{
"label": "Lo de Candela", "lat": 16.397533, "lng": -98.137975
},{
"label": "El Carrizal (El Toronjil)", "lat": 16.237457, "lng": -98.047372
},{
"label": "Antonio García Zamora", "lat": 16.385055, "lng": -98.086324
},{
"label": "Charco del Otate", "lat": 16.243003, "lng": -98.09879
},{
"label": "La Palma", "lat": 16.168809, "lng": -98.077677
},{
"label": "Piedra Blanca", "lat": 16.262028, "lng": -97.997194
},{
"label": "El Quinto Patio", "lat": 16.328299, "lng": -98.021895
},{
"label": "Huerta de Gil Castro", "lat": 16.176579, "lng": -98.082267
},{
"label": "Playa Banco de Oro", "lat": 16.189403, "lng": -98.119441
},{
"label": "Piedra Parada", "lat": 16.312337, "lng": -98.301876
},{
"label": "El Azicate", "lat": 16.145072, "lng": -98.003101
},{
"label": "Moisés Toscano Clavel", "lat": 16.242962, "lng": -98.107194
},{
"label": "Celestino Acevedo", "lat": 16.169074, "lng": -98.039153
},{
"label": "Azteca [Colonia]", "lat": 16.318001, "lng": -98.042159
},{
"label": "El Jícaro", "lat": 16.194702, "lng": -98.075923
},{
"label": "Santiago Pinotepa Nacional", "lat": 16.339009, "lng": -98.050348
},{
"label": "Las Palmas", "lat": 16.357313, "lng": -98.051581
},{
"label": "Guadalupe Victoria", "lat": 16.242302, "lng": -98.065887
},{
"label": "VIVAH 2000 [Fraccionamiento]", "lat": 16.326914, "lng": -98.052416
},{
"label": "Yuyaquita", "lat": 16.216178, "lng": -97.998116
},{
"label": "Las Palmeras", "lat": 16.143576, "lng": -97.987161
},{
"label": "Isaura Rodríguez", "lat": 16.160863, "lng": -98.036702
},{
"label": "Los Mangos", "lat": 16.321654, "lng": -98.040157
},{
"label": "Delia [Granja Avícola]", "lat": 16.380836, "lng": -98.140758
},{
"label": "El Ranchito", "lat": 16.372597, "lng": -98.165651
},{
"label": "Buenos Aires", "lat": 16.346706, "lng": -98.038536
},{
"label": "Las Milpas", "lat": 16.317477, "lng": -98.198514
},{
"label": "Antonio Gazga", "lat": 16.383093, "lng": -98.099584
},{
"label": "Mata Sánchez", "lat": 16.217856, "lng": -98.069244
},{
"label": "El Palomar", "lat": 16.255434, "lng": -98.123745
},{
"label": "María Luisa Aguirre Palancares", "lat": 16.324972, "lng": -98.052111
},{
"label": "La Envidia", "lat": 16.307282, "lng": -98.310174
},{
"label": "Fernando Castrejón", "lat": 16.378063, "lng": -98.144003
},{
"label": "El Dominguito", "lat": 16.222574, "lng": -98.042138
},{
"label": "Río de las Arenas", "lat": 16.329809, "lng": -98.015345
},{
"label": "Los Cuajilotes", "lat": 16.170799, "lng": -98.032845
},{
"label": "Arroyo Largo", "lat": 16.352396, "lng": -98.078851
},{
"label": "Melquiades Arellanes Vargas", "lat": 16.296794, "lng": -98.204016
},{
"label": "El Retén", "lat": 16.378624, "lng": -98.092767
},{
"label": "Los Guamiles", "lat": 16.260026, "lng": -98.198109
},{
"label": "El Alacrán", "lat": 16.424928, "lng": -98.186101
},{
"label": "Fidel Gallegos", "lat": 16.237238, "lng": -98.074141
},{
"label": "Hornos los Pajaritos", "lat": 16.302972, "lng": -98.071389
},{
"label": "El Almendro", "lat": 16.231543, "lng": -98.059446
},{
"label": "Minillahui", "lat": 16.236823, "lng": -98.059491
},{
"label": "Rancho Santa Mónica", "lat": 16.144054, "lng": -97.998304
},{
"label": "El Tanaroa", "lat": 16.364967, "lng": -98.09382
},{
"label": "Universidad [Colonia]", "lat": 16.352545, "lng": -98.047127
},{
"label": "El Nuevo Amanecer [Rancho]", "lat": 16.390468, "lng": -98.123879
},{
"label": "La Ganadera", "lat": 16.161229, "lng": -98.029237
},{
"label": "El Ganadero", "lat": 16.36183, "lng": -98.054217
},{
"label": "Carnicería", "lat": 16.156336, "lng": -97.983525
},{
"label": "La Finca", "lat": 16.191075, "lng": -98.0195
},{
"label": "De Zótico Clavel", "lat": 16.295486, "lng": -98.220448
},{
"label": "Las Playitas", "lat": 16.297303, "lng": -98.290137
},{
"label": "Ángel Flavio Rivero", "lat": 16.173336, "lng": -98.07587
},{
"label": "El Pulpo", "lat": 16.313078, "lng": -98.065676
},{
"label": "Huerta Rubén Mendoza", "lat": 16.243782, "lng": -98.104378
},{
"label": "El Manguito", "lat": 16.233558, "lng": -98.099478
},{
"label": "La Raya", "lat": 16.369321, "lng": -97.998643
},{
"label": "Celestino", "lat": 16.194766, "lng": -98.018543
},{
"label": "Acuautepec o Agua de la Caña", "lat": 16.333663, "lng": -98.000801
},{
"label": "José Miguel Fuentes Baños", "lat": 16.319293, "lng": -98.297842
},{
"label": "El Añil", "lat": 16.28507, "lng": -98.079797
},{
"label": "La Alberca (Arroyo Limón)", "lat": 16.391544, "lng": -98.127418
},{
"label": "Juan Villar", "lat": 16.228927, "lng": -98.091121
},{
"label": "Agua Fría", "lat": 16.350704, "lng": -98.036744
},{
"label": "Motillas", "lat": 16.305519, "lng": -98.185458
},{
"label": "La Barra de Corralero", "lat": 16.216163, "lng": -98.186617
},{
"label": "Francisco Baños Laredo", "lat": 16.331306, "lng": -98.207361
},{
"label": "Huerta de Felipe Bornios", "lat": 16.179038, "lng": -98.087817
},{
"label": "Mancuernas", "lat": 16.387526, "lng": -98.108756
},{
"label": "La Parota", "lat": 16.295011, "lng": -98.254974
},{
"label": "El Conejo", "lat": 16.292302, "lng": -98.224254
},{
"label": "Los Horcones", "lat": 16.337076, "lng": -98.12671
},{
"label": "Paso de la Garrocha", "lat": 16.151976, "lng": -98.042987
},{
"label": "La Estrella", "lat": 16.343498, "lng": -98.18956
},{
"label": "Loma Larga", "lat": 16.329972, "lng": -98.114
},{
"label": "El Zanate (Charco Zanate)", "lat": 16.235795, "lng": -98.035375
},{
"label": "Rancho de la Virgen", "lat": 16.358411, "lng": -98.100488
},{
"label": "La Bugambilia", "lat": 16.329539, "lng": -98.021849
},{
"label": "El Zapote", "lat": 16.32915, "lng": -98.104851
},{
"label": "Rancho Grande", "lat": 16.326833, "lng": -98.297483
},{
"label": "Bernarda Bernal", "lat": 16.241938, "lng": -98.068849
},{
"label": "Librado Baños Baños", "lat": 16.381137, "lng": -98.133023
},{
"label": "Alberto Baños Torres", "lat": 16.236004, "lng": -98.077531
},{
"label": "Willians", "lat": 16.238978, "lng": -98.051026
},{
"label": "La Yerba Santa", "lat": 16.321742, "lng": -98.084943
},{
"label": "Anselmo Luna Ramos", "lat": 16.249862, "lng": -98.252509
},{
"label": "Rancho de los Juárez", "lat": 16.224592, "lng": -98.016596
},{
"label": "La Muralla", "lat": 16.317938, "lng": -98.084905
},{
"label": "La Noria y Minindaca", "lat": 16.202921, "lng": -98.064271
},{
"label": "El Salado", "lat": 16.238785, "lng": -98.054653
},{
"label": "El Cuachilote", "lat": 16.16658, "lng": -98.028619
},{
"label": "Rancho Viejo", "lat": 16.354522, "lng": -98.016355
},{
"label": "Rafael Ignacio Carmona Domínguez", "lat": 16.299347, "lng": -98.259628
},{
"label": "Collantes", "lat": 16.18737, "lng": -97.97126
},{
"label": "Agua Dulce", "lat": 16.245422, "lng": -98.223015
},{
"label": "Lagunillas", "lat": 16.347639, "lng": -98.22175
},{
"label": "Huerta de Juvencio Castillo", "lat": 16.180762, "lng": -98.095797
},{
"label": "El Baño", "lat": 16.175161, "lng": -97.980763
},{
"label": "El Torontón", "lat": 16.305396, "lng": -98.258109
},{
"label": "La Chingada [Rancho]", "lat": 16.368754, "lng": -98.171618
},{
"label": "Héctor Manuel Peña", "lat": 16.171856, "lng": -98.028025
},{
"label": "Rancho de la Yerba Santa", "lat": 16.328753, "lng": -98.078262
},{
"label": "Lo de Vera", "lat": 16.315147, "lng": -98.12759
},{
"label": "Yutacuiti", "lat": 16.368629, "lng": -98.085752
},{
"label": "Mata Carrizo", "lat": 16.210854, "lng": -98.003758
},{
"label": "Huerta Clavel", "lat": 16.18261, "lng": -98.09502
},{
"label": "Lo de Mejía", "lat": 16.423398, "lng": -98.170396
},{
"label": "El Ciruelo", "lat": 16.317213, "lng": -98.259669
},{
"label": "Cerro de la Esperanza", "lat": 16.212179, "lng": -97.978571
},{
"label": "El Tamarindo", "lat": 16.327321, "lng": -98.247092
},{
"label": "La Chamusca", "lat": 16.313833, "lng": -98.223692
},{
"label": "Lo de Riaño", "lat": 16.368911, "lng": -98.149033
},{
"label": "Minitán", "lat": 16.22307, "lng": -98.102113
},{
"label": "Zenaida Ortiz", "lat": 16.237845, "lng": -98.075246
},{
"label": "Santa María Jicaltepec", "lat": 16.380624, "lng": -98.044889
},{
"label": "La Esperanza", "lat": 16.324712, "lng": -98.204664
},{
"label": "María de Jesús Vielma", "lat": 16.231119, "lng": -98.077524
},{
"label": "El Vizcaíno", "lat": 16.302214, "lng": -98.31451
},{
"label": "La Cañada", "lat": 16.264553, "lng": -98.136153
},{
"label": "La Barrita", "lat": 16.25206, "lng": -98.266794
},{
"label": "Los 3 Hermanos [Rancho]", "lat": 16.164594, "lng": -98.030433
},{
"label": "Mariano Matamoros", "lat": 16.196488, "lng": -98.139096
},{
"label": "El Frío", "lat": 16.253034, "lng": -98.173003
},{
"label": "Palmeras Callejón", "lat": 16.140449, "lng": -98.020433
}]