[{
"label": "La Laguna", "lat": 17.356165, "lng": -97.539905
},{
"label": "Chijaha", "lat": 17.385718, "lng": -97.546031
},{
"label": "Yucusito", "lat": 17.323377, "lng": -97.574941
},{
"label": "El Llano", "lat": 17.336911, "lng": -97.574664
},{
"label": "Segunda Sección", "lat": 17.341973, "lng": -97.555353
},{
"label": "Cuauhtémoc", "lat": 17.313318, "lng": -97.55479
},{
"label": "El Zapotito", "lat": 17.362397, "lng": -97.547028
},{
"label": "Barrio Dolores (Primera Sección)", "lat": 17.350678, "lng": -97.557185
},{
"label": "Santa Catarina Tayata", "lat": 17.347805, "lng": -97.558379
},{
"label": "Yosomaño", "lat": 17.346162, "lng": -97.564137
}]