[{
"label": "El Campanario", "lat": 16.77607, "lng": -95.189743
},{
"label": "El Tejón", "lat": 16.86723, "lng": -95.230046
},{
"label": "Guigulana", "lat": 16.821816, "lng": -95.16663
},{
"label": "San Salvador", "lat": 16.905161, "lng": -95.279864
},{
"label": "La Aurora", "lat": 16.836172, "lng": -95.146836
},{
"label": "Tierra Blanca", "lat": 16.897586, "lng": -95.20066
},{
"label": "Santo Domingo Petapa", "lat": 16.820669, "lng": -95.140423
},{
"label": "Las Flores", "lat": 16.879809, "lng": -95.240284
},{
"label": "Mala Vida", "lat": 16.870126, "lng": -95.214489
},{
"label": "Barrio Santa Cruz", "lat": 16.82698, "lng": -95.143615
},{
"label": "Rancho Guzmán", "lat": 16.936663, "lng": -95.243215
},{
"label": "Los Aguilar [Rancho]", "lat": 16.79017, "lng": -95.139679
},{
"label": "Santa Cruz Chahuitepec", "lat": 16.895644, "lng": -95.234109
},{
"label": "5 de Mayo (El Pedregal)", "lat": 16.813004, "lng": -95.139592
},{
"label": "Ladxiyasha", "lat": 16.905394, "lng": -95.238533
},{
"label": "San Isidro Platanillo", "lat": 16.953054, "lng": -95.25275
},{
"label": "El Zapote", "lat": 16.93078, "lng": -95.237252
},{
"label": "Arroyo Tigre", "lat": 16.921723, "lng": -95.225863
},{
"label": "Carnicuil", "lat": 16.901951, "lng": -95.236447
},{
"label": "La Nueva Esperanza", "lat": 16.732408, "lng": -95.1609
},{
"label": "La Esperanza", "lat": 16.934721, "lng": -95.229838
},{
"label": "Las Uvas", "lat": 16.864736, "lng": -95.229149
},{
"label": "Arroyo Tinta", "lat": 16.956856, "lng": -95.300324
},{
"label": "Yerba Santa", "lat": 16.910648, "lng": -95.237678
},{
"label": "La Palizada", "lat": 16.880206, "lng": -95.192816
},{
"label": "Río del Sol", "lat": 16.942585, "lng": -95.235286
},{
"label": "La Maceta", "lat": 16.924869, "lng": -95.208882
},{
"label": "Vista Hermosa", "lat": 16.8678, "lng": -95.219912
},{
"label": "La Sierra", "lat": 16.85518, "lng": -95.188701
},{
"label": "La Victoria (Cerro Borrego)", "lat": 16.890038, "lng": -95.183279
},{
"label": "Arroyo Chiza", "lat": 16.805922, "lng": -95.133166
},{
"label": "Arroyo Cuchara", "lat": 16.983845, "lng": -95.295565
}]