[{
"label": "Río Grande", "lat": 17.475428, "lng": -97.071534
},{
"label": "Salamanca", "lat": 17.472426, "lng": -97.085933
},{
"label": "La Laguna", "lat": 17.445776, "lng": -97.075223
},{
"label": "Río Verde", "lat": 17.474556, "lng": -97.102062
},{
"label": "La Loma", "lat": 17.443059, "lng": -97.053932
},{
"label": "Yodanaa (Agua del Carmen)", "lat": 17.462089, "lng": -97.087711
},{
"label": "Progreso", "lat": 17.456496, "lng": -97.081329
},{
"label": "San Juan Tlalixtlahuaca", "lat": 17.517088, "lng": -97.030457
},{
"label": "Datea (Andrea Pérez)", "lat": 17.493469, "lng": -97.029884
},{
"label": "Nachada", "lat": 17.491561, "lng": -97.032956
},{
"label": "Barrio del Carmen", "lat": 17.453043, "lng": -97.069701
},{
"label": "Santiago Huauclilla", "lat": 17.450841, "lng": -97.071527
},{
"label": "Yerba Santa", "lat": 17.475553, "lng": -97.088884
},{
"label": "San Bartolomé Zotula", "lat": 17.505325, "lng": -97.057635
},{
"label": "Rancho Escondido", "lat": 17.464198, "lng": -97.094416
},{
"label": "La Soledad (La Hacienda)", "lat": 17.468467, "lng": -97.092846
},{
"label": "Santiago Ixtlahuaca", "lat": 17.538952, "lng": -96.997578
},{
"label": "La Rosa", "lat": 17.466349, "lng": -97.032501
}]