[{
"label": "El Carmen", "lat": 17.525702, "lng": -98.130133
},{
"label": "La Laguna", "lat": 17.474664, "lng": -98.124806
},{
"label": "San Miguel Aguacates", "lat": 17.441738, "lng": -98.133228
},{
"label": "Barrio de la Soledad", "lat": 17.511878, "lng": -98.140682
},{
"label": "Santiago Asunción", "lat": 17.518306, "lng": -98.029926
},{
"label": "Guadalupe Cabacoa", "lat": 17.537524, "lng": -98.066911
},{
"label": "Rancho Alfaro", "lat": 17.575742, "lng": -98.096439
},{
"label": "Rancho Vargas", "lat": 17.541433, "lng": -98.075011
},{
"label": "Yushico", "lat": 17.516978, "lng": -98.138921
},{
"label": "San Mateo Nuevo", "lat": 17.497639, "lng": -98.072516
},{
"label": "Barrio de la Providencia", "lat": 17.541071, "lng": -98.145591
},{
"label": "San Isidro", "lat": 17.485089, "lng": -98.127578
},{
"label": "San Sebastián", "lat": 17.490264, "lng": -98.139804
},{
"label": "Linda Vista", "lat": 17.497673, "lng": -98.142881
},{
"label": "San Vicente del Zapote", "lat": 17.570063, "lng": -98.326662
},{
"label": "San Martín del Estado", "lat": 17.567428, "lng": -98.175981
},{
"label": "San Antonio", "lat": 17.564349, "lng": -98.10506
},{
"label": "Silacayoápam", "lat": 17.501447, "lng": -98.142585
},{
"label": "San Andrés Montaña", "lat": 17.424966, "lng": -98.15213
},{
"label": "Quinta Sección (Pista Aérea)", "lat": 17.49948, "lng": -98.131541
},{
"label": "San Jerónimo Progreso", "lat": 17.4448, "lng": -98.155499
},{
"label": "Llano Grande", "lat": 17.459448, "lng": -98.148786
},{
"label": "San Juan Huaxtepec", "lat": 17.586671, "lng": -98.060113
},{
"label": "San Juan Trujano", "lat": 17.736471, "lng": -98.178704
},{
"label": "Barrio San Miguelito", "lat": 17.497778, "lng": -98.136079
},{
"label": "San Sebastián Zoquiápam", "lat": 17.780263, "lng": -98.255516
},{
"label": "El Chapitel", "lat": 17.501778, "lng": -98.145473
},{
"label": "Santiago Patlanalá", "lat": 17.532586, "lng": -98.118403
},{
"label": "Los Reyes Michapa", "lat": 17.502685, "lng": -98.072777
}]