[{
"label": "Barrio de Guadalupe (El Rodeo)", "lat": 17.971769, "lng": -97.345053
},{
"label": "Los Granados", "lat": 18.046377, "lng": -97.357896
},{
"label": "Agua Chiquita", "lat": 17.926254, "lng": -97.354504
},{
"label": "Cerro Negro", "lat": 17.944722, "lng": -97.240833
},{
"label": "Zoyaxtla", "lat": 18.012431, "lng": -97.275844
},{
"label": "Río Blanco (La Matanza)", "lat": 17.965616, "lng": -97.389723
},{
"label": "Barrio de la Santa Cruz (Sección Tercera)", "lat": 17.877139, "lng": -97.369127
},{
"label": "Hija de Roaria", "lat": 18.043761, "lng": -97.333566
},{
"label": "El Rosario", "lat": 17.939768, "lng": -97.314841
},{
"label": "Tepelmeme Villa de Morelos", "lat": 17.874806, "lng": -97.362198
},{
"label": "El Mirador", "lat": 18.065006, "lng": -97.353474
},{
"label": "Tierra Blanca", "lat": 17.899581, "lng": -97.350694
},{
"label": "Las Flores", "lat": 17.976399, "lng": -97.374452
},{
"label": "El Rodeo", "lat": 17.981383, "lng": -97.356692
},{
"label": "Torrecilla", "lat": 17.898247, "lng": -97.383324
},{
"label": "San Isidro (La Unión)", "lat": 17.956389, "lng": -97.343333
},{
"label": "Las Canteras", "lat": 17.855959, "lng": -97.35947
},{
"label": "El Tambor", "lat": 17.940167, "lng": -97.418515
},{
"label": "Cruz San Miguel", "lat": 17.989244, "lng": -97.328133
},{
"label": "Yerba Santa", "lat": 18.125511, "lng": -97.332111
},{
"label": "La Unión", "lat": 17.939099, "lng": -97.351018
},{
"label": "Puerto Mixteco", "lat": 17.930036, "lng": -97.340625
},{
"label": "El Picacho", "lat": 18.141549, "lng": -97.31615
},{
"label": "Mahuizapa", "lat": 17.936098, "lng": -97.297456
},{
"label": "Llano de Agua", "lat": 17.944825, "lng": -97.398025
},{
"label": "El Izote", "lat": 17.95432, "lng": -97.366593
}]