[{
"label": "Organal", "lat": 17.834074, "lng": -97.439218
},{
"label": "Rancho Potrero", "lat": 17.850081, "lng": -97.4478
},{
"label": "Río Garza", "lat": 17.825236, "lng": -97.453417
},{
"label": "Primera Sección", "lat": 17.857715, "lng": -97.441345
},{
"label": "Tlacotepec Plumas", "lat": 17.850777, "lng": -97.432829
},{
"label": "Rancho Escondido", "lat": 17.868205, "lng": -97.454346
}]