[{
"label": "Santa María Huitepec", "lat": 17.171307, "lng": -96.035509
},{
"label": "Santa María Tiltepec", "lat": 17.232811, "lng": -96.096453
},{
"label": "San Francisco Jayacaxtepec", "lat": 17.222702, "lng": -95.975124
},{
"label": "Totontepec Villa de Morelos", "lat": 17.258634, "lng": -96.027355
},{
"label": "Tierra Caliente", "lat": 17.239323, "lng": -96.014818
},{
"label": "Rancho Zorrillo (Rancho la Luna)", "lat": 17.255482, "lng": -96.015657
},{
"label": "Chinantequilla", "lat": 17.307648, "lng": -95.988739
},{
"label": "Tierra Caliente (Rancho Uno y Rancho Dos)", "lat": 17.276366, "lng": -95.936563
},{
"label": "San Miguel Metepec", "lat": 17.214492, "lng": -96.059672
},{
"label": "Santa María Ocotepec", "lat": 17.227249, "lng": -95.992636
},{
"label": "Santiago Amatepec", "lat": 17.280142, "lng": -96.01221
},{
"label": "El Duraznal", "lat": 17.270566, "lng": -96.024887
},{
"label": "San Marcos Moctum", "lat": 17.247281, "lng": -96.005383
},{
"label": "Patio Grande", "lat": 17.1952, "lng": -95.976967
},{
"label": "Santiago Jareta", "lat": 17.237061, "lng": -96.025146
},{
"label": "Santiago Tepitongo", "lat": 17.301455, "lng": -96.031684
},{
"label": "Rancho Alejandro Villegas", "lat": 17.249735, "lng": -96.022339
},{
"label": "Rancho Conchita", "lat": 17.25685, "lng": -95.930488
}]