[{
"label": "Lachibee", "lat": 17.155466, "lng": -96.172428
},{
"label": "Esquipulas", "lat": 17.175628, "lng": -96.174913
},{
"label": "Las Minas", "lat": 17.220014, "lng": -96.180654
},{
"label": "Villa Hidalgo", "lat": 17.185888, "lng": -96.178834
},{
"label": "El Oriente", "lat": 17.184328, "lng": -96.166013
},{
"label": "Tras del Cerro", "lat": 17.17373, "lng": -96.132375
},{
"label": "Pozo Conejo", "lat": 17.175332, "lng": -96.148073
}]