[{
"label": "Santa Clara", "lat": 17.344388, "lng": -96.259212
},{
"label": "San Bartolomé Yatoni", "lat": 17.379243, "lng": -96.248835
},{
"label": "Otatitlán de Morelos", "lat": 17.39459, "lng": -96.23668
},{
"label": "Villa Talea de Castro", "lat": 17.360003, "lng": -96.249921
},{
"label": "Santa Gertrudis", "lat": 17.346751, "lng": -96.242391
}]