[{
"label": "Santo Domingo [Fraccionamiento]", "lat": 17.186362, "lng": -96.791262
},{
"label": "Santo Domingo Barrio Alto [Parque Industrial]", "lat": 17.181132, "lng": -96.780107
},{
"label": "Santo Domingo Barrio Alto", "lat": 17.193792, "lng": -96.785951
},{
"label": "Villa de Etla", "lat": 17.207528, "lng": -96.800579
},{
"label": "Moctezuma [Colonia]", "lat": 17.202234, "lng": -96.79244
},{
"label": "El Pipal", "lat": 17.189277, "lng": -96.807424
}]