[{
"label": "Donají (El Higo)", "lat": 16.933751, "lng": -96.708212
},{
"label": "Hacienda Zurita", "lat": 16.939282, "lng": -96.724105
},{
"label": "Rancho Viejo", "lat": 16.922779, "lng": -96.697962
},{
"label": "El Manantial [Colonia]", "lat": 16.921364, "lng": -96.689955
},{
"label": "DECEMEX", "lat": 16.924809, "lng": -96.71543
},{
"label": "Colonia Santa Isabel", "lat": 16.914881, "lng": -96.708929
},{
"label": "Zaachila Segundo", "lat": 16.907458, "lng": -96.706269
},{
"label": "Colonia 24 de Julio", "lat": 16.925143, "lng": -96.69593
},{
"label": "Emiliano Zapata", "lat": 16.934762, "lng": -96.716916
},{
"label": "Los Huamuchales", "lat": 16.960367, "lng": -96.739492
},{
"label": "Jardines de Zaachila", "lat": 16.912775, "lng": -96.709451
},{
"label": "Colonia Valle Dorado", "lat": 16.92193, "lng": -96.707348
},{
"label": "La Floresta [Colonia]", "lat": 16.923588, "lng": -96.712509
},{
"label": "San Lucas Tlanichico", "lat": 16.971033, "lng": -96.806732
},{
"label": "Colonia Jardines del Sur", "lat": 16.91305, "lng": -96.713895
},{
"label": "Colonia Campo Real", "lat": 16.921016, "lng": -96.706908
},{
"label": "Colonia Valle de Reyes", "lat": 16.919729, "lng": -96.709372
},{
"label": "Colonia Cosijoeza", "lat": 16.911325, "lng": -96.714647
},{
"label": "Barrio del Niño (Segunda Sección)", "lat": 16.957419, "lng": -96.763912
},{
"label": "Villa de Zaachila", "lat": 16.950718, "lng": -96.750588
},{
"label": "Colonia del Bosque", "lat": 16.921613, "lng": -96.683643
},{
"label": "Colonia Olimpo", "lat": 16.923163, "lng": -96.704475
},{
"label": "El Cerrito (San Pablo la Raya)", "lat": 16.951657, "lng": -96.738386
},{
"label": "Ninguno", "lat": 16.919659, "lng": -96.703089
},{
"label": "Vicente Guerrero", "lat": 16.933097, "lng": -96.701459
},{
"label": "Real del Valle [Fraccionamiento]", "lat": 16.931143, "lng": -96.770549
},{
"label": "San Pedro la Reforma", "lat": 16.964644, "lng": -96.741962
},{
"label": "La Capilla", "lat": 16.929156, "lng": -96.7037
},{
"label": "Circuito San Sebastián", "lat": 16.91036, "lng": -96.70411
}]