[{
"label": "Las Pilas", "lat": 17.666672, "lng": -97.534295
},{
"label": "Xarashi", "lat": 17.671034, "lng": -97.57853
},{
"label": "Cañada Grande", "lat": 17.692118, "lng": -97.536201
},{
"label": "Xacahua", "lat": 17.712036, "lng": -97.572816
},{
"label": "La Presa (Rancho de los Ramírez)", "lat": 17.687722, "lng": -97.584574
},{
"label": "El Tejón", "lat": 17.768639, "lng": -97.583732
},{
"label": "Agua Azufrada", "lat": 17.6898, "lng": -97.561689
},{
"label": "Yodonduco", "lat": 17.678916, "lng": -97.586086
},{
"label": "El Calvario", "lat": 17.66571, "lng": -97.569047
},{
"label": "La Raya", "lat": 17.76775, "lng": -97.641581
},{
"label": "El Arco", "lat": 17.687466, "lng": -97.556592
},{
"label": "La Curva (Paraje Yuyute)", "lat": 17.67079, "lng": -97.5595
},{
"label": "Villa de Tamazulápam del Progreso", "lat": 17.673063, "lng": -97.572848
},{
"label": "El Espinal", "lat": 17.676803, "lng": -97.529213
},{
"label": "Río del Oro", "lat": 17.694817, "lng": -97.611064
},{
"label": "El Sabino", "lat": 17.664571, "lng": -97.580518
},{
"label": "La Canoa", "lat": 17.675611, "lng": -97.567138
},{
"label": "Las Flores", "lat": 17.729414, "lng": -97.603872
},{
"label": "Colonia Guadalupe", "lat": 17.681621, "lng": -97.578465
},{
"label": "San Jerónimo", "lat": 17.635058, "lng": -97.542931
},{
"label": "Tandique", "lat": 17.721937, "lng": -97.586176
},{
"label": "Xatán", "lat": 17.754791, "lng": -97.607358
},{
"label": "La Joya", "lat": 17.66724, "lng": -97.546577
}]