[{
"label": "San Sebastián de las Grutas", "lat": 16.631986, "lng": -96.957153
},{
"label": "El Obispo", "lat": 16.559298, "lng": -96.924602
},{
"label": "Yoleré", "lat": 16.496376, "lng": -96.985429
},{
"label": "Zacamatle", "lat": 16.389527, "lng": -96.904976
},{
"label": "El Pericón", "lat": 16.409078, "lng": -96.924652
},{
"label": "Río Víbora (San Juan Elotepec)", "lat": 16.787474, "lng": -97.21994
},{
"label": "El Sauz (Cuarta Sección)", "lat": 16.475175, "lng": -96.950316
},{
"label": "Río Húmedo (San Juan Elotepec)", "lat": 16.820669, "lng": -97.188937
},{
"label": "La Labor (San Felipe Zapotitlán)", "lat": 16.853007, "lng": -97.216542
},{
"label": "El Rosario", "lat": 16.568624, "lng": -96.927261
},{
"label": "La Gloria", "lat": 16.396402, "lng": -97.027263
},{
"label": "La Chihuana", "lat": 16.519388, "lng": -97.051009
},{
"label": "San Ignacio de Loyola el Sargento", "lat": 16.56338, "lng": -97.127419
},{
"label": "Los Limones", "lat": 16.376116, "lng": -97.078849
},{
"label": "Tierra Blanca", "lat": 16.400321, "lng": -96.888777
},{
"label": "El Chamizal", "lat": 16.750079, "lng": -97.181083
},{
"label": "El Pescador", "lat": 16.323196, "lng": -96.876542
},{
"label": "Chaneque Verde", "lat": 16.750288, "lng": -97.244608
},{
"label": "San Cristóbal", "lat": 16.355327, "lng": -97.095866
},{
"label": "El Nido (San Juan Elotepec)", "lat": 16.832222, "lng": -97.196389
},{
"label": "Huizache", "lat": 16.331013, "lng": -96.909803
},{
"label": "Santos Reyes Sola", "lat": 16.491772, "lng": -96.982866
},{
"label": "Santa Catarina la Cañada", "lat": 16.546842, "lng": -97.089757
},{
"label": "Barrio de Santa Anita (Sección Tercera)", "lat": 16.505231, "lng": -96.976742
},{
"label": "Segunda Sección Barrio Arriba", "lat": 16.521801, "lng": -96.973172
},{
"label": "Río Tinto", "lat": 16.678611, "lng": -97.185
},{
"label": "Río Peña (San Felipe Zapotitlán)", "lat": 16.860204, "lng": -97.231425
},{
"label": "Arroyo del Pajarito (Cuarta Sección)", "lat": 16.466579, "lng": -96.928335
},{
"label": "Portillo del Abre", "lat": 16.432654, "lng": -96.87591
},{
"label": "El Paso de la Muerte", "lat": 16.575488, "lng": -96.955924
},{
"label": "Río Picado (San Juan Elotepec)", "lat": 16.783807, "lng": -97.187241
},{
"label": "El Madrón", "lat": 16.379475, "lng": -96.964039
},{
"label": "Yigüiche", "lat": 16.405278, "lng": -96.897249
},{
"label": "San Agustín", "lat": 16.406759, "lng": -96.961929
},{
"label": "El Palmar", "lat": 16.401515, "lng": -96.968653
},{
"label": "El Portillo (Tierra Blanca)", "lat": 16.409583, "lng": -96.90117
},{
"label": "San Isidro Ojo de Agua", "lat": 16.433611, "lng": -97.064653
},{
"label": "El Banco", "lat": 16.547027, "lng": -96.972234
},{
"label": "La Cumbrita", "lat": 16.454164, "lng": -97.042843
},{
"label": "El Encino (Portillo del Encino)", "lat": 16.44822, "lng": -96.885844
},{
"label": "Río Grande", "lat": 16.593413, "lng": -97.091615
},{
"label": "San Felipe Zapotitlán", "lat": 16.846143, "lng": -97.231228
},{
"label": "Piedra Blanca", "lat": 16.389606, "lng": -97.042559
},{
"label": "El Cocoyuche (San Felipe Zapotitlán)", "lat": 16.852397, "lng": -97.226044
},{
"label": "Santa Inés Sola", "lat": 16.481481, "lng": -96.943485
},{
"label": "Rancho del Cura (Cuarta Sección)", "lat": 16.469074, "lng": -96.935249
},{
"label": "Xigueto (Cuarta Sección)", "lat": 16.421851, "lng": -96.949776
},{
"label": "El Progreso (San Juan Elotepec)", "lat": 16.845661, "lng": -97.201246
},{
"label": "Nachihuí", "lat": 16.549795, "lng": -96.991779
},{
"label": "El Cocoyul", "lat": 16.399313, "lng": -97.06787
},{
"label": "La Pitiona", "lat": 16.364174, "lng": -97.150919
},{
"label": "Barranca Grande", "lat": 16.414907, "lng": -96.890454
},{
"label": "Israel Figueroa (Cuarta Sección)", "lat": 16.453014, "lng": -96.969574
},{
"label": "Candelaria la Estancia", "lat": 16.362049, "lng": -97.045401
},{
"label": "La Ciénega (La Ciénega del Rancho)", "lat": 16.629303, "lng": -96.970531
},{
"label": "San Antonio", "lat": 16.555049, "lng": -96.96719
},{
"label": "La Ciénega de la Palma", "lat": 16.559347, "lng": -97.14881
},{
"label": "Río Manteca (San Juan Elotepec)", "lat": 16.80309, "lng": -97.205421
},{
"label": "El Duraznillo (San Juan Elotepec)", "lat": 16.811288, "lng": -97.218616
},{
"label": "La Loma de los Ingenieros", "lat": 16.39304, "lng": -96.900328
},{
"label": "San José Obrero Paso Ancho", "lat": 16.361549, "lng": -96.892679
},{
"label": "El Tlacuachito (El Chanequito)", "lat": 16.448133, "lng": -96.877128
},{
"label": "La Chicueca", "lat": 16.520224, "lng": -96.996036
},{
"label": "El Común", "lat": 16.458112, "lng": -96.930903
},{
"label": "Yerba Buenita", "lat": 16.373462, "lng": -96.933059
},{
"label": "La Soledad Santa Ana [Barrio]", "lat": 16.42126, "lng": -97.056226
},{
"label": "Las Juntas (San Juan Elotepec)", "lat": 16.849776, "lng": -97.173984
},{
"label": "Barrio las Peñas", "lat": 16.357593, "lng": -97.017564
},{
"label": "Río Espejo (San Juan Elotepec)", "lat": 16.764031, "lng": -97.242071
},{
"label": "La Singuera (San Juan Elotepec)", "lat": 16.845753, "lng": -97.213931
},{
"label": "Nachirente", "lat": 16.482935, "lng": -96.985632
},{
"label": "Laguna Seca (Cuarta Sección)", "lat": 16.428379, "lng": -96.987989
},{
"label": "La Laguna (Cuarta Sección)", "lat": 16.437549, "lng": -96.980518
},{
"label": "Los Pitayos", "lat": 16.355882, "lng": -97.152695
},{
"label": "El Mirador (San Felipe Zapotitlán)", "lat": 16.851356, "lng": -97.242781
},{
"label": "Piedra Grande", "lat": 16.36358, "lng": -97.15723
},{
"label": "Portillo de Guajes (La Curva)", "lat": 16.408269, "lng": -97.035408
},{
"label": "Chinigue Segunda Sección (La Quebradora)", "lat": 16.533619, "lng": -96.976727
},{
"label": "El Huazán", "lat": 16.394354, "lng": -97.046645
},{
"label": "El Pocito", "lat": 16.518128, "lng": -97.007014
},{
"label": "La Cueva (Cuarta Sección)", "lat": 16.444064, "lng": -96.980626
},{
"label": "Yogorente", "lat": 16.465923, "lng": -96.954038
},{
"label": "El Rincón", "lat": 16.505538, "lng": -96.988759
},{
"label": "El Porvenir (San Felipe Zapotitlán)", "lat": 16.841584, "lng": -97.241864
},{
"label": "Llano de León (San Juan Elotepec)", "lat": 16.847993, "lng": -97.212403
},{
"label": "Santa Ana", "lat": 16.424356, "lng": -97.048644
},{
"label": "San Juan Viejo ( San Juan Elotepec)", "lat": 16.832498, "lng": -97.177551
},{
"label": "Desviación de la Siempre Viva", "lat": 16.674329, "lng": -96.992155
},{
"label": "Golina", "lat": 16.515404, "lng": -97.014369
},{
"label": "San Juan Bautista", "lat": 16.527418, "lng": -97.001124
},{
"label": "Potrero", "lat": 16.406582, "lng": -97.029125
},{
"label": "Yoganita", "lat": 16.573123, "lng": -96.986224
},{
"label": "Agua Fría", "lat": 16.555582, "lng": -96.95126
},{
"label": "Villa Sola de Vega", "lat": 16.514758, "lng": -96.978014
},{
"label": "La Yerba Buena", "lat": 16.370633, "lng": -96.962153
},{
"label": "Yogolana (Cuarta Sección)", "lat": 16.443344, "lng": -96.942235
},{
"label": "La Labor (Gulera)", "lat": 16.492865, "lng": -96.968251
},{
"label": "San Antonio (Llano de Velásquez)", "lat": 16.652917, "lng": -96.983215
},{
"label": "Las Cuevas (San Felipe Zapotitlán)", "lat": 16.852039, "lng": -97.258624
},{
"label": "El Encino (San Agustín)", "lat": 16.3403, "lng": -96.923243
},{
"label": "El Remolino", "lat": 16.42385, "lng": -96.890193
},{
"label": "El Mangalito", "lat": 16.554342, "lng": -97.13938
},{
"label": "Los Horcones", "lat": 16.33487, "lng": -96.971027
},{
"label": "La Cumbre (La Torre)", "lat": 16.453192, "lng": -97.003371
},{
"label": "La Divina Concepción [Barrio]", "lat": 16.395514, "lng": -97.077862
},{
"label": "Malvarisco", "lat": 16.652865, "lng": -97.135444
},{
"label": "Arroyo de la Rosa (Cuarta Sección)", "lat": 16.457192, "lng": -96.912629
},{
"label": "Río de Boca", "lat": 16.630982, "lng": -96.981525
},{
"label": "San Juan Elotepec", "lat": 16.844923, "lng": -97.210358
},{
"label": "Los Morales", "lat": 16.435013, "lng": -97.034102
},{
"label": "Guillaya (Arroyo de Guillaya)", "lat": 16.46126, "lng": -96.895415
},{
"label": "La V", "lat": 16.537143, "lng": -97.010029
},{
"label": "Peña Desbaratada (San Felipe Zapotitlán)", "lat": 16.82992, "lng": -97.242628
},{
"label": "Lazo", "lat": 16.463768, "lng": -97.035898
},{
"label": "Agua del Sabino", "lat": 16.550249, "lng": -97.123737
},{
"label": "Las Trancas (San Juan Elotepec)", "lat": 16.834475, "lng": -97.200492
},{
"label": "La Yerba Santa", "lat": 16.384383, "lng": -97.028446
},{
"label": "El Garabato", "lat": 16.420061, "lng": -96.940663
},{
"label": "Los Pinos", "lat": 16.465183, "lng": -97.014204
},{
"label": "Anonales", "lat": 16.413287, "lng": -96.943376
},{
"label": "La Cucaracha", "lat": 16.562312, "lng": -97.134559
},{
"label": "Morga", "lat": 16.415306, "lng": -97.087711
},{
"label": "Sabinos", "lat": 16.421772, "lng": -97.072467
},{
"label": "Gulera", "lat": 16.485597, "lng": -96.966837
},{
"label": "La Ciénega", "lat": 16.536948, "lng": -96.995697
},{
"label": "Llano Mazorca (San Juan Elotepec)", "lat": 16.850062, "lng": -97.180956
},{
"label": "La Colorada (Tierra Colorada)", "lat": 16.570839, "lng": -96.933328
},{
"label": "Rancho Viejo", "lat": 16.434516, "lng": -96.900411
},{
"label": "El Carrizal", "lat": 16.394686, "lng": -97.2086
},{
"label": "La Nopalera (San Juan Elotepec)", "lat": 16.839105, "lng": -97.176542
},{
"label": "Yenetzala", "lat": 16.536114, "lng": -96.959181
},{
"label": "Potrerillo", "lat": 16.347755, "lng": -97.012826
},{
"label": "Las Peñas", "lat": 16.455911, "lng": -96.89592
},{
"label": "Zeta", "lat": 16.485952, "lng": -97.061793
},{
"label": "Loma de Ocote (San Juan Elotepec)", "lat": 16.846196, "lng": -97.189085
},{
"label": "El Anís", "lat": 16.562543, "lng": -97.106694
},{
"label": "La Chinea", "lat": 16.337113, "lng": -96.941561
},{
"label": "Llano Monte (San Juan Elotepec)", "lat": 16.824519, "lng": -97.205838
},{
"label": "Guichila (Cuarta Sección)", "lat": 16.451857, "lng": -96.948625
},{
"label": "La Unión (San Felipe Zapotitlán)", "lat": 16.848825, "lng": -97.23582
},{
"label": "San Martín Siempre Viva", "lat": 16.682243, "lng": -96.965061
},{
"label": "Las Casitas", "lat": 16.416759, "lng": -96.933218
},{
"label": "El Chalán", "lat": 16.406571, "lng": -96.973752
},{
"label": "Piedra Colorada", "lat": 16.311736, "lng": -96.898723
},{
"label": "Nopalosho", "lat": 16.315583, "lng": -96.891136
},{
"label": "Xiguiche", "lat": 16.456968, "lng": -96.851291
},{
"label": "Los Órganos", "lat": 16.407644, "lng": -96.932015
},{
"label": "Rancho de Vacas", "lat": 16.378454, "lng": -97.161155
},{
"label": "El Campanario (San Felipe Zapotitlán)", "lat": 16.834434, "lng": -97.235978
},{
"label": "La Cañada", "lat": 16.416759, "lng": -97.023219
},{
"label": "La Labor (San Juan Elotepec)", "lat": 16.853413, "lng": -97.212964
},{
"label": "La Soledad", "lat": 16.357333, "lng": -97.118407
},{
"label": "Guayabo", "lat": 16.565509, "lng": -97.068036
},{
"label": "Chichicastle", "lat": 16.359442, "lng": -97.099832
},{
"label": "El Sitio", "lat": 16.377703, "lng": -97.034042
},{
"label": "El Eslabón", "lat": 16.317845, "lng": -96.89741
},{
"label": "Yuchía (San Felipe Zapotitlán)", "lat": 16.858861, "lng": -97.235274
},{
"label": "El Chaneque de San Miguel (San Juan Elotepec)", "lat": 16.823359, "lng": -97.192626
},{
"label": "Barrio Arriba (Cuarta Sección)", "lat": 16.455378, "lng": -96.947983
},{
"label": "Santa Inés", "lat": 16.456518, "lng": -96.881521
}]