[{
"label": "San Pedro Cuaxoxocatla", "lat": 17.755305, "lng": -98.478481
},{
"label": "Santa Cruz Soledad (Las Casitas)", "lat": 17.771721, "lng": -98.322619
},{
"label": "Guadalupe del Recreo", "lat": 17.800044, "lng": -98.332268
},{
"label": "El Naranjo", "lat": 17.718865, "lng": -98.416075
},{
"label": "Tlacotepec Lagunas", "lat": 17.755984, "lng": -98.323747
},{
"label": "El Palmón Largo", "lat": 17.71578, "lng": -98.405497
},{
"label": "San José el Huamúchil", "lat": 17.827658, "lng": -98.357743
},{
"label": "Zapotitlán Lagunas", "lat": 17.755476, "lng": -98.389575
},{
"label": "La Cruz Blanca [Paraje]", "lat": 17.752271, "lng": -98.379318
},{
"label": "La Soledad", "lat": 17.711288, "lng": -98.401242
},{
"label": "San Miguel Hidalgo", "lat": 17.744722, "lng": -98.395
},{
"label": "Falda del Tepeyac", "lat": 17.759962, "lng": -98.387063
},{
"label": "Guadalupe Buenos Aires", "lat": 17.690527, "lng": -98.455823
},{
"label": "Cerro los Cuates", "lat": 17.699524, "lng": -98.428613
},{
"label": "Santa Cruz Vista Hermosa", "lat": 17.790346, "lng": -98.417008
},{
"label": "Barrio San Isidro", "lat": 17.726993, "lng": -98.399055
}]