[{
"label": "Esperanza", "lat": 16.584972, "lng": -92.872997
},{
"label": "El Recuerdo", "lat": 16.473028, "lng": -92.799588
},{
"label": "La Angostura (El Porvenir)", "lat": 16.415092, "lng": -92.767301
},{
"label": "Nuevo Altamira", "lat": 16.631322, "lng": -92.912297
},{
"label": "El Paraíso", "lat": 16.471403, "lng": -92.794586
},{
"label": "El Rosario", "lat": 16.590715, "lng": -92.878746
},{
"label": "Nanchi Verde", "lat": 16.464824, "lng": -92.795744
},{
"label": "Plan del Higo", "lat": 16.568412, "lng": -92.825559
},{
"label": "La Primavera", "lat": 16.446334, "lng": -92.768449
},{
"label": "Tierra Blanca", "lat": 16.504152, "lng": -92.862865
},{
"label": "El Monte", "lat": 16.542763, "lng": -92.810532
},{
"label": "Veracruz", "lat": 16.446369, "lng": -92.76825
},{
"label": "Hernández Rodríguez", "lat": 16.49909, "lng": -92.863068
},{
"label": "Los Ángeles", "lat": 16.488586, "lng": -92.755573
},{
"label": "Belén", "lat": 16.561313, "lng": -92.78863
},{
"label": "Rafael Coello", "lat": 16.572712, "lng": -92.772254
},{
"label": "San José de Jesús Dos", "lat": 16.450635, "lng": -92.805249
},{
"label": "El Zapote Uno", "lat": 16.571592, "lng": -92.816793
},{
"label": "María de Candelaria", "lat": 16.520326, "lng": -92.84407
},{
"label": "Rizo de Oro", "lat": 16.510268, "lng": -92.883941
},{
"label": "La Aurora Vieja", "lat": 16.451424, "lng": -92.790373
},{
"label": "Río Limón", "lat": 16.560287, "lng": -92.834275
},{
"label": "El Cerrito", "lat": 16.485563, "lng": -92.847018
},{
"label": "El Amatal", "lat": 16.45477, "lng": -92.766736
},{
"label": "El Niño", "lat": 16.456068, "lng": -92.790535
},{
"label": "El Triunfo", "lat": 16.508397, "lng": -92.760326
},{
"label": "San Fernando", "lat": 16.442748, "lng": -92.770745
},{
"label": "La Libertad", "lat": 16.476631, "lng": -92.809722
},{
"label": "San Bernardo", "lat": 16.442646, "lng": -92.779689
},{
"label": "Santa Rosa", "lat": 16.615978, "lng": -92.855657
},{
"label": "Jesús Molano Ruiz", "lat": 16.493299, "lng": -92.833165
},{
"label": "El Chorreadero", "lat": 16.50896, "lng": -92.809025
},{
"label": "Adolfo López Mateos", "lat": 16.608482, "lng": -92.893114
},{
"label": "El Recreo", "lat": 16.575214, "lng": -92.857104
},{
"label": "Tío Chaín", "lat": 16.582765, "lng": -92.870576
},{
"label": "Tierra Brava", "lat": 16.516641, "lng": -92.869776
},{
"label": "San Pedro Pedernal", "lat": 16.525919, "lng": -92.760047
},{
"label": "Quinta Guadalupe", "lat": 16.561585, "lng": -92.832755
},{
"label": "La Candelaria", "lat": 16.592341, "lng": -92.881018
},{
"label": "Los Cocos", "lat": 16.570195, "lng": -92.854863
},{
"label": "Las Palmeras", "lat": 16.569753, "lng": -92.853849
},{
"label": "Lagartero", "lat": 16.555892, "lng": -92.77958
},{
"label": "El Favorito", "lat": 16.529477, "lng": -92.828853
},{
"label": "José María Morelos y Pavón II", "lat": 16.528931, "lng": -92.786991
},{
"label": "San Carlos", "lat": 16.496026, "lng": -92.860638
},{
"label": "Jesús Carrizito", "lat": 16.485387, "lng": -92.79001
},{
"label": "El Barejonal", "lat": 16.540623, "lng": -92.820962
},{
"label": "San Antonio", "lat": 16.489386, "lng": -92.753559
},{
"label": "El Chilar", "lat": 16.573728, "lng": -92.803206
},{
"label": "Matías", "lat": 16.552344, "lng": -92.832384
},{
"label": "El Refugio", "lat": 16.594295, "lng": -92.881263
},{
"label": "Agua Dulce San Isidro", "lat": 16.497084, "lng": -92.82214
},{
"label": "Real de Guadalupe", "lat": 16.594372, "lng": -92.879413
},{
"label": "El Tesoro", "lat": 16.457454, "lng": -92.752901
},{
"label": "El Porvenir", "lat": 16.461013, "lng": -92.785172
},{
"label": "El Zapote Dos", "lat": 16.583054, "lng": -92.820421
},{
"label": "El Calero", "lat": 16.508719, "lng": -92.763314
},{
"label": "El Paquesch", "lat": 16.556741, "lng": -92.826704
},{
"label": "Tres Hermanos", "lat": 16.454248, "lng": -92.796336
},{
"label": "Nuevo Laredo los Manguitos", "lat": 16.521601, "lng": -92.815653
},{
"label": "San José de los Planes", "lat": 16.460403, "lng": -92.824305
},{
"label": "Los Sauces", "lat": 16.470895, "lng": -92.83804
},{
"label": "Jorge Molina Ordóñez", "lat": 16.496584, "lng": -92.832153
},{
"label": "Los Gavilanes", "lat": 16.450285, "lng": -92.78637
},{
"label": "Lucio Blanco", "lat": 16.461696, "lng": -92.753943
},{
"label": "La Angostura", "lat": 16.418483, "lng": -92.763296
},{
"label": "El Bajío", "lat": 16.429153, "lng": -92.754561
},{
"label": "Guadalupe de los Llanos", "lat": 16.493525, "lng": -92.807243
},{
"label": "Solo Dios", "lat": 16.481817, "lng": -92.812354
},{
"label": "San Joaquín", "lat": 16.441256, "lng": -92.773109
},{
"label": "Nueva Esperanza", "lat": 16.583679, "lng": -92.862918
},{
"label": "Camino Pintado", "lat": 16.609808, "lng": -92.892261
},{
"label": "María del Carmen Flores", "lat": 16.510871, "lng": -92.849452
},{
"label": "Las Margaritas", "lat": 16.584086, "lng": -92.873636
},{
"label": "Santo Tomás", "lat": 16.443473, "lng": -92.786416
},{
"label": "El Nacimiento", "lat": 16.535903, "lng": -92.788833
},{
"label": "Unión Buenavista", "lat": 16.486766, "lng": -92.819411
},{
"label": "Cupijamo", "lat": 16.550996, "lng": -92.785055
},{
"label": "Roberto Albores Guillén", "lat": 16.547896, "lng": -92.813561
},{
"label": "Manuel Cruz Matambu", "lat": 16.50203, "lng": -92.831328
},{
"label": "Puerto México", "lat": 16.54621, "lng": -92.813431
},{
"label": "Nueva Libertad", "lat": 16.580219, "lng": -92.858019
},{
"label": "La Herradura", "lat": 16.495749, "lng": -92.758736
},{
"label": "Miriam Pérez", "lat": 16.508307, "lng": -92.851548
},{
"label": "Monte Sinaí", "lat": 16.44875, "lng": -92.803791
},{
"label": "La Providencia", "lat": 16.63828, "lng": -92.909109
},{
"label": "El Girasol", "lat": 16.498829, "lng": -92.860853
},{
"label": "Las Orquídeas", "lat": 16.496498, "lng": -92.860041
},{
"label": "Villa Aurora", "lat": 16.494386, "lng": -92.824641
},{
"label": "El Crucero", "lat": 16.498682, "lng": -92.862605
},{
"label": "La Aurora Nueva", "lat": 16.451461, "lng": -92.80119
},{
"label": "El Centenario", "lat": 16.557299, "lng": -92.789351
},{
"label": "Santa Cruz", "lat": 16.519944, "lng": -92.76763
},{
"label": "Ciro Pérez Méndez", "lat": 16.496154, "lng": -92.82951
},{
"label": "Santa Elena", "lat": 16.507718, "lng": -92.888022
},{
"label": "La Rocallosa", "lat": 16.547953, "lng": -92.80894
},{
"label": "San Vicente", "lat": 16.492855, "lng": -92.833803
},{
"label": "Piedra del Tigre", "lat": 16.566636, "lng": -92.809206
},{
"label": "El Azufre", "lat": 16.440359, "lng": -92.763471
},{
"label": "El Triunfo de Tila", "lat": 16.602896, "lng": -92.894009
},{
"label": "La Ceiba", "lat": 16.605717, "lng": -92.890354
},{
"label": "Agua Dulce", "lat": 16.502745, "lng": -92.835209
},{
"label": "Agua Dulce (Buenos Aires)", "lat": 16.508158, "lng": -92.851039
},{
"label": "San José Nichi", "lat": 16.60222, "lng": -92.74056
},{
"label": "Los Nopales", "lat": 16.466266, "lng": -92.798707
},{
"label": "San Judas Tadeo", "lat": 16.51579, "lng": -92.848562
},{
"label": "Los Laureles", "lat": 16.610349, "lng": -92.887991
},{
"label": "Acala", "lat": 16.551674, "lng": -92.807508
},{
"label": "San Luis el Alto", "lat": 16.481157, "lng": -92.7443
},{
"label": "Guadalupe Robles C.", "lat": 16.453139, "lng": -92.806181
},{
"label": "San Pedro Nichi", "lat": 16.575735, "lng": -92.785164
},{
"label": "Las Casitas", "lat": 16.497055, "lng": -92.812738
},{
"label": "Las Minas", "lat": 16.647793, "lng": -92.8648
},{
"label": "Santa Isabel", "lat": 16.447978, "lng": -92.795657
},{
"label": "Humberto Serrano", "lat": 16.491251, "lng": -92.851733
},{
"label": "Monte de los Olivos", "lat": 16.524742, "lng": -92.840528
},{
"label": "San Juan", "lat": 16.503416, "lng": -92.753706
},{
"label": "Frontera de Grijalva", "lat": 16.513468, "lng": -92.848082
},{
"label": "Nandamuju", "lat": 16.591712, "lng": -92.879849
},{
"label": "San Antonio (Agua Clara)", "lat": 16.526817, "lng": -92.783798
},{
"label": "El Desengaño", "lat": 16.477065, "lng": -92.810342
},{
"label": "La Esperanza", "lat": 16.571186, "lng": -92.849411
},{
"label": "Vicente", "lat": 16.494063, "lng": -92.830193
},{
"label": "San Francisco", "lat": 16.542971, "lng": -92.817927
},{
"label": "Las Mercedes", "lat": 16.624977, "lng": -92.909012
},{
"label": "San Luis el Bajo", "lat": 16.47633, "lng": -92.750806
},{
"label": "Nandayapa", "lat": 16.5552, "lng": -92.776041
},{
"label": "El Sauce", "lat": 16.456025, "lng": -92.794423
},{
"label": "El Rosarito", "lat": 16.545266, "lng": -92.79551
},{
"label": "San José de Jesús", "lat": 16.445032, "lng": -92.812951
}]