[{
"label": "Venustiano Carranza", "lat": 16.670869, "lng": -91.817711
},{
"label": "Altamirano", "lat": 16.73592, "lng": -92.038594
},{
"label": "El Carmen", "lat": 16.712369, "lng": -91.879181
},{
"label": "Carmen Laguna", "lat": 16.690423, "lng": -91.939085
},{
"label": "Villaflores", "lat": 16.553505, "lng": -91.632668
},{
"label": "La Grandeza", "lat": 16.710236, "lng": -91.787017
},{
"label": "El Pericón", "lat": 16.796502, "lng": -92.031248
},{
"label": "La Central", "lat": 16.743961, "lng": -92.122243
},{
"label": "Las Nubes", "lat": 16.719246, "lng": -92.054757
},{
"label": "Campo Virgen (El Paraje)", "lat": 16.697353, "lng": -91.849098
},{
"label": "Plan de Ayala", "lat": 16.722582, "lng": -92.061593
},{
"label": "San José el Oriente", "lat": 16.543054, "lng": -91.617453
},{
"label": "Monterrey", "lat": 16.536491, "lng": -91.642632
},{
"label": "El Rosario", "lat": 16.717941, "lng": -91.901376
},{
"label": "Belisario Domínguez", "lat": 16.644147, "lng": -91.741482
},{
"label": "Villahermosa", "lat": 16.59686, "lng": -91.700066
},{
"label": "Onilja", "lat": 16.753188, "lng": -92.095912
},{
"label": "San Pedro Guerrero", "lat": 16.644843, "lng": -91.824361
},{
"label": "El Horizonte", "lat": 16.680433, "lng": -91.787812
},{
"label": "Buenavista", "lat": 16.711997, "lng": -91.949419
},{
"label": "Santa Lucia", "lat": 16.733893, "lng": -92.106276
},{
"label": "Cuauhtémoc", "lat": 16.697258, "lng": -92.034523
},{
"label": "El Oriente", "lat": 16.54831, "lng": -91.635085
},{
"label": "Poblado Nuevo Altamirano", "lat": 16.70267, "lng": -92.041582
},{
"label": "San Isidro", "lat": 16.576335, "lng": -91.912971
},{
"label": "El Camalote", "lat": 16.534986, "lng": -91.631368
},{
"label": "Buena Vista", "lat": 16.614581, "lng": -91.793921
},{
"label": "Getzemaní", "lat": 16.516834, "lng": -91.775719
},{
"label": "Santa Rosa las Flores", "lat": 16.714412, "lng": -92.051977
},{
"label": "Puebla Nuevo", "lat": 16.641893, "lng": -91.936091
},{
"label": "El Arbolito", "lat": 16.504938, "lng": -91.761064
},{
"label": "San Luis", "lat": 16.736124, "lng": -92.107999
},{
"label": "Maderas de Altamirano [Aserradero]", "lat": 16.709089, "lng": -92.043381
},{
"label": "Unidad Habitacional 11 CINE", "lat": 16.713787, "lng": -92.044999
},{
"label": "California", "lat": 16.736324, "lng": -91.801946
},{
"label": "Nueva Virginia", "lat": 16.548057, "lng": -91.71868
},{
"label": "Nuestro Señor de Esquipulas", "lat": 16.790504, "lng": -92.016233
},{
"label": "Agua Escondida las Esperanzas", "lat": 16.582168, "lng": -91.600001
},{
"label": "Anexo Santa Rita", "lat": 16.550594, "lng": -91.712592
},{
"label": "Lucio Cabañas", "lat": 16.655267, "lng": -91.849254
},{
"label": "El Triunfo", "lat": 16.674539, "lng": -91.755548
},{
"label": "Los Bambúes", "lat": 16.60929, "lng": -91.724736
},{
"label": "Puebla Viejo", "lat": 16.648219, "lng": -91.949902
},{
"label": "Nuevo Progreso", "lat": 16.652756, "lng": -91.760111
},{
"label": "Nuevo Centro Getzemaní", "lat": 16.511378, "lng": -91.768873
},{
"label": "Agua Escondida (Rancho Alegre)", "lat": 16.580716, "lng": -91.572874
},{
"label": "San Caralampio", "lat": 16.691496, "lng": -91.841522
},{
"label": "El Parrandero (Casa Blanca)", "lat": 16.706763, "lng": -92.043137
},{
"label": "El Banco", "lat": 16.701297, "lng": -92.042333
},{
"label": "Santa Rosa", "lat": 16.595966, "lng": -91.756436
},{
"label": "La Florida", "lat": 16.641394, "lng": -91.986534
},{
"label": "Saltillo", "lat": 16.650859, "lng": -91.836171
},{
"label": "Guadalupe", "lat": 16.553495, "lng": -91.632113
},{
"label": "Puerto Rico", "lat": 16.610354, "lng": -91.87397
},{
"label": "Campo Alegre", "lat": 16.713039, "lng": -91.975066
},{
"label": "El Oriente (Cañada de Álvarez)", "lat": 16.556165, "lng": -91.648432
},{
"label": "Villa Paraíso", "lat": 16.707958, "lng": -92.042738
},{
"label": "Brasil", "lat": 16.627447, "lng": -91.819496
},{
"label": "Guadalupe Victoria", "lat": 16.553724, "lng": -91.776836
},{
"label": "Nuevo Joaquín Miguel Gutiérrez", "lat": 16.791533, "lng": -92.038517
},{
"label": "Morelia (Victórico Rodolfo Grajales)", "lat": 16.723985, "lng": -91.969095
},{
"label": "El Venadito", "lat": 16.728822, "lng": -91.974525
},{
"label": "Ocho de Marzo", "lat": 16.689428, "lng": -91.838393
},{
"label": "Anexo Nueva Delicias", "lat": 16.615946, "lng": -91.789209
},{
"label": "San Miguel Chiptic", "lat": 16.619818, "lng": -91.991126
},{
"label": "Santa Rosita", "lat": 16.731589, "lng": -92.047122
},{
"label": "Lindavista (El Encanto)", "lat": 16.624274, "lng": -91.87926
},{
"label": "Lindavista", "lat": 16.656744, "lng": -91.75839
},{
"label": "Sociedad la Victoria", "lat": 16.679371, "lng": -91.826774
},{
"label": "Fracción Quinta el Oriente", "lat": 16.550546, "lng": -91.623224
},{
"label": "Linda Vista", "lat": 16.567482, "lng": -91.763341
},{
"label": "El Palomar", "lat": 16.709849, "lng": -92.042838
},{
"label": "Poza Rica", "lat": 16.730176, "lng": -92.052936
},{
"label": "Primero de Mayo", "lat": 16.62537, "lng": -91.794457
},{
"label": "Los Olivos", "lat": 16.542121, "lng": -91.62874
},{
"label": "Palestina", "lat": 16.51201, "lng": -91.765679
},{
"label": "Italia", "lat": 16.629365, "lng": -91.877712
},{
"label": "El Jordán", "lat": 16.531396, "lng": -91.629909
},{
"label": "Nueve de Febrero", "lat": 16.600494, "lng": -91.703503
},{
"label": "La Trinidad", "lat": 16.712537, "lng": -91.878077
},{
"label": "El Nuevo Jardín", "lat": 16.591582, "lng": -91.75693
},{
"label": "Agua Escondida la Florinda", "lat": 16.590052, "lng": -91.564589
},{
"label": "San Juan del Bosque", "lat": 16.544032, "lng": -91.612195
},{
"label": "Villa Jerusalén", "lat": 16.718853, "lng": -92.045884
},{
"label": "Los Tres Hermanos", "lat": 16.713888, "lng": -91.881054
},{
"label": "Rancho Nuevo", "lat": 16.715449, "lng": -91.881665
},{
"label": "Gabino Barrera (Pamala)", "lat": 16.736639, "lng": -91.991649
},{
"label": "Bello Paraíso", "lat": 16.563903, "lng": -91.732103
},{
"label": "Santa Cecilia", "lat": 16.804144, "lng": -91.967529
},{
"label": "Diez de Abril", "lat": 16.668016, "lng": -92.018501
},{
"label": "La Laguna", "lat": 16.692385, "lng": -91.948612
},{
"label": "Santa Elena de la Cruz", "lat": 16.728639, "lng": -92.090916
},{
"label": "Los Gavilanes", "lat": 16.706728, "lng": -92.069468
},{
"label": "San José Belén 2da. Sección", "lat": 16.55417, "lng": -91.82917
},{
"label": "Flor de Mayo", "lat": 16.54205, "lng": -91.639636
},{
"label": "12 de Octubre", "lat": 16.717014, "lng": -92.049206
},{
"label": "Santa Ana", "lat": 16.531801, "lng": -91.614495
},{
"label": "El Calvario", "lat": 16.521827, "lng": -91.730989
},{
"label": "Solo Dios", "lat": 16.707339, "lng": -91.865688
},{
"label": "19 de Diciembre", "lat": 16.703328, "lng": -92.036843
},{
"label": "Nueva Esperanza", "lat": 16.730834, "lng": -92.103553
},{
"label": "Anexo Monterrey", "lat": 16.655435, "lng": -91.776908
},{
"label": "Agua Escondida el Ocotal", "lat": 16.590842, "lng": -91.599139
},{
"label": "El Conejito", "lat": 16.841747, "lng": -92.029507
},{
"label": "Las Perlas", "lat": 16.799524, "lng": -92.014396
},{
"label": "La Nueva Reforma", "lat": 16.694163, "lng": -92.022069
},{
"label": "El Ocotal", "lat": 16.683492, "lng": -91.902768
},{
"label": "Nueva Delicias", "lat": 16.61785, "lng": -91.78784
},{
"label": "Emiliano Zapata", "lat": 16.684125, "lng": -91.787598
},{
"label": "Tres de Mayo", "lat": 16.60227, "lng": -91.768446
},{
"label": "Ocho de Octubre", "lat": 16.679441, "lng": -91.789247
},{
"label": "Primero de Enero", "lat": 16.647974, "lng": -91.843034
},{
"label": "Aguascalientes Dos", "lat": 16.547217, "lng": -91.773006
},{
"label": "Carmen Rusia", "lat": 16.578356, "lng": -91.838227
},{
"label": "Nueva Revolución", "lat": 16.698244, "lng": -91.867279
},{
"label": "Santo Tomás los Cimientos", "lat": 16.739539, "lng": -91.963333
},{
"label": "El Ciprés", "lat": 16.712803, "lng": -91.880653
},{
"label": "Rancho Alegre", "lat": 16.712133, "lng": -91.878646
},{
"label": "El Zapotal", "lat": 16.547234, "lng": -91.632311
},{
"label": "Chenchoj la Cumbre", "lat": 16.783526, "lng": -91.92017
},{
"label": "El Naranjo", "lat": 16.542054, "lng": -91.634711
},{
"label": "Aguascalientes", "lat": 16.724951, "lng": -91.961759
},{
"label": "Tierra y Libertad", "lat": 16.593457, "lng": -91.767564
},{
"label": "Nuevo Tulipán", "lat": 16.515494, "lng": -91.76294
},{
"label": "Delicias Pachán", "lat": 16.619111, "lng": -91.787313
},{
"label": "Nuevo Lázaro Cárdenas", "lat": 16.710719, "lng": -91.873981
},{
"label": "Candelaria", "lat": 16.582635, "lng": -91.843152
},{
"label": "San José Belén", "lat": 16.56907, "lng": -91.816801
},{
"label": "Nazaret", "lat": 16.498211, "lng": -91.764987
},{
"label": "Santa Cruz [Aserradero]", "lat": 16.716522, "lng": -92.050861
},{
"label": "San Luis Potosí Dos", "lat": 16.593126, "lng": -91.672514
},{
"label": "Santa Cruz", "lat": 16.712624, "lng": -91.879204
},{
"label": "Jalisco", "lat": 16.746457, "lng": -92.016922
},{
"label": "Puyija", "lat": 16.705299, "lng": -92.062715
},{
"label": "Nuevo Jordán", "lat": 16.609528, "lng": -91.944194
},{
"label": "Santa Margarita", "lat": 16.81389, "lng": -92.02222
},{
"label": "San Antonio Monterrey", "lat": 16.659066, "lng": -91.774679
},{
"label": "Nuevo San Carlos", "lat": 16.694427, "lng": -91.967989
},{
"label": "Río América", "lat": 16.587859, "lng": -91.687572
},{
"label": "Laguna el Paraíso", "lat": 16.713266, "lng": -91.881102
},{
"label": "Joaquín Miguel Gutiérrez (Rancho Mateo)", "lat": 16.818262, "lng": -92.034143
},{
"label": "Nueva Codicia", "lat": 16.806044, "lng": -91.932244
},{
"label": "San Juan del Río", "lat": 16.617272, "lng": -91.730177
},{
"label": "El Caracol", "lat": 16.543548, "lng": -91.640744
},{
"label": "Nueva Galilea", "lat": 16.624856, "lng": -91.778333
},{
"label": "Las Maravillas", "lat": 16.634442, "lng": -91.761253
},{
"label": "7 de Enero", "lat": 16.709809, "lng": -91.900927
},{
"label": "Pusila", "lat": 16.601706, "lng": -91.791465
},{
"label": "Las Flores", "lat": 16.712142, "lng": -91.878926
},{
"label": "San Marcos", "lat": 16.628672, "lng": -91.719411
},{
"label": "San Juan", "lat": 16.779776, "lng": -92.050444
},{
"label": "San Antonio la Pimienta", "lat": 16.746233, "lng": -92.117848
},{
"label": "El Nance", "lat": 16.616324, "lng": -91.960739
},{
"label": "Gabino Barrera (Nuevo Centro)", "lat": 16.690738, "lng": -92.013638
},{
"label": "Diez de Mayo", "lat": 16.673521, "lng": -91.873443
},{
"label": "La Esperanza", "lat": 16.731453, "lng": -91.982198
},{
"label": "El Limonal", "lat": 16.654761, "lng": -91.758962
},{
"label": "Nuevo Jerusalén", "lat": 16.614835, "lng": -91.969769
},{
"label": "San Francisco", "lat": 16.602603, "lng": -91.734903
},{
"label": "San José la Libertad", "lat": 16.564519, "lng": -91.659077
},{
"label": "Francisco Villa", "lat": 16.615715, "lng": -91.763312
},{
"label": "Guadalupe Chitultic", "lat": 16.738525, "lng": -91.989547
},{
"label": "Sinaloa", "lat": 16.5622, "lng": -91.656196
},{
"label": "San Antonio las Delicias Pachán", "lat": 16.621919, "lng": -91.781017
},{
"label": "Luis Espinoza", "lat": 16.587952, "lng": -91.62196
},{
"label": "San Luis Potosí", "lat": 16.604415, "lng": -91.645975
},{
"label": "Primera Ampliación de Luis Espinosa", "lat": 16.550798, "lng": -91.641456
},{
"label": "Montecristo", "lat": 16.697035, "lng": -91.847926
}]