[{
"label": "La Concordia", "lat": 17.49366, "lng": -92.884251
},{
"label": "Nueva Estrella", "lat": 17.295403, "lng": -92.818482
},{
"label": "El Carmen", "lat": 17.505, "lng": -92.875
},{
"label": "Villaflores", "lat": 17.413666, "lng": -92.890755
},{
"label": "Rosario 1ra. Sección", "lat": 17.424098, "lng": -92.91837
},{
"label": "La Loma el Llano", "lat": 17.378344, "lng": -92.787069
},{
"label": "El Belén", "lat": 17.354124, "lng": -92.766301
},{
"label": "El Naranjo 1ra.", "lat": 17.355739, "lng": -92.843715
},{
"label": "Monterrey", "lat": 17.408443, "lng": -92.886102
},{
"label": "Anexo Amatán", "lat": 17.367303, "lng": -92.822773
},{
"label": "El Paraíso", "lat": 17.452677, "lng": -92.895194
},{
"label": "La Gloria", "lat": 17.35972, "lng": -92.875
},{
"label": "Esquipulas", "lat": 17.354043, "lng": -92.771011
},{
"label": "Escalón 1ra. Fracción (El Baril)", "lat": 17.388683, "lng": -92.846001
},{
"label": "Buenavista", "lat": 17.346453, "lng": -92.858149
},{
"label": "Piedra Redonda", "lat": 17.395381, "lng": -92.787298
},{
"label": "El Limón 2da. Sección", "lat": 17.308615, "lng": -92.830538
},{
"label": "Congregación la Loma 2da. Sección", "lat": 17.379903, "lng": -92.794423
},{
"label": "Arroyo Seco", "lat": 17.325053, "lng": -92.812228
},{
"label": "Buenos Aires (Limoncito)", "lat": 17.319053, "lng": -92.828609
},{
"label": "El Cerrito Puyacatengo", "lat": 17.419743, "lng": -92.894138
},{
"label": "San Lorenzo", "lat": 17.37477, "lng": -92.920134
},{
"label": "Sumidero", "lat": 17.370472, "lng": -92.805259
},{
"label": "Mazatlán", "lat": 17.415724, "lng": -92.890581
},{
"label": "Constitución", "lat": 17.455867, "lng": -92.879246
},{
"label": "Valentín de la Sierra", "lat": 17.422477, "lng": -92.866017
},{
"label": "El Santuario", "lat": 17.396133, "lng": -92.882699
},{
"label": "Nueva York", "lat": 17.354893, "lng": -92.777044
},{
"label": "San Fernando", "lat": 17.287738, "lng": -92.817663
},{
"label": "Rosario Tercera Sección", "lat": 17.418759, "lng": -92.916393
},{
"label": "Piedra Blanca", "lat": 17.323919, "lng": -92.841903
},{
"label": "Adolfo López Mateos", "lat": 17.493997, "lng": -92.891948
},{
"label": "Francisco I. Madero Ampliación", "lat": 17.452946, "lng": -92.908268
},{
"label": "El Mirador (Berlín)", "lat": 17.283794, "lng": -92.844077
},{
"label": "San Sebastián 2da. Sección", "lat": 17.405271, "lng": -92.828367
},{
"label": "La Estrella (Miguel Alamilla)", "lat": 17.480533, "lng": -92.895799
},{
"label": "Guadalupe Victoria", "lat": 17.368853, "lng": -92.872192
},{
"label": "La Candelaria", "lat": 17.395026, "lng": -92.890809
},{
"label": "El Retiro", "lat": 17.346035, "lng": -92.757702
},{
"label": "Nuevo San Lorenzo (La Choza)", "lat": 17.37842, "lng": -92.832311
},{
"label": "Flor del Río", "lat": 17.375148, "lng": -92.768646
},{
"label": "Esmeralda", "lat": 17.47028, "lng": -92.85167
},{
"label": "Lindavista 1ra. Sección", "lat": 17.398548, "lng": -92.810482
},{
"label": "Lindavista", "lat": 17.406463, "lng": -92.815897
},{
"label": "Cerro Azul (Rancho)", "lat": 17.391452, "lng": -92.893881
},{
"label": "Lindavista 2da. Sección", "lat": 17.396164, "lng": -92.810525
},{
"label": "San Carlos", "lat": 17.489193, "lng": -92.872537
},{
"label": "Morelos los Chávez", "lat": 17.389975, "lng": -92.784843
},{
"label": "Santa Cruz el Azufre", "lat": 17.457422, "lng": -92.925014
},{
"label": "Primavera", "lat": 17.404774, "lng": -92.885126
},{
"label": "Los Hernández", "lat": 17.482961, "lng": -92.914399
},{
"label": "San Antonio", "lat": 17.434956, "lng": -92.864453
},{
"label": "Nuevo Acapulco", "lat": 17.452318, "lng": -92.900246
},{
"label": "La Selva", "lat": 17.295329, "lng": -92.795978
},{
"label": "El Porvenir Tres Picos", "lat": 17.340157, "lng": -92.868101
},{
"label": "La Esmeralda", "lat": 17.410357, "lng": -92.902099
},{
"label": "Anexo la Loma", "lat": 17.374948, "lng": -92.789514
},{
"label": "El Recibimiento", "lat": 17.389581, "lng": -92.829626
},{
"label": "Vida Mejor", "lat": 17.323971, "lng": -92.863585
},{
"label": "Amatán", "lat": 17.372848, "lng": -92.819123
},{
"label": "Lonchén", "lat": 17.306118, "lng": -92.827952
},{
"label": "Benito Juárez", "lat": 17.326119, "lng": -92.862668
},{
"label": "El Porvenir Tres Picos 2da. Sección", "lat": 17.338846, "lng": -92.868696
},{
"label": "Tres Hermanos", "lat": 17.377617, "lng": -92.823068
},{
"label": "La Lomita", "lat": 17.351408, "lng": -92.847445
},{
"label": "San José Puyacatengo", "lat": 17.433337, "lng": -92.897383
},{
"label": "Valentín de la Sierra (Sección Buenavista)", "lat": 17.420462, "lng": -92.854154
},{
"label": "El Limón", "lat": 17.308913, "lng": -92.819512
},{
"label": "Lindavista (Palestina)", "lat": 17.36528, "lng": -92.91806
},{
"label": "La Loma 1ra. Sección", "lat": 17.375317, "lng": -92.793567
},{
"label": "El Calvario", "lat": 17.315286, "lng": -92.85039
},{
"label": "Carmen Jucuma", "lat": 17.396455, "lng": -92.910344
},{
"label": "San Felipe", "lat": 17.49111, "lng": -92.87417
},{
"label": "San Andrés", "lat": 17.3275, "lng": -92.7675
},{
"label": "Zapotal", "lat": 17.3525, "lng": -92.80528
},{
"label": "Las Delicias", "lat": 17.388701, "lng": -92.823273
},{
"label": "Los Olivares", "lat": 17.35612, "lng": -92.766753
},{
"label": "Chaspa", "lat": 17.391133, "lng": -92.823631
},{
"label": "Emiliano Zapata", "lat": 17.33536, "lng": -92.765822
},{
"label": "San Sebastián", "lat": 17.406339, "lng": -92.83031
},{
"label": "La Granja", "lat": 17.345087, "lng": -92.850274
},{
"label": "El Remolino", "lat": 17.34678, "lng": -92.843086
},{
"label": "Las Gardenias", "lat": 17.358664, "lng": -92.821732
},{
"label": "La Guadalupe", "lat": 17.485038, "lng": -92.867001
},{
"label": "Rancho Alegre", "lat": 17.409852, "lng": -92.886274
},{
"label": "Morelos", "lat": 17.402629, "lng": -92.894465
},{
"label": "El Cajón", "lat": 17.405649, "lng": -92.848199
},{
"label": "Nuevo Arenal 2da. Sección (La Esperanza)", "lat": 17.472813, "lng": -92.881968
},{
"label": "Acapulco", "lat": 17.413414, "lng": -92.861296
},{
"label": "Cerro Colorado", "lat": 17.354679, "lng": -92.813333
},{
"label": "San José Buenavista", "lat": 17.354498, "lng": -92.856081
},{
"label": "Linda Vista Arroyo Grande", "lat": 17.406876, "lng": -92.802015
},{
"label": "Morelia 2da. Sección", "lat": 17.357795, "lng": -92.772174
},{
"label": "Estrella", "lat": 17.287018, "lng": -92.811281
},{
"label": "Rosario 2da. Sección", "lat": 17.431589, "lng": -92.91171
},{
"label": "San Pedro", "lat": 17.406258, "lng": -92.882879
},{
"label": "La Maravilla", "lat": 17.409155, "lng": -92.883648
},{
"label": "Cerro del Zapotal", "lat": 17.40718, "lng": -92.904776
},{
"label": "Reforma y Planada", "lat": 17.387132, "lng": -92.866149
},{
"label": "Santa Cruz", "lat": 17.394935, "lng": -92.877742
},{
"label": "Cuatro Milpas", "lat": 17.477351, "lng": -92.869611
},{
"label": "Nanchital", "lat": 17.406543, "lng": -92.877672
},{
"label": "Los Méndez", "lat": 17.350141, "lng": -92.839573
},{
"label": "San Andrés Tres Picos", "lat": 17.324468, "lng": -92.86624
},{
"label": "Anexo las Margaritas (San Martín)", "lat": 17.296805, "lng": -92.83572
},{
"label": "Villa Luz", "lat": 17.400137, "lng": -92.879331
},{
"label": "San José (Bartolo)", "lat": 17.388113, "lng": -92.902359
},{
"label": "Cerro Blanco", "lat": 17.338461, "lng": -92.833336
},{
"label": "Berlín", "lat": 17.28722, "lng": -92.841554
},{
"label": "Nuevo Arenal 1ra. Sección", "lat": 17.487527, "lng": -92.89735
},{
"label": "Sonora", "lat": 17.412216, "lng": -92.868896
},{
"label": "La Planada (El Palmar)", "lat": 17.34389, "lng": -92.79472
},{
"label": "San Marcos", "lat": 17.48278, "lng": -92.87917
},{
"label": "Nuevo Terán", "lat": 17.330256, "lng": -92.860516
},{
"label": "El Naranjo 2da. Sección", "lat": 17.385359, "lng": -92.79843
},{
"label": "San José la Loma", "lat": 17.464954, "lng": -92.88288
},{
"label": "El Platanar", "lat": 17.356366, "lng": -92.80231
},{
"label": "San Miguel Tres Picos", "lat": 17.326306, "lng": -92.860089
},{
"label": "Miguel Hidalgo", "lat": 17.472368, "lng": -92.911644
},{
"label": "La Esperanza", "lat": 17.313106, "lng": -92.799985
},{
"label": "Primavera (El Suspiro)", "lat": 17.403157, "lng": -92.884958
},{
"label": "Tierra Morada", "lat": 17.351869, "lng": -92.814436
},{
"label": "Morelia", "lat": 17.357423, "lng": -92.771393
},{
"label": "Francisco I. Madero", "lat": 17.440683, "lng": -92.918214
},{
"label": "Francisco Villa", "lat": 17.322441, "lng": -92.825241
},{
"label": "Pueblo Nuevo de la Nueva Constitución", "lat": 17.380614, "lng": -92.856012
},{
"label": "San Antonio Tres Picos", "lat": 17.321891, "lng": -92.863529
},{
"label": "Escalón", "lat": 17.372945, "lng": -92.829881
},{
"label": "El Chinal", "lat": 17.478687, "lng": -92.868063
}]