[{
"label": "Pie del Cerro", "lat": 16.531701, "lng": -92.427549
},{
"label": "El Madronal", "lat": 16.512256, "lng": -92.436842
},{
"label": "Campo Grande", "lat": 16.509382, "lng": -92.383386
},{
"label": "San José la Reforma", "lat": 16.468624, "lng": -92.34829
},{
"label": "San Isidro Lindavista", "lat": 16.490648, "lng": -92.324088
},{
"label": "El Paraíso", "lat": 16.507309, "lng": -92.332269
},{
"label": "El Rosario", "lat": 16.505792, "lng": -92.356994
},{
"label": "La Gloria", "lat": 16.503375, "lng": -92.426412
},{
"label": "Unión Buenavista", "lat": 16.524646, "lng": -92.373341
},{
"label": "Guadalupe Porvenir", "lat": 16.476344, "lng": -92.325775
},{
"label": "San Ramón Buenavista", "lat": 16.473718, "lng": -92.335976
},{
"label": "Rosario Tzontehuitz", "lat": 16.553526, "lng": -92.450869
},{
"label": "San Gregorio", "lat": 16.529382, "lng": -92.356623
},{
"label": "San Sebastián", "lat": 16.503909, "lng": -92.335553
},{
"label": "San Isidro", "lat": 16.531426, "lng": -92.340996
},{
"label": "San Isidro las Cuevas", "lat": 16.554728, "lng": -92.339906
},{
"label": "Rancho Alegre", "lat": 16.477319, "lng": -92.324933
},{
"label": "Monte Sinaí", "lat": 16.481535, "lng": -92.327699
},{
"label": "La Merced", "lat": 16.548618, "lng": -92.33978
},{
"label": "San Pedro las Flores", "lat": 16.562126, "lng": -92.34405
},{
"label": "Los Cipreses", "lat": 16.499705, "lng": -92.338113
},{
"label": "San José la Florecilla", "lat": 16.526813, "lng": -92.33355
},{
"label": "Candelaria Buenavista", "lat": 16.487081, "lng": -92.320773
},{
"label": "Santiago Buenavista", "lat": 16.489924, "lng": -92.338003
},{
"label": "San Caralampio Chavín", "lat": 16.454558, "lng": -92.476384
},{
"label": "San José Yojulún", "lat": 16.473116, "lng": -92.321088
},{
"label": "San Agustín", "lat": 16.504111, "lng": -92.316349
},{
"label": "San Caralampio", "lat": 16.494074, "lng": -92.350878
},{
"label": "El Rosario II", "lat": 16.509005, "lng": -92.356821
},{
"label": "San Vicente la Piedra", "lat": 16.551813, "lng": -92.386412
},{
"label": "Campo Alegre", "lat": 16.509135, "lng": -92.371678
},{
"label": "San José Cruz Quemada", "lat": 16.509912, "lng": -92.331679
},{
"label": "San Caralampio Dos", "lat": 16.464371, "lng": -92.315474
},{
"label": "San Miguel el Alto", "lat": 16.495034, "lng": -92.359039
},{
"label": "Rancho Viejo", "lat": 16.507669, "lng": -92.368934
},{
"label": "Nuevo Poblado el Sacrificio", "lat": 16.509328, "lng": -92.377356
},{
"label": "San Juan del Río", "lat": 16.467405, "lng": -92.321175
},{
"label": "María Cristina", "lat": 16.498244, "lng": -92.354345
},{
"label": "San Juan del Río II", "lat": 16.466909, "lng": -92.323935
},{
"label": "La Granada", "lat": 16.536004, "lng": -92.443661
},{
"label": "San Nicolás", "lat": 16.522343, "lng": -92.418616
},{
"label": "Amatenango del Valle", "lat": 16.528501, "lng": -92.435491
},{
"label": "Manzanillo", "lat": 16.502861, "lng": -92.323058
},{
"label": "La Tejonera", "lat": 16.543519, "lng": -92.3769
},{
"label": "Yalchitán", "lat": 16.564024, "lng": -92.418853
},{
"label": "San Carlos", "lat": 16.49786, "lng": -92.338594
},{
"label": "San Antonio Buenavista", "lat": 16.534396, "lng": -92.344554
},{
"label": "San Fernando las Flores", "lat": 16.56281, "lng": -92.344508
},{
"label": "San José la Ventana", "lat": 16.536529, "lng": -92.377715
},{
"label": "Tulanca", "lat": 16.511108, "lng": -92.372208
},{
"label": "Cruz Quemada", "lat": 16.500886, "lng": -92.336139
},{
"label": "Nuevo Jerusalén", "lat": 16.478748, "lng": -92.348841
},{
"label": "Morelia", "lat": 16.510609, "lng": -92.335784
},{
"label": "La Cañada", "lat": 16.532222, "lng": -92.445833
},{
"label": "Benito Juárez", "lat": 16.480591, "lng": -92.430606
},{
"label": "Rancho Nuevo", "lat": 16.482011, "lng": -92.351748
},{
"label": "San Salvador Buenavista", "lat": 16.485398, "lng": -92.333773
},{
"label": "Santa Anita", "lat": 16.481993, "lng": -92.339872
}]