[{
"label": "Venustiano Carranza", "lat": 16.961369, "lng": -92.929947
},{
"label": "Ního", "lat": 17.016744, "lng": -92.925295
},{
"label": "Ajiló", "lat": 16.983271, "lng": -92.939333
},{
"label": "El Tulipán", "lat": 17.011469, "lng": -92.899458
},{
"label": "La Laguna", "lat": 17.016215, "lng": -93.008849
},{
"label": "Las Lagunas", "lat": 17.00823, "lng": -93.004724
},{
"label": "Yerbabuena Isbontick", "lat": 16.932699, "lng": -92.865912
},{
"label": "Nuevo Chuchiltón", "lat": 17.00022, "lng": -92.820895
},{
"label": "La Victoria", "lat": 16.995556, "lng": -92.908949
},{
"label": "Las Limas", "lat": 16.992684, "lng": -92.872107
},{
"label": "Plan de Ayala", "lat": 16.971523, "lng": -92.87331
},{
"label": "Cerro Palmita", "lat": 16.963778, "lng": -92.898889
},{
"label": "Nueva Esperanza", "lat": 17.126021, "lng": -93.023466
},{
"label": "Monte Chico", "lat": 16.949987, "lng": -92.880304
},{
"label": "Cerro Matasano", "lat": 16.974835, "lng": -92.893368
},{
"label": "Pomiló", "lat": 16.987407, "lng": -92.924511
},{
"label": "La Lagunita", "lat": 17.00859, "lng": -92.838498
},{
"label": "El Ocotal", "lat": 17.019534, "lng": -92.961819
},{
"label": "El Mirador", "lat": 16.992233, "lng": -92.902107
},{
"label": "Emiliano Zapata", "lat": 17.019822, "lng": -92.870953
},{
"label": "Sebastián Pérez Núñez", "lat": 17.037751, "lng": -92.984554
},{
"label": "El Cerro", "lat": 16.959264, "lng": -92.882523
},{
"label": "El Amate", "lat": 17.123703, "lng": -93.005596
},{
"label": "La Naranja", "lat": 16.963937, "lng": -92.872887
},{
"label": "San Gregorio", "lat": 16.988397, "lng": -92.897186
},{
"label": "San Antonio la Pitahaya", "lat": 17.008592, "lng": -92.974268
},{
"label": "San José Mujular", "lat": 17.159629, "lng": -92.988517
},{
"label": "San Isidro", "lat": 16.999524, "lng": -92.885603
},{
"label": "Argentina", "lat": 17.001736, "lng": -92.90773
},{
"label": "Sitetic", "lat": 17.010071, "lng": -92.975117
},{
"label": "Nueva Libertad", "lat": 16.986388, "lng": -92.888458
},{
"label": "El Copal", "lat": 16.96639, "lng": -92.927709
},{
"label": "San José el Edén", "lat": 16.999499, "lng": -92.889384
},{
"label": "Garrido Canaval (Chavarría)", "lat": 17.075216, "lng": -93.02644
},{
"label": "Los Pinitos", "lat": 16.987909, "lng": -92.898961
},{
"label": "Monte Verde", "lat": 16.994528, "lng": -92.864026
},{
"label": "San José Chavarría", "lat": 17.075036, "lng": -93.024072
},{
"label": "El Chuchis", "lat": 16.984554, "lng": -92.900691
},{
"label": "Santa Cruz Buenavista", "lat": 17.085803, "lng": -93.011678
},{
"label": "San Pedro el Achiote (San Pedro Mártir)", "lat": 17.000241, "lng": -92.931465
},{
"label": "Shashalpa", "lat": 17.123477, "lng": -92.954501
},{
"label": "Las Lomas", "lat": 16.994167, "lng": -92.848611
},{
"label": "Palma Real", "lat": 17.019134, "lng": -93.049979
},{
"label": "El Palmar", "lat": 17.051333, "lng": -93.010519
},{
"label": "San Fernando", "lat": 17.003735, "lng": -92.880145
},{
"label": "La Libertad", "lat": 16.94389, "lng": -92.89444
},{
"label": "La Pitahaya", "lat": 17.007158, "lng": -92.973024
},{
"label": "Vista Hermosa", "lat": 16.98765, "lng": -92.873848
},{
"label": "Guadalupe", "lat": 17.020222, "lng": -92.992303
},{
"label": "San Ramón", "lat": 17.105398, "lng": -93.035913
},{
"label": "San Vicente", "lat": 16.955189, "lng": -92.922811
},{
"label": "Reforma 2000", "lat": 17.002228, "lng": -92.90703
},{
"label": "San Martín", "lat": 17.003424, "lng": -92.907418
},{
"label": "San Antonio Pomiló", "lat": 16.990296, "lng": -92.914613
},{
"label": "San Francisco el Pedregal", "lat": 16.990745, "lng": -92.891153
},{
"label": "Pashamum", "lat": 17.113093, "lng": -92.988982
},{
"label": "Santa Cruz Niho", "lat": 17.021984, "lng": -92.949548
},{
"label": "Tierra Colorada", "lat": 17.0147, "lng": -92.914937
},{
"label": "Hierbabuena el Naranjo", "lat": 16.936002, "lng": -92.891971
},{
"label": "Allende Esquipulas", "lat": 17.069657, "lng": -92.953176
},{
"label": "San José Morelos", "lat": 17.007524, "lng": -92.91055
},{
"label": "Bochil", "lat": 16.996383, "lng": -92.890219
},{
"label": "Guayaba Lagunita", "lat": 16.972804, "lng": -92.885663
},{
"label": "Santo Domingo", "lat": 16.98576, "lng": -92.875809
},{
"label": "San Juan", "lat": 16.985778, "lng": -92.907749
},{
"label": "El Palmarcito", "lat": 16.998441, "lng": -93.044291
},{
"label": "El Ocote", "lat": 17.005551, "lng": -92.882851
},{
"label": "Pocito Caulote", "lat": 17.023591, "lng": -93.066719
},{
"label": "Llano Grande", "lat": 17.03309, "lng": -92.981579
},{
"label": "Francisco Villa", "lat": 17.008268, "lng": -92.966173
},{
"label": "La Cañada", "lat": 16.959834, "lng": -92.924031
},{
"label": "La Yerbabuena", "lat": 16.94033, "lng": -92.896597
},{
"label": "Canté", "lat": 16.983382, "lng": -92.889623
},{
"label": "Agua Bendita", "lat": 16.997166, "lng": -92.928024
},{
"label": "Luis Espinoza", "lat": 17.033004, "lng": -93.027058
},{
"label": "Monte Grande", "lat": 16.93811, "lng": -92.862553
},{
"label": "El Limón", "lat": 16.998205, "lng": -92.86818
}]