[{
"label": "El Vino y el Jerez", "lat": 17.689652, "lng": -92.036699
},{
"label": "Génova (Palastún)", "lat": 17.647819, "lng": -92.030376
},{
"label": "Francisco J. Grajales", "lat": 17.8718, "lng": -92.058673
},{
"label": "La Perla (Fracción Cinco)", "lat": 17.603146, "lng": -92.056968
},{
"label": "Patricio los Ángeles", "lat": 17.875739, "lng": -91.974534
},{
"label": "Cuatro Hermanos", "lat": 17.780069, "lng": -91.965586
},{
"label": "Tecolpa", "lat": 17.888183, "lng": -91.871276
},{
"label": "Rancho Santa Rafaelita", "lat": 17.845414, "lng": -92.006997
},{
"label": "Crucero Zaragoza", "lat": 17.721434, "lng": -91.983137
},{
"label": "Paso del Maca (El Limoncito)", "lat": 17.744569, "lng": -92.086793
},{
"label": "Cuauhtémoc", "lat": 17.700111, "lng": -92.096407
},{
"label": "Zipote Vaina", "lat": 17.714629, "lng": -92.0986
},{
"label": "Dos Hermanos", "lat": 17.775221, "lng": -92.121296
},{
"label": "La Botijuela", "lat": 17.802351, "lng": -91.959159
},{
"label": "Bajo Usumacinta", "lat": 17.914005, "lng": -91.982455
},{
"label": "Boca del Río Chico", "lat": 17.877759, "lng": -91.959715
},{
"label": "Ninguno", "lat": 17.728841, "lng": -91.956197
},{
"label": "Patricio Tamarindo", "lat": 17.874383, "lng": -91.974869
},{
"label": "El Tucán", "lat": 17.748789, "lng": -92.136883
},{
"label": "San Agustín", "lat": 17.900421, "lng": -91.942429
},{
"label": "La Tuza (Maceo)", "lat": 17.699336, "lng": -91.969694
},{
"label": "San Román", "lat": 17.81475, "lng": -92.023751
},{
"label": "El Pital", "lat": 17.824709, "lng": -91.843284
},{
"label": "Crucero el Cuyo", "lat": 17.737268, "lng": -91.936468
},{
"label": "Villa Paraíso", "lat": 17.628657, "lng": -92.028141
},{
"label": "Santa Clara", "lat": 17.67194, "lng": -91.97167
},{
"label": "Lindavista 2da. Sección", "lat": 17.833475, "lng": -92.014993
},{
"label": "San Carlos", "lat": 17.652314, "lng": -92.041486
},{
"label": "Dayzu", "lat": 17.596692, "lng": -92.042765
},{
"label": "El Caoba", "lat": 17.830026, "lng": -91.868011
},{
"label": "Cuauhtémoc (San Pablo 1ra. Sección)", "lat": 17.676612, "lng": -92.062429
},{
"label": "Palastún", "lat": 17.677288, "lng": -92.042679
},{
"label": "Caoba", "lat": 17.707873, "lng": -91.967941
},{
"label": "Cuauhtemoc Quemado", "lat": 17.635556, "lng": -92.026595
},{
"label": "Guapinol", "lat": 17.769871, "lng": -91.949665
},{
"label": "Vicente Guerrero", "lat": 17.85728, "lng": -91.791728
},{
"label": "Leopoldo Olvera", "lat": 17.729688, "lng": -91.961696
},{
"label": "El Cocal", "lat": 17.717793, "lng": -91.991809
},{
"label": "El Herradero", "lat": 17.795249, "lng": -91.957645
},{
"label": "La Lucha (La Huerta)", "lat": 17.683551, "lng": -92.001063
},{
"label": "Génova", "lat": 17.618909, "lng": -92.026142
},{
"label": "El Serranal", "lat": 17.801519, "lng": -91.996178
},{
"label": "El Capitán", "lat": 17.740583, "lng": -92.174342
},{
"label": "San Joaquín", "lat": 17.732443, "lng": -91.974012
},{
"label": "El Cocalito Uno", "lat": 17.749418, "lng": -92.07382
},{
"label": "Linda Vista 1ra. Sección", "lat": 17.825277, "lng": -92.023416
},{
"label": "Los Gemelos", "lat": 17.775171, "lng": -92.061593
},{
"label": "Agua Fría", "lat": 17.74501, "lng": -92.096707
},{
"label": "La Marina", "lat": 17.689849, "lng": -92.028172
},{
"label": "San Miguel", "lat": 17.660865, "lng": -91.962079
},{
"label": "Santo Tomás", "lat": 17.700583, "lng": -92.08939
},{
"label": "Bios", "lat": 17.648344, "lng": -92.033296
},{
"label": "Jaboncillo (La Balanza)", "lat": 17.694791, "lng": -92.068327
},{
"label": "Las Lupitas", "lat": 17.769167, "lng": -92.064167
},{
"label": "Ninguno [UNACH]", "lat": 17.67838, "lng": -92.025909
},{
"label": "El Zapote", "lat": 17.85694, "lng": -92.01889
},{
"label": "El Saladero", "lat": 17.723215, "lng": -91.974438
},{
"label": "Sacrificio", "lat": 17.60173, "lng": -92.053612
},{
"label": "Jerusalén", "lat": 17.626067, "lng": -92.028764
},{
"label": "Los Muchachos", "lat": 17.766333, "lng": -92.13022
},{
"label": "San Francisco el Cuyo", "lat": 17.851851, "lng": -92.001601
},{
"label": "El Crucero", "lat": 17.709585, "lng": -92.013996
},{
"label": "La Matilla", "lat": 17.84222, "lng": -92.04944
},{
"label": "El Diamante", "lat": 17.696901, "lng": -92.079532
},{
"label": "La Paz (Calatrava)", "lat": 17.762931, "lng": -92.10976
},{
"label": "San Jorge", "lat": 17.76185, "lng": -92.118933
},{
"label": "San Francisco (Palastún)", "lat": 17.661454, "lng": -92.032961
},{
"label": "San Simón", "lat": 17.736816, "lng": -92.163626
},{
"label": "Finca el Hojal", "lat": 17.84361, "lng": -91.99444
},{
"label": "Emiliano Zapata (San Joaquín)", "lat": 17.725494, "lng": -91.96674
},{
"label": "Cárdenas", "lat": 17.662198, "lng": -92.019054
},{
"label": "San Joaquín (Sabana Perdida)", "lat": 17.74736, "lng": -91.955642
},{
"label": "Santa Cruz 2da. Sección de Loma Bonita", "lat": 17.787046, "lng": -92.068435
},{
"label": "Las Palomas", "lat": 17.75944, "lng": -92.14278
},{
"label": "San Edén", "lat": 17.776416, "lng": -92.132519
},{
"label": "Estación la Unión", "lat": 17.615665, "lng": -92.079416
},{
"label": "El Remolino 1ra. Sección", "lat": 17.861754, "lng": -91.938911
},{
"label": "Doble A", "lat": 17.795259, "lng": -91.965842
},{
"label": "El Capricho (La Paila)", "lat": 17.79778, "lng": -92.13361
},{
"label": "Mariano Casaus", "lat": 17.835181, "lng": -92.014774
},{
"label": "Las Flores", "lat": 17.694651, "lng": -92.016291
},{
"label": "El Viejo Jaboncillo", "lat": 17.688121, "lng": -92.082703
},{
"label": "San Francisco (La Herradura)", "lat": 17.731098, "lng": -91.946074
},{
"label": "La Cruz", "lat": 17.699259, "lng": -92.046282
},{
"label": "El Progreso", "lat": 17.68972, "lng": -92.08139
},{
"label": "El Sacrificio", "lat": 17.705511, "lng": -92.102332
},{
"label": "San Manuel (Desengaño)", "lat": 17.699542, "lng": -92.068648
},{
"label": "Santo Domingo", "lat": 17.695483, "lng": -92.078433
},{
"label": "Palastún Uno San Isidro", "lat": 17.679499, "lng": -92.027988
},{
"label": "Santa Úrsula", "lat": 17.688494, "lng": -92.055214
},{
"label": "El Desengaño", "lat": 17.742609, "lng": -92.067715
},{
"label": "Nuevo Rosario", "lat": 17.810912, "lng": -91.967623
},{
"label": "El Suspiro", "lat": 17.685801, "lng": -91.956227
},{
"label": "Cuyo Santa Cruz", "lat": 17.866981, "lng": -91.990975
},{
"label": "San Francisco", "lat": 17.756501, "lng": -91.98774
},{
"label": "San Manuel", "lat": 17.75333, "lng": -92.00417
},{
"label": "Santa Clara Palastún", "lat": 17.63917, "lng": -92.02389
},{
"label": "Orizaba", "lat": 17.807618, "lng": -91.998808
},{
"label": "El Encanto", "lat": 17.697755, "lng": -92.062765
},{
"label": "San Antonio el Paraíso", "lat": 17.8225, "lng": -91.97583
},{
"label": "Rosario López", "lat": 17.712686, "lng": -92.007596
},{
"label": "El Carmen", "lat": 17.805861, "lng": -91.984611
},{
"label": "El Tinto Bonshán", "lat": 17.831001, "lng": -91.957804
},{
"label": "Ignacio Zaragoza", "lat": 17.786942, "lng": -91.991159
},{
"label": "El Recuerdo", "lat": 17.61083, "lng": -92.02167
},{
"label": "La Victoria", "lat": 17.671817, "lng": -91.943263
},{
"label": "La Perla Fracción Uno", "lat": 17.637212, "lng": -92.063055
},{
"label": "El Trébol", "lat": 17.747369, "lng": -91.942361
},{
"label": "La Potranca", "lat": 17.697307, "lng": -92.01976
},{
"label": "El Paraíso", "lat": 17.791105, "lng": -92.042275
},{
"label": "El Rosario", "lat": 17.804453, "lng": -92.065004
},{
"label": "Victorico R. Grajales", "lat": 17.845545, "lng": -92.009805
},{
"label": "Landero Cárdenas", "lat": 17.893781, "lng": -91.906023
},{
"label": "El Remolino 2da. Sección", "lat": 17.893463, "lng": -91.92147
},{
"label": "Buenavista", "lat": 17.789023, "lng": -92.063692
},{
"label": "Delicias Dos", "lat": 17.761527, "lng": -92.025173
},{
"label": "Paso Nuevo", "lat": 17.836102, "lng": -91.89172
},{
"label": "Las Gaviotas", "lat": 17.71111, "lng": -92.10194
},{
"label": "La Lucha", "lat": 17.852641, "lng": -91.992957
},{
"label": "La Siria 2da. Sección", "lat": 17.654001, "lng": -91.970321
},{
"label": "Victoria", "lat": 17.751983, "lng": -92.131256
},{
"label": "San Juanito", "lat": 17.782393, "lng": -91.931585
},{
"label": "El Hular", "lat": 17.771661, "lng": -92.051957
},{
"label": "San Lorenzo", "lat": 17.615286, "lng": -92.068666
},{
"label": "Mazatlán", "lat": 17.725184, "lng": -92.055256
},{
"label": "Nuevo Progreso", "lat": 17.862873, "lng": -92.049983
},{
"label": "San Fernando", "lat": 17.698199, "lng": -92.120162
},{
"label": "La Lambique", "lat": 17.769184, "lng": -92.056064
},{
"label": "Santa Rosa", "lat": 17.665644, "lng": -91.966454
},{
"label": "San Ramón", "lat": 17.668141, "lng": -91.961254
},{
"label": "Punta Arena", "lat": 17.746149, "lng": -92.056236
},{
"label": "Guadalupe del Carmen", "lat": 17.660003, "lng": -92.037541
},{
"label": "Familia González Río", "lat": 17.809022, "lng": -91.966446
},{
"label": "San Luisito", "lat": 17.703544, "lng": -91.969293
},{
"label": "Santa Rita", "lat": 17.753663, "lng": -92.000047
},{
"label": "San Nicolás", "lat": 17.829883, "lng": -91.987107
},{
"label": "Los Veremos", "lat": 17.780843, "lng": -92.051732
},{
"label": "Ensenada de los Camaleones", "lat": 17.763858, "lng": -92.053544
},{
"label": "San Antonio", "lat": 17.698268, "lng": -92.088293
},{
"label": "Paso de la Montaña", "lat": 17.802562, "lng": -91.990098
},{
"label": "Paso de la Hamaca", "lat": 17.716997, "lng": -91.993178
},{
"label": "San Isidro (Palastún Dos)", "lat": 17.668255, "lng": -92.03488
},{
"label": "La Esmeralda", "lat": 17.751499, "lng": -92.008498
},{
"label": "El Nuevo Paraíso", "lat": 17.758081, "lng": -91.966444
},{
"label": "San Rafael", "lat": 17.776035, "lng": -92.121299
},{
"label": "El Tintillo Dos", "lat": 17.754955, "lng": -91.943325
},{
"label": "Cielito Lindo", "lat": 17.809628, "lng": -91.984642
},{
"label": "El Porvenir", "lat": 17.692614, "lng": -92.086411
},{
"label": "El Naranjal", "lat": 17.73611, "lng": -92.00944
},{
"label": "El Tintillo", "lat": 17.765165, "lng": -91.947271
},{
"label": "Remolino 3ra. Sección", "lat": 17.888169, "lng": -91.829222
},{
"label": "Fracción Santa Isabel", "lat": 17.74614, "lng": -91.98527
},{
"label": "San José", "lat": 17.837633, "lng": -92.020889
},{
"label": "Santa Bárbara", "lat": 17.7855, "lng": -91.959945
},{
"label": "Cuyo (Álvaro Obregón)", "lat": 17.849581, "lng": -91.999701
},{
"label": "La Siria 1ra. Sección", "lat": 17.664361, "lng": -91.977095
},{
"label": "Dos de Abril (La Nueva Unión)", "lat": 17.635173, "lng": -92.066424
},{
"label": "Las Delicias", "lat": 17.85056, "lng": -91.8525
},{
"label": "San Román Fracción Tres", "lat": 17.802753, "lng": -91.995774
},{
"label": "La Jungla", "lat": 17.670182, "lng": -92.034516
},{
"label": "Austria", "lat": 17.620085, "lng": -92.024202
},{
"label": "Rivera Cuyo Santa Cruz 2da. Sección", "lat": 17.874251, "lng": -91.969274
},{
"label": "La Perla", "lat": 17.62583, "lng": -92.06028
},{
"label": "La Guadalupe", "lat": 17.748339, "lng": -92.130939
},{
"label": "Rancho Alegre", "lat": 17.602204, "lng": -92.050472
},{
"label": "Catazajá", "lat": 17.728321, "lng": -92.016366
},{
"label": "El Naranjo", "lat": 17.837528, "lng": -92.054073
},{
"label": "La Providencia", "lat": 17.684354, "lng": -91.966311
},{
"label": "El Mulato", "lat": 17.885184, "lng": -91.893253
},{
"label": "San Bartolo", "lat": 17.646071, "lng": -92.042879
},{
"label": "Fronterita", "lat": 17.790235, "lng": -92.051221
},{
"label": "Jicalango", "lat": 17.761858, "lng": -91.984871
},{
"label": "Kilómetro 325", "lat": 17.605563, "lng": -92.064759
},{
"label": "El Pajonal", "lat": 17.754386, "lng": -92.013033
},{
"label": "Lázaro Cárdenas", "lat": 17.731746, "lng": -91.934842
},{
"label": "La Ilusión", "lat": 17.661001, "lng": -91.955783
},{
"label": "Santa Margarita", "lat": 17.705206, "lng": -91.984661
},{
"label": "Buenavista Damasco", "lat": 17.682603, "lng": -92.057258
},{
"label": "Punta Limonar", "lat": 17.784257, "lng": -91.948196
},{
"label": "Juan Aldama", "lat": 17.745446, "lng": -92.181716
},{
"label": "San Pablo", "lat": 17.690359, "lng": -92.054613
},{
"label": "Las Isabeles", "lat": 17.746969, "lng": -92.136131
},{
"label": "Santa Isabel", "lat": 17.756109, "lng": -91.985076
},{
"label": "Las Cazuelas", "lat": 17.702556, "lng": -92.03454
},{
"label": "El Piedral", "lat": 17.758808, "lng": -91.992353
},{
"label": "Ampliación la Tuza", "lat": 17.720492, "lng": -91.985446
},{
"label": "El Brasil Dos", "lat": 17.820294, "lng": -91.983905
},{
"label": "La Esperanza", "lat": 17.840129, "lng": -91.955414
},{
"label": "Morelia", "lat": 17.597707, "lng": -92.047537
},{
"label": "El Limoncito", "lat": 17.748209, "lng": -92.083061
},{
"label": "El Brasil", "lat": 17.82472, "lng": -91.984609
},{
"label": "El Mangal", "lat": 17.76028, "lng": -92.07361
},{
"label": "Loma Bonita", "lat": 17.786709, "lng": -92.076089
},{
"label": "Los Almendros", "lat": 17.784469, "lng": -91.966039
},{
"label": "El Tintillo Tres", "lat": 17.737816, "lng": -91.936645
},{
"label": "El Bosque", "lat": 17.778136, "lng": -92.051122
},{
"label": "El Coloso", "lat": 17.698038, "lng": -92.060386
},{
"label": "La Escora", "lat": 17.757146, "lng": -92.015257
}]