[{
"label": "El Calvario", "lat": 16.98, "lng": -92.788889
},{
"label": "Sabinotic", "lat": 17.012005, "lng": -92.773196
},{
"label": "San Joaquín", "lat": 16.962302, "lng": -92.745423
},{
"label": "San Pedro Nichtalucum", "lat": 17.034667, "lng": -92.727058
},{
"label": "Nueva Esperanza", "lat": 17.010386, "lng": -92.765341
},{
"label": "Tierra Caliente", "lat": 17.064333, "lng": -92.684542
},{
"label": "Las Delicias", "lat": 17.011294, "lng": -92.727217
},{
"label": "Chabajebal", "lat": 17.04722, "lng": -92.68472
},{
"label": "San Miguel", "lat": 17.030848, "lng": -92.761747
},{
"label": "El Pedregal", "lat": 17.08944, "lng": -92.74556
},{
"label": "Buenavista", "lat": 16.971152, "lng": -92.739614
},{
"label": "Niquidámbar", "lat": 17.007311, "lng": -92.741843
},{
"label": "Los Ángeles", "lat": 17.044557, "lng": -92.751334
},{
"label": "Altagracia", "lat": 17.032546, "lng": -92.774902
},{
"label": "Florencia", "lat": 17.020629, "lng": -92.757872
},{
"label": "El Remolino", "lat": 16.987709, "lng": -92.73227
},{
"label": "San Andrés el Paraíso", "lat": 16.98472, "lng": -92.71111
},{
"label": "San Cayetano", "lat": 16.960725, "lng": -92.759271
},{
"label": "Plátanos", "lat": 17.003984, "lng": -92.742746
},{
"label": "Argentina", "lat": 17.074978, "lng": -92.758904
},{
"label": "Santa Teresa", "lat": 17.031023, "lng": -92.772217
},{
"label": "Las Amapolas", "lat": 17.005759, "lng": -92.755489
},{
"label": "La Gloria Chikinchén", "lat": 16.98694, "lng": -92.71111
},{
"label": "El Jardín", "lat": 17.006483, "lng": -92.748853
},{
"label": "El Vergel Dos", "lat": 17.00403, "lng": -92.747827
},{
"label": "Chichaltic el Limón", "lat": 17.079075, "lng": -92.697329
},{
"label": "Unión Progreso", "lat": 17.002405, "lng": -92.769835
},{
"label": "San Cristóbal la Gloria", "lat": 17.077649, "lng": -92.66902
},{
"label": "El Palmar", "lat": 16.979682, "lng": -92.780666
},{
"label": "Unión Tierra Tzotzil", "lat": 17.014205, "lng": -92.784874
},{
"label": "Carmen Guayabal", "lat": 17.028853, "lng": -92.773761
},{
"label": "Carmen Guayabal Dos", "lat": 16.960669, "lng": -92.758432
},{
"label": "La Bonanza", "lat": 17.007943, "lng": -92.766097
},{
"label": "El Carrizal", "lat": 17.015997, "lng": -92.790816
},{
"label": "Mercedes la Ilusión", "lat": 16.998754, "lng": -92.735776
},{
"label": "San Andrés la Laguna", "lat": 16.976558, "lng": -92.792354
},{
"label": "Vista Hermosa Dos", "lat": 16.975, "lng": -92.741694
},{
"label": "Naptic", "lat": 17.07611, "lng": -92.69667
},{
"label": "San Francisco Conhó", "lat": 17.088521, "lng": -92.681173
},{
"label": "San Isidro Uno", "lat": 17.001491, "lng": -92.738787
},{
"label": "Nueva Jerusalén", "lat": 17.063018, "lng": -92.765032
},{
"label": "San Antonio", "lat": 17.032839, "lng": -92.765505
},{
"label": "Álvaro Obregón", "lat": 17.02806, "lng": -92.80833
},{
"label": "Chivaltic", "lat": 17.078744, "lng": -92.707035
},{
"label": "Nueva Ucrania", "lat": 17.04724, "lng": -92.741069
},{
"label": "La Esperanza", "lat": 17.047267, "lng": -92.736245
},{
"label": "Vergel", "lat": 16.987342, "lng": -92.732262
},{
"label": "San Francisco", "lat": 17.006854, "lng": -92.759513
},{
"label": "San Norberto", "lat": 16.98911, "lng": -92.717441
},{
"label": "La Trinidad", "lat": 17.020933, "lng": -92.747261
},{
"label": "Pozo Verde", "lat": 16.988114, "lng": -92.732366
},{
"label": "El Mojón", "lat": 17.045743, "lng": -92.740304
},{
"label": "El Mangal", "lat": 17.072562, "lng": -92.706503
},{
"label": "San Antonio el Brillante", "lat": 16.968874, "lng": -92.788133
},{
"label": "El Naranjal", "lat": 17.040674, "lng": -92.751283
},{
"label": "Carmen el Ocotal", "lat": 17.006227, "lng": -92.752819
},{
"label": "Corazón de María", "lat": 16.955653, "lng": -92.743981
},{
"label": "San Cayetano Dos", "lat": 16.96282, "lng": -92.742625
},{
"label": "El Bosque", "lat": 17.06221, "lng": -92.721409
}]