[{
"label": "El Carmen", "lat": 14.783173, "lng": -92.217408
},{
"label": "Ignacio Zaragoza", "lat": 14.739656, "lng": -92.169357
},{
"label": "San Raquel", "lat": 14.770907, "lng": -92.181856
},{
"label": "Santa Lucía II", "lat": 14.712511, "lng": -92.22967
},{
"label": "Frontera Hidalgo", "lat": 14.777838, "lng": -92.175983
},{
"label": "Cantón Santa Cruz", "lat": 14.767625, "lng": -92.200198
},{
"label": "Santa Lucía I", "lat": 14.738566, "lng": -92.231106
},{
"label": "Ejido Francisco I. Madero", "lat": 14.725228, "lng": -92.201234
},{
"label": "Gustavo Díaz Ordaz", "lat": 14.724044, "lng": -92.24314
},{
"label": "Poblado Francisco I. Madero", "lat": 14.7491, "lng": -92.200244
},{
"label": "Texcaltic", "lat": 14.789548, "lng": -92.188026
},{
"label": "San Juan Cintahuayate", "lat": 14.7603, "lng": -92.246618
},{
"label": "El Rocío (Ciica)", "lat": 14.771525, "lng": -92.228052
},{
"label": "Las Viudas", "lat": 14.725901, "lng": -92.213589
}]