[{
"label": "Sombra Lagunita", "lat": 17.274858, "lng": -92.749473
},{
"label": "Cacateal Pital", "lat": 17.29367, "lng": -92.663025
},{
"label": "Sombra Carrizal", "lat": 17.297498, "lng": -92.746876
},{
"label": "Tres Pozos", "lat": 17.275971, "lng": -92.648574
},{
"label": "San Pedro Pabuchil Uno (Francisco I. Madero)", "lat": 17.283059, "lng": -92.767811
},{
"label": "Pital Villa Luz (Almandro Viejo)", "lat": 17.29278, "lng": -92.69917
},{
"label": "Las Nubes", "lat": 17.305636, "lng": -92.716961
},{
"label": "Agustín Rubio (Río Toro)", "lat": 17.240509, "lng": -92.801129
},{
"label": "Concepción", "lat": 17.202135, "lng": -92.713025
},{
"label": "Diez de Julio", "lat": 17.174324, "lng": -92.680558
},{
"label": "Nueva Generación Emiliano Zapata", "lat": 17.251653, "lng": -92.637174
},{
"label": "Santa Clara Arroyo Seco", "lat": 17.268544, "lng": -92.697229
},{
"label": "Lindavista las Laminas", "lat": 17.28333, "lng": -92.78667
},{
"label": "Nuevo San Pedro Pabuchil", "lat": 17.290335, "lng": -92.776232
},{
"label": "El Ocotal", "lat": 17.200664, "lng": -92.752279
},{
"label": "Emiliano Zapata", "lat": 17.254924, "lng": -92.637393
},{
"label": "Carmito Uno", "lat": 17.180042, "lng": -92.722887
},{
"label": "Zacajtic", "lat": 17.251723, "lng": -92.761833
},{
"label": "Esquipulas", "lat": 17.2625, "lng": -92.64306
},{
"label": "San Francisco la Frontera", "lat": 17.196215, "lng": -92.695728
},{
"label": "Triunfo de las Palmas", "lat": 17.172441, "lng": -92.67969
},{
"label": "Enrique Rodríguez Cano", "lat": 17.218545, "lng": -92.648203
},{
"label": "El Remolino", "lat": 17.289643, "lng": -92.695518
},{
"label": "Santa Catarina de las Palmas", "lat": 17.186123, "lng": -92.669771
},{
"label": "La Competencia", "lat": 17.237132, "lng": -92.756549
},{
"label": "Sinaí Díaz Ordaz", "lat": 17.208547, "lng": -92.682425
},{
"label": "10 de Febrero", "lat": 17.266423, "lng": -92.790793
},{
"label": "Naranjo Pital", "lat": 17.302815, "lng": -92.696873
},{
"label": "San Juan el Aguaje", "lat": 17.293656, "lng": -92.698559
},{
"label": "San Martín Buenavista", "lat": 17.19944, "lng": -92.7425
},{
"label": "Cinco de Mayo", "lat": 17.148315, "lng": -92.644161
},{
"label": "Pabuchil Covadonga", "lat": 17.172461, "lng": -92.635698
},{
"label": "La Cascada", "lat": 17.278874, "lng": -92.659753
},{
"label": "San Dionisio", "lat": 17.170679, "lng": -92.669286
},{
"label": "Guayabal Sinaí", "lat": 17.192007, "lng": -92.720109
},{
"label": "Planada Zapotal", "lat": 17.273432, "lng": -92.673154
},{
"label": "Chanival", "lat": 17.226573, "lng": -92.731715
},{
"label": "La Corona", "lat": 17.253892, "lng": -92.725005
},{
"label": "Dieciocho de Abril", "lat": 17.253449, "lng": -92.811051
},{
"label": "El Fortín", "lat": 17.270466, "lng": -92.805079
},{
"label": "Naquem", "lat": 17.225909, "lng": -92.636024
},{
"label": "Santa Cruz", "lat": 17.272272, "lng": -92.644726
},{
"label": "Santa María de los Ángeles", "lat": 17.278166, "lng": -92.745217
},{
"label": "Nueva Reforma", "lat": 17.265209, "lng": -92.705916
},{
"label": "Buen Paso (Shoctic)", "lat": 17.27682, "lng": -92.69117
},{
"label": "Quince de Agosto", "lat": 17.165833, "lng": -92.688119
},{
"label": "Huanal", "lat": 17.306323, "lng": -92.723224
},{
"label": "El Shuc", "lat": 17.250208, "lng": -92.641969
},{
"label": "Santuario del Pozo Esquipulas", "lat": 17.267862, "lng": -92.644564
},{
"label": "Lázaro Cárdenas", "lat": 17.222008, "lng": -92.594335
},{
"label": "La Florida", "lat": 17.17893, "lng": -92.72269
},{
"label": "Platanarcito", "lat": 17.282801, "lng": -92.76102
},{
"label": "Las Lajas", "lat": 17.263333, "lng": -92.646412
},{
"label": "Campo Alegre", "lat": 17.16677, "lng": -92.696483
},{
"label": "Seis de Noviembre", "lat": 17.238213, "lng": -92.764583
},{
"label": "El Azufre", "lat": 17.204522, "lng": -92.645601
},{
"label": "Carmito Dos", "lat": 17.18862, "lng": -92.729219
},{
"label": "El Campo Quinoval", "lat": 17.277448, "lng": -92.809595
},{
"label": "Planada Villa Luz", "lat": 17.27093, "lng": -92.718839
},{
"label": "Santa Clara", "lat": 17.180962, "lng": -92.724341
},{
"label": "Zacatonal de Juárez", "lat": 17.271044, "lng": -92.799539
},{
"label": "Mina de Oro", "lat": 17.174564, "lng": -92.677101
},{
"label": "Villa Luz", "lat": 17.280931, "lng": -92.718767
},{
"label": "Los Cocos", "lat": 17.307929, "lng": -92.698125
},{
"label": "Lindavista Almandro", "lat": 17.283479, "lng": -92.687002
},{
"label": "Rancho Alegre (El Pom)", "lat": 17.246169, "lng": -92.762558
},{
"label": "Prusia", "lat": 17.286069, "lng": -92.732455
},{
"label": "Cerro la Pava", "lat": 17.251231, "lng": -92.679523
},{
"label": "Las Casitas", "lat": 17.203647, "lng": -92.743189
},{
"label": "Pabuchilito", "lat": 17.269573, "lng": -92.780444
},{
"label": "Buenos Aires", "lat": 17.26995, "lng": -92.710775
},{
"label": "Huitiupán", "lat": 17.173232, "lng": -92.685932
},{
"label": "José María Morelos y Pavón", "lat": 17.241515, "lng": -92.702698
},{
"label": "La Labranza (El Rosario)", "lat": 17.168281, "lng": -92.721118
},{
"label": "La Ventana (San Julian)", "lat": 17.218557, "lng": -92.67255
},{
"label": "La Mariposa", "lat": 17.263129, "lng": -92.725601
},{
"label": "Ramos Cubilete", "lat": 17.259336, "lng": -92.681318
},{
"label": "Acapulquito", "lat": 17.198051, "lng": -92.704538
},{
"label": "Álvaro Obregón", "lat": 17.202909, "lng": -92.676371
},{
"label": "Paraíso", "lat": 17.2, "lng": -92.74139
},{
"label": "Mangos Pital", "lat": 17.299975, "lng": -92.687969
},{
"label": "El Desengaño", "lat": 17.271652, "lng": -92.737882
},{
"label": "San José Dolores", "lat": 17.31111, "lng": -92.66889
},{
"label": "Santa Lucía Pabuchil", "lat": 17.30278, "lng": -92.76889
},{
"label": "San Francisco Dos", "lat": 17.252611, "lng": -92.688374
},{
"label": "Francisco Villa", "lat": 17.151819, "lng": -92.661625
},{
"label": "Vicente Guerrero", "lat": 17.206793, "lng": -92.690037
},{
"label": "Benito Juárez", "lat": 17.186894, "lng": -92.644448
},{
"label": "San José la Unión", "lat": 17.220988, "lng": -92.776908
}]