[{
"label": "Venustiano Carranza", "lat": 16.190856, "lng": -91.928793
},{
"label": "Nuevo Mundo", "lat": 16.247175, "lng": -91.660683
},{
"label": "Nuevo Ojo de Agua", "lat": 16.180511, "lng": -91.584
},{
"label": "La Victoria", "lat": 16.160339, "lng": -91.532367
},{
"label": "Santa Ana el Primor", "lat": 16.26463, "lng": -91.731253
},{
"label": "Concepción", "lat": 16.229313, "lng": -91.873444
},{
"label": "San Pablo Yalmutz", "lat": 16.138799, "lng": -91.749892
},{
"label": "El Rosario", "lat": 16.220433, "lng": -91.997153
},{
"label": "San Diego", "lat": 16.208992, "lng": -91.674183
},{
"label": "Quistajito", "lat": 16.232133, "lng": -92.009128
},{
"label": "Río Jordán", "lat": 16.164189, "lng": -91.57355
},{
"label": "La Primavera", "lat": 16.2361, "lng": -91.957586
},{
"label": "Rosario la Montaña", "lat": 16.191245, "lng": -91.674343
},{
"label": "Buenavista", "lat": 16.244688, "lng": -91.989422
},{
"label": "Tierra Blanca", "lat": 16.172468, "lng": -91.68184
},{
"label": "Los Ángeles", "lat": 16.260437, "lng": -91.727853
},{
"label": "Santa Martha", "lat": 16.090674, "lng": -91.511815
},{
"label": "Nueva Aurora", "lat": 16.180493, "lng": -91.660373
},{
"label": "Monte los Olivos", "lat": 16.240704, "lng": -91.635245
},{
"label": "San Antonio Chiquinivaltic", "lat": 16.242884, "lng": -91.921183
},{
"label": "San Luis", "lat": 16.253671, "lng": -91.684391
},{
"label": "Nueva Virginia", "lat": 16.224573, "lng": -91.720604
},{
"label": "La Fortuna", "lat": 16.24983, "lng": -91.641593
},{
"label": "Dos Arbolitos", "lat": 16.245947, "lng": -91.645069
},{
"label": "Bonanza", "lat": 16.171297, "lng": -91.567172
},{
"label": "El Triunfo", "lat": 16.201231, "lng": -91.858197
},{
"label": "Ojo de Agua (Anexo Badenia)", "lat": 16.184841, "lng": -91.684683
},{
"label": "San Caralampio (Anexo Francisco Sarabia)", "lat": 16.248194, "lng": -91.922272
},{
"label": "San Caralampio", "lat": 16.265369, "lng": -91.715792
},{
"label": "Playa Azul", "lat": 16.182851, "lng": -91.608773
},{
"label": "San Antonio Guayamusej", "lat": 16.228721, "lng": -91.977433
},{
"label": "Santa Rosa", "lat": 16.159231, "lng": -91.527569
},{
"label": "La Florida", "lat": 16.157463, "lng": -91.58846
},{
"label": "Ribera de la Selva", "lat": 16.17558, "lng": -91.628844
},{
"label": "Reforma", "lat": 16.253053, "lng": -91.703589
},{
"label": "Santa Julia la Victoria", "lat": 16.177481, "lng": -91.550619
},{
"label": "Cuatro Rosas", "lat": 16.237356, "lng": -91.644565
},{
"label": "Brasil", "lat": 16.234714, "lng": -91.659132
},{
"label": "Guadalupe Victoria", "lat": 16.260781, "lng": -91.682472
},{
"label": "Samaria (Santa María)", "lat": 16.236943, "lng": -91.860762
},{
"label": "San Antonio el Ocote", "lat": 16.228586, "lng": -91.655994
},{
"label": "Nuevo Tenejapa", "lat": 16.161531, "lng": -91.571496
},{
"label": "Gracias a Dios Uno", "lat": 16.216769, "lng": -91.649214
},{
"label": "Villa las Rosas", "lat": 16.2242, "lng": -91.661219
},{
"label": "Flor del Río", "lat": 16.225164, "lng": -91.6684
},{
"label": "San Antonio", "lat": 16.256976, "lng": -92.013005
},{
"label": "Río Blanco", "lat": 16.205114, "lng": -91.635436
},{
"label": "La Nueva Esperanza", "lat": 16.165158, "lng": -91.576344
},{
"label": "San José de las Palmas", "lat": 16.139934, "lng": -91.637666
},{
"label": "Cabena", "lat": 16.245158, "lng": -91.639397
},{
"label": "Santa Rita el Vergel", "lat": 16.254669, "lng": -91.725911
},{
"label": "Badenia", "lat": 16.19994, "lng": -91.667649
},{
"label": "Santa Rita el Cobán", "lat": 16.237433, "lng": -91.667108
},{
"label": "El Porvenir", "lat": 16.234457, "lng": -91.983213
},{
"label": "Los Espinos", "lat": 16.172056, "lng": -91.56885
},{
"label": "Galeana", "lat": 16.225367, "lng": -92.001147
},{
"label": "San Antonio Magueyal", "lat": 16.263956, "lng": -92.023798
},{
"label": "La Finca", "lat": 16.201769, "lng": -91.927447
},{
"label": "San Antonio Guacanajate", "lat": 16.267421, "lng": -92.024308
},{
"label": "El Calvario", "lat": 16.225539, "lng": -91.973262
},{
"label": "Nueva Esperanza", "lat": 16.216277, "lng": -91.662505
},{
"label": "Las Delicias", "lat": 16.24808, "lng": -91.683139
},{
"label": "La Alianza", "lat": 16.232625, "lng": -91.670803
},{
"label": "La Independencia", "lat": 16.253935, "lng": -92.023452
},{
"label": "El Mirador", "lat": 16.240875, "lng": -91.658547
},{
"label": "Nuevo Mundo el Naranjo", "lat": 16.250481, "lng": -91.66081
},{
"label": "Emiliano Zapata", "lat": 16.179945, "lng": -91.966639
},{
"label": "Nueva Libertad", "lat": 16.230819, "lng": -91.955948
},{
"label": "El Campamento", "lat": 16.299864, "lng": -91.964711
},{
"label": "El Naranjo", "lat": 16.199917, "lng": -91.794183
},{
"label": "Argovia", "lat": 16.182581, "lng": -91.561664
},{
"label": "Pinal del Río", "lat": 16.212694, "lng": -91.64395
},{
"label": "San Antonio Porvenir", "lat": 16.22416, "lng": -91.691121
},{
"label": "Tierra y Libertad", "lat": 16.173003, "lng": -91.648797
},{
"label": "Nueva Cruz", "lat": 16.205809, "lng": -91.734182
},{
"label": "Santa María", "lat": 16.249249, "lng": -91.635589
},{
"label": "Candelaria", "lat": 16.184757, "lng": -91.652379
},{
"label": "San José Belén", "lat": 16.246558, "lng": -91.670894
},{
"label": "24 de Abril", "lat": 16.200814, "lng": -91.922456
},{
"label": "Los Pinos", "lat": 16.223797, "lng": -91.946109
},{
"label": "El Cobán", "lat": 16.240212, "lng": -91.673437
},{
"label": "Ojo de Agua", "lat": 16.155492, "lng": -91.757742
},{
"label": "La Ilusión", "lat": 16.218889, "lng": -91.652306
},{
"label": "Las Guayabas", "lat": 16.167055, "lng": -91.53499
},{
"label": "San Isidro el Zapotal", "lat": 16.158679, "lng": -91.614395
},{
"label": "Yalmutz", "lat": 16.144803, "lng": -91.752466
},{
"label": "Tres Pinos", "lat": 16.207917, "lng": -91.670722
},{
"label": "San Miguel los Altos", "lat": 16.145367, "lng": -91.715214
},{
"label": "San Miguel (Anexo Ojo de Agua)", "lat": 16.155319, "lng": -91.722133
},{
"label": "San Jacinto", "lat": 16.26861, "lng": -91.68917
},{
"label": "San Rufino", "lat": 16.224186, "lng": -91.905192
},{
"label": "La Reforma", "lat": 16.246297, "lng": -91.639239
},{
"label": "El Vergel", "lat": 16.1655, "lng": -91.569392
},{
"label": "Chentón", "lat": 16.206644, "lng": -91.988542
},{
"label": "San Marcos", "lat": 16.20158, "lng": -91.968738
},{
"label": "San Antonio Buenavista", "lat": 16.151984, "lng": -91.651253
},{
"label": "Nuevo Santo Tomás", "lat": 16.237184, "lng": -91.879694
},{
"label": "Yalmashito", "lat": 16.215433, "lng": -91.992001
},{
"label": "Santo Domingo", "lat": 16.210372, "lng": -91.657665
},{
"label": "San Juan", "lat": 16.220389, "lng": -91.661547
},{
"label": "El Divisorio", "lat": 16.206511, "lng": -91.952664
},{
"label": "San José Liquidámbar", "lat": 16.24556, "lng": -91.693206
},{
"label": "La Esperanza (El Horizonte)", "lat": 16.222058, "lng": -91.654183
},{
"label": "La Patria", "lat": 16.22986, "lng": -91.910661
},{
"label": "La Esperanza", "lat": 16.225275, "lng": -91.671622
},{
"label": "Francisco Sarabia", "lat": 16.248509, "lng": -91.960692
},{
"label": "Morelia", "lat": 16.173375, "lng": -91.571869
},{
"label": "San Francisco", "lat": 16.274367, "lng": -91.682371
},{
"label": "La Unión", "lat": 16.240033, "lng": -91.650828
},{
"label": "El Carmen Tonub", "lat": 16.272392, "lng": -92.030733
}]