[{
"label": "El Carmen", "lat": 17.657516, "lng": -91.697487
},{
"label": "El Destrozo", "lat": 17.544101, "lng": -91.774669
},{
"label": "Nuevo San Miguel", "lat": 17.515631, "lng": -91.666048
},{
"label": "Benito Juárez 1ra. Sección", "lat": 17.601474, "lng": -91.729826
},{
"label": "Las Ilusiones", "lat": 17.643391, "lng": -91.710663
},{
"label": "La Victoria", "lat": 17.655479, "lng": -91.712486
},{
"label": "San Joaquín", "lat": 17.511226, "lng": -91.661514
},{
"label": "San Manuel (El Tigre)", "lat": 17.706603, "lng": -91.823186
},{
"label": "El Cafetal", "lat": 17.606085, "lng": -91.755768
},{
"label": "Nueva Esperanza", "lat": 17.691761, "lng": -91.84543
},{
"label": "El Paraíso", "lat": 17.544324, "lng": -91.845492
},{
"label": "El Corazón", "lat": 17.606549, "lng": -91.808848
},{
"label": "Jijipa", "lat": 17.51361, "lng": -91.67528
},{
"label": "San Miguel", "lat": 17.59743, "lng": -91.811044
},{
"label": "Zaragoza 2da. Sección", "lat": 17.621956, "lng": -91.813144
},{
"label": "La Gloria", "lat": 17.568683, "lng": -91.703593
},{
"label": "Los Rosales", "lat": 17.505227, "lng": -91.661894
},{
"label": "La Primavera", "lat": 17.521063, "lng": -91.696862
},{
"label": "Tres de Mayo", "lat": 17.532911, "lng": -91.745887
},{
"label": "Santa Lucía", "lat": 17.699994, "lng": -91.736563
},{
"label": "Dos de Agosto de 1988", "lat": 17.548579, "lng": -91.691815
},{
"label": "Miraflores", "lat": 17.522946, "lng": -91.722714
},{
"label": "El Campo", "lat": 17.631197, "lng": -91.706416
},{
"label": "La Lucha", "lat": 17.517333, "lng": -91.688342
},{
"label": "La Perla", "lat": 17.665419, "lng": -91.793813
},{
"label": "El Recreo Uno", "lat": 17.59994, "lng": -91.815411
},{
"label": "Cinco de Mayo", "lat": 17.512851, "lng": -91.670235
},{
"label": "San Juanito", "lat": 17.569288, "lng": -91.841809
},{
"label": "Estrella de Belén 2da. Sección", "lat": 17.533782, "lng": -91.738054
},{
"label": "Estrella de Belén 3ra. Sección", "lat": 17.483321, "lng": -91.682874
},{
"label": "La Martinica", "lat": 17.718325, "lng": -91.801608
},{
"label": "El Cacao", "lat": 17.691303, "lng": -91.851608
},{
"label": "Santa María", "lat": 17.545413, "lng": -91.821189
},{
"label": "Los Dos Arbolitos", "lat": 17.549468, "lng": -91.821306
},{
"label": "El Manila", "lat": 17.552984, "lng": -91.806386
},{
"label": "Santa Cruz", "lat": 17.554014, "lng": -91.81316
},{
"label": "Aldama Centro", "lat": 17.561587, "lng": -91.701895
},{
"label": "La Libertad", "lat": 17.690136, "lng": -91.719062
},{
"label": "Santa Rosa", "lat": 17.597679, "lng": -91.666805
},{
"label": "San Román", "lat": 17.619838, "lng": -91.813301
},{
"label": "La Urania", "lat": 17.537214, "lng": -91.788143
},{
"label": "La Bonanza", "lat": 17.485009, "lng": -91.679186
},{
"label": "Montebello", "lat": 17.537148, "lng": -91.773782
},{
"label": "José María Morelos y Pavón Centro", "lat": 17.681358, "lng": -91.811725
},{
"label": "Las Carmelitas", "lat": 17.692042, "lng": -91.80422
},{
"label": "Santa Clara", "lat": 17.571152, "lng": -91.798168
},{
"label": "Los Laureles", "lat": 17.536622, "lng": -91.831986
},{
"label": "Ojo de Agua 1ra.Sección", "lat": 17.585176, "lng": -91.789862
},{
"label": "Zaragoza 1ra. Sección", "lat": 17.665463, "lng": -91.783092
},{
"label": "El Guano Centro", "lat": 17.542762, "lng": -91.676761
},{
"label": "El Pencil", "lat": 17.53168, "lng": -91.774678
},{
"label": "El Shotal Centro", "lat": 17.583236, "lng": -91.741164
},{
"label": "Las Flores", "lat": 17.531947, "lng": -91.7547
},{
"label": "Benito Juárez Centro", "lat": 17.601381, "lng": -91.697971
},{
"label": "Buenos Aires", "lat": 17.52444, "lng": -91.67056
},{
"label": "Nuevo Bethel", "lat": 17.496538, "lng": -91.677069
},{
"label": "San Marcos", "lat": 17.530406, "lng": -91.742714
},{
"label": "El Guano 1ra. Sección", "lat": 17.522271, "lng": -91.718581
},{
"label": "El Shotal 1ra. Sección", "lat": 17.532395, "lng": -91.760092
},{
"label": "San Juan", "lat": 17.49194, "lng": -91.68278
},{
"label": "San Antonio", "lat": 17.555409, "lng": -91.823064
},{
"label": "Ojo de Agua Centro", "lat": 17.616601, "lng": -91.775375
},{
"label": "El Chinchil", "lat": 17.642811, "lng": -91.699511
},{
"label": "La Arena", "lat": 17.511065, "lng": -91.699156
},{
"label": "Aldama 1ra. Sección", "lat": 17.547386, "lng": -91.732031
},{
"label": "San Marcos (Los Dos Hermanos)", "lat": 17.559914, "lng": -91.834918
},{
"label": "La Paila", "lat": 17.571048, "lng": -91.811486
},{
"label": "Benito Juárez 2da. Sección", "lat": 17.556667, "lng": -91.72617
},{
"label": "Bajada Grande", "lat": 17.51306, "lng": -91.68639
},{
"label": "El Suspiro", "lat": 17.514552, "lng": -91.693546
},{
"label": "La Esperanza", "lat": 17.528708, "lng": -91.74919
},{
"label": "El Cardenal", "lat": 17.52222, "lng": -91.67361
},{
"label": "El Canutillo", "lat": 17.527945, "lng": -91.714995
},{
"label": "Macayal", "lat": 17.627684, "lng": -91.800443
},{
"label": "San Manuel", "lat": 17.549486, "lng": -91.808347
},{
"label": "El Porvenir", "lat": 17.572189, "lng": -91.706349
},{
"label": "El Guayacán", "lat": 17.639346, "lng": -91.810909
},{
"label": "El Encanto", "lat": 17.505921, "lng": -91.723052
},{
"label": "Santa Felicitas", "lat": 17.686888, "lng": -91.728059
},{
"label": "Santander", "lat": 17.508215, "lng": -91.709964
},{
"label": "Zacatecas", "lat": 17.540012, "lng": -91.783773
},{
"label": "Agua Blanca", "lat": 17.701556, "lng": -91.783296
},{
"label": "La Fe en Dios", "lat": 17.57278, "lng": -91.79583
},{
"label": "El Cedral", "lat": 17.721891, "lng": -91.822959
},{
"label": "El Pial", "lat": 17.510373, "lng": -91.660388
}]