[{
"label": "La Playa", "lat": 15.400869, "lng": -92.866986
},{
"label": "Altamira", "lat": 15.446342, "lng": -93.038592
},{
"label": "Feliciano López Molina", "lat": 15.462058, "lng": -92.897733
},{
"label": "Las Crisantemas", "lat": 15.37594, "lng": -92.924208
},{
"label": "Los Jobos", "lat": 15.51155, "lng": -92.964462
},{
"label": "El Jobo", "lat": 15.386548, "lng": -92.920891
},{
"label": "El Roblito", "lat": 15.440973, "lng": -92.912627
},{
"label": "Generación 2000 Nuevo Milenio", "lat": 15.468346, "lng": -92.893077
},{
"label": "No Me Olvides", "lat": 15.448114, "lng": -93.030594
},{
"label": "Tres Marías", "lat": 15.311669, "lng": -92.84709
},{
"label": "Los Limones", "lat": 15.386678, "lng": -92.861772
},{
"label": "El Nilo", "lat": 15.297172, "lng": -92.847681
},{
"label": "Tierra Blanca", "lat": 15.606028, "lng": -92.745746
},{
"label": "General Nicolás Bravo", "lat": 15.487854, "lng": -92.847993
},{
"label": "Barranquilla", "lat": 15.282643, "lng": -92.97354
},{
"label": "San Antonio de los Cocos", "lat": 15.450392, "lng": -93.059829
},{
"label": "La Viguita", "lat": 15.504859, "lng": -92.851985
},{
"label": "Dos Hermanos", "lat": 15.464566, "lng": -92.945428
},{
"label": "El Arbolito", "lat": 15.387734, "lng": -92.99015
},{
"label": "Santa Isela", "lat": 15.400504, "lng": -93.050235
},{
"label": "Los Tulipanes", "lat": 15.420291, "lng": -92.928725
},{
"label": "El Zapote Uno", "lat": 15.480193, "lng": -92.923533
},{
"label": "California", "lat": 15.362037, "lng": -93.027037
},{
"label": "Sincinari", "lat": 15.46179, "lng": -93.030688
},{
"label": "Palo Herrado", "lat": 15.481386, "lng": -92.890936
},{
"label": "Jalapa", "lat": 15.418325, "lng": -93.018027
},{
"label": "Santa Fe", "lat": 15.417821, "lng": -92.954513
},{
"label": "El Rosario de Jesús", "lat": 15.40197, "lng": -92.979714
},{
"label": "Ninguno", "lat": 15.324571, "lng": -92.852199
},{
"label": "Gulaver Dos", "lat": 15.425208, "lng": -92.916075
},{
"label": "El Huayacán", "lat": 15.49569, "lng": -92.934644
},{
"label": "Mi Ilusión", "lat": 15.416373, "lng": -93.078233
},{
"label": "Monte Flor", "lat": 15.424529, "lng": -93.062779
},{
"label": "Doctor Samuel León Brindis", "lat": 15.507207, "lng": -92.971482
},{
"label": "La Florida", "lat": 15.367676, "lng": -92.932185
},{
"label": "La Palma", "lat": 15.474537, "lng": -93.011942
},{
"label": "Roberto Barrios", "lat": 15.349176, "lng": -92.978926
},{
"label": "Pénjamo", "lat": 15.408734, "lng": -92.973545
},{
"label": "El Higuero", "lat": 15.405556, "lng": -93.090556
},{
"label": "Adolfo López Mateos", "lat": 15.466177, "lng": -93.009211
},{
"label": "El Recreo", "lat": 15.50459, "lng": -92.946463
},{
"label": "El Arenal", "lat": 15.487423, "lng": -92.928291
},{
"label": "La España", "lat": 15.361893, "lng": -92.999565
},{
"label": "Apolo", "lat": 15.30639, "lng": -92.84583
},{
"label": "El Zacatonal (San Felipe)", "lat": 15.346111, "lng": -93.002361
},{
"label": "Monte Olivo", "lat": 15.49471, "lng": -92.831733
},{
"label": "Adolfo Ruiz Cortínez", "lat": 15.446924, "lng": -92.853322
},{
"label": "Los Cocos", "lat": 15.344829, "lng": -93.039349
},{
"label": "Dos Pasajes", "lat": 15.452827, "lng": -93.052426
},{
"label": "Santa Rosalía (Fracción Tilapilla)", "lat": 15.452718, "lng": -92.949388
},{
"label": "El Caoba", "lat": 15.460576, "lng": -93.016109
},{
"label": "El Desierto", "lat": 15.47643, "lng": -92.942064
},{
"label": "Atilano Cortez", "lat": 15.33556, "lng": -92.99306
},{
"label": "Nicolás Bravo Dos Anexo Emiliano Zapata", "lat": 15.334493, "lng": -92.846776
},{
"label": "Las Guadalupes", "lat": 15.317134, "lng": -92.994095
},{
"label": "San Ignacio", "lat": 15.374687, "lng": -93.065522
},{
"label": "Santa Rita de las Flores", "lat": 15.566631, "lng": -92.837731
},{
"label": "El Embajador", "lat": 15.432056, "lng": -92.854208
},{
"label": "El Marañón", "lat": 15.457304, "lng": -93.013901
},{
"label": "Progreso de Chiapas", "lat": 15.526022, "lng": -92.953004
},{
"label": "Las Murallas", "lat": 15.495695, "lng": -92.888784
},{
"label": "Santa Cecilia", "lat": 15.404472, "lng": -93.007477
},{
"label": "Las Playitas", "lat": 15.346067, "lng": -93.039153
},{
"label": "La Argentina", "lat": 15.442301, "lng": -93.02876
},{
"label": "El Puentón", "lat": 15.424797, "lng": -92.88558
},{
"label": "El Manantial", "lat": 15.477917, "lng": -92.934616
},{
"label": "Pampa Honda", "lat": 15.34491, "lng": -93.051919
},{
"label": "Don Chente", "lat": 15.321749, "lng": -92.871872
},{
"label": "Los Amores", "lat": 15.42608, "lng": -93.015887
},{
"label": "El Guapinolar", "lat": 15.485954, "lng": -92.907209
},{
"label": "San Miguel", "lat": 15.379974, "lng": -92.918538
},{
"label": "Los Framboyanes", "lat": 15.429038, "lng": -93.009819
},{
"label": "Villanueva", "lat": 15.435999, "lng": -92.792349
},{
"label": "Orlando de los Santos", "lat": 15.478501, "lng": -92.886034
},{
"label": "Güisamar", "lat": 15.568267, "lng": -92.821876
},{
"label": "Las Murallitas", "lat": 15.468389, "lng": -92.998761
},{
"label": "El Cedrito", "lat": 15.365524, "lng": -93.051886
},{
"label": "Las Gardenias", "lat": 15.429159, "lng": -93.066677
},{
"label": "El Carnero", "lat": 15.503711, "lng": -92.953437
},{
"label": "Piedra Rajada", "lat": 15.466499, "lng": -92.878757
},{
"label": "San Cayetano", "lat": 15.395986, "lng": -93.036398
},{
"label": "Isaac Fuentes Calderón", "lat": 15.470153, "lng": -93.007303
},{
"label": "Cinco Hermanos", "lat": 15.458623, "lng": -92.945922
},{
"label": "5 de Febrero", "lat": 15.518841, "lng": -92.859369
},{
"label": "El Zapote", "lat": 15.481031, "lng": -92.922099
},{
"label": "Antiguo Guadalupe Número 1", "lat": 15.510739, "lng": -92.883729
},{
"label": "El Girasol", "lat": 15.364963, "lng": -92.931216
},{
"label": "Jesús Reyes Solís", "lat": 15.467186, "lng": -92.887596
},{
"label": "Flor de un Día", "lat": 15.60333, "lng": -92.75833
},{
"label": "La Cuchilla", "lat": 15.467755, "lng": -93.000994
},{
"label": "Santa María", "lat": 15.347681, "lng": -93.026767
},{
"label": "El Triángulo", "lat": 15.434383, "lng": -93.060827
},{
"label": "El Potrillo", "lat": 15.285411, "lng": -92.882785
},{
"label": "Las Lomas", "lat": 15.464893, "lng": -92.900688
},{
"label": "Los Pinos", "lat": 15.426554, "lng": -92.94634
},{
"label": "Santa Rosa las Nubes", "lat": 15.583979, "lng": -92.945901
},{
"label": "Ángel de la Guarda", "lat": 15.443659, "lng": -92.954764
},{
"label": "El Recuerdo (Campo el Chino)", "lat": 15.409284, "lng": -92.952789
},{
"label": "Buenos Aires (San Miguel)", "lat": 15.583308, "lng": -92.840766
},{
"label": "La Racha", "lat": 15.442565, "lng": -92.954199
},{
"label": "Las Ánimas", "lat": 15.457173, "lng": -92.876454
},{
"label": "La Ceiba", "lat": 15.447728, "lng": -93.057119
},{
"label": "Achiotillo", "lat": 15.423557, "lng": -92.893048
},{
"label": "José Pantaleón Domínguez", "lat": 15.512849, "lng": -92.833896
},{
"label": "San Martín", "lat": 15.4151, "lng": -93.001481
},{
"label": "Las Juanitas", "lat": 15.376289, "lng": -92.931142
},{
"label": "Pablo Leyva Farrera", "lat": 15.349951, "lng": -92.852574
},{
"label": "Las Maravillas", "lat": 15.295247, "lng": -92.867842
},{
"label": "La Calzada", "lat": 15.430805, "lng": -93.012466
},{
"label": "Consejo Nacional de Fruticultura", "lat": 15.348462, "lng": -92.876449
},{
"label": "El Saucito", "lat": 15.29916, "lng": -92.847726
},{
"label": "Los Mendozas", "lat": 15.344172, "lng": -92.970942
},{
"label": "El Vergel", "lat": 15.442714, "lng": -93.047285
},{
"label": "Las Flores", "lat": 15.514376, "lng": -92.962636
},{
"label": "Monte Oreb", "lat": 15.40767, "lng": -93.056018
},{
"label": "Barranquito", "lat": 15.408475, "lng": -93.08552
},{
"label": "Santo Domingo", "lat": 15.340094, "lng": -92.995389
},{
"label": "Las Maravillas (San Ramón)", "lat": 15.388106, "lng": -92.938131
},{
"label": "El Amparo", "lat": 15.433744, "lng": -92.937822
},{
"label": "Abenamar Ángel Gálvez", "lat": 15.333185, "lng": -92.843523
},{
"label": "La Celia", "lat": 15.411376, "lng": -93.008802
},{
"label": "San Miguelito", "lat": 15.484991, "lng": -92.873988
},{
"label": "Desvío la Barrita", "lat": 15.407198, "lng": -93.09323
},{
"label": "Barrita de Pajón", "lat": 15.3983, "lng": -93.102844
},{
"label": "El Suspiro", "lat": 15.402996, "lng": -92.944875
},{
"label": "La Trinidad Dos", "lat": 15.466206, "lng": -92.910601
},{
"label": "Estación Vieja", "lat": 15.427021, "lng": -92.890918
},{
"label": "San Francisco", "lat": 15.365212, "lng": -92.95119
},{
"label": "Texcoco", "lat": 15.479944, "lng": -92.865882
},{
"label": "Grano de Oro", "lat": 15.365534, "lng": -93.048364
},{
"label": "La Concepción", "lat": 15.378564, "lng": -92.924385
},{
"label": "La Soledad", "lat": 15.378312, "lng": -93.017416
},{
"label": "El Encanto", "lat": 15.384024, "lng": -92.898523
},{
"label": "El Almendrito", "lat": 15.424172, "lng": -92.913712
},{
"label": "Ibarra", "lat": 15.335509, "lng": -92.952193
},{
"label": "Santa Jesús", "lat": 15.389049, "lng": -92.919962
},{
"label": "El Venado", "lat": 15.431501, "lng": -92.852928
},{
"label": "Montecristo", "lat": 15.310464, "lng": -92.866259
},{
"label": "El Tajín", "lat": 15.421234, "lng": -92.906676
},{
"label": "Las Mandarinas", "lat": 15.533347, "lng": -92.895006
},{
"label": "El Carmen", "lat": 15.308137, "lng": -92.931906
},{
"label": "Sin Pensar", "lat": 15.449251, "lng": -93.043767
},{
"label": "El Recuerdo", "lat": 15.421649, "lng": -93.018691
},{
"label": "San Valentín", "lat": 15.363755, "lng": -92.936177
},{
"label": "José López Portillo", "lat": 15.519446, "lng": -92.94398
},{
"label": "El Trébol", "lat": 15.411168, "lng": -93.080645
},{
"label": "El Guanacastle", "lat": 15.439655, "lng": -92.883805
},{
"label": "El Paraíso", "lat": 15.444077, "lng": -93.067908
},{
"label": "El Sacrificio (Zenón Martínez Venegas)", "lat": 15.497649, "lng": -92.992457
},{
"label": "La Gloria", "lat": 15.407479, "lng": -93.00478
},{
"label": "Los Olivos (San Francisco)", "lat": 15.480258, "lng": -92.940886
},{
"label": "El Trópico", "lat": 15.357784, "lng": -93.022585
},{
"label": "Santa Lucía", "lat": 15.475917, "lng": -92.954058
},{
"label": "San Isidro", "lat": 15.430501, "lng": -92.931309
},{
"label": "Agua Podrida", "lat": 15.473643, "lng": -92.892098
},{
"label": "Las Gaviotas", "lat": 15.387986, "lng": -93.08851
},{
"label": "Doroteo Arango", "lat": 15.531505, "lng": -92.898974
},{
"label": "La Esperancita", "lat": 15.498014, "lng": -92.854985
},{
"label": "Esperanza de Costa Rica", "lat": 15.465225, "lng": -92.825772
},{
"label": "Santa Teresa", "lat": 15.434078, "lng": -92.97866
},{
"label": "San Miguel (San Ramón)", "lat": 15.395814, "lng": -92.934411
},{
"label": "Doble R", "lat": 15.506176, "lng": -92.948383
},{
"label": "El Consuelo", "lat": 15.279168, "lng": -92.886043
},{
"label": "El Triángulo 2", "lat": 15.432955, "lng": -93.061049
},{
"label": "Fracción Salamanca", "lat": 15.28806, "lng": -92.8525
},{
"label": "Unión los Olivos", "lat": 15.518415, "lng": -92.803984
},{
"label": "La Princesa", "lat": 15.496546, "lng": -92.887994
},{
"label": "Las Carmelias", "lat": 15.386879, "lng": -93.061536
},{
"label": "La Cabaña", "lat": 15.307951, "lng": -92.845997
},{
"label": "Nueva Reforma", "lat": 15.547151, "lng": -92.863289
},{
"label": "El Sacramento", "lat": 15.409254, "lng": -93.095971
},{
"label": "Altamira Dos", "lat": 15.611213, "lng": -92.925014
},{
"label": "San Ramón", "lat": 15.497712, "lng": -92.937062
},{
"label": "Xochimilco", "lat": 15.418699, "lng": -92.919752
},{
"label": "José Heber Ordóñez (El Caribe)", "lat": 15.462216, "lng": -92.876516
},{
"label": "Guadalupe Victoria", "lat": 15.506056, "lng": -92.87942
},{
"label": "Adolfo Ruiz Cortínez (Solo Dios)", "lat": 15.494663, "lng": -92.826638
},{
"label": "San Nicolás", "lat": 15.46435, "lng": -92.885069
},{
"label": "El Santiago", "lat": 15.40477, "lng": -93.116498
},{
"label": "Las Gaviotas (Las Cruces)", "lat": 15.32254, "lng": -93.025956
},{
"label": "Buenos Aires", "lat": 15.545744, "lng": -92.850916
},{
"label": "Antiguo Valdivia", "lat": 15.487686, "lng": -92.964397
},{
"label": "Palo Blanco", "lat": 15.475566, "lng": -92.890048
},{
"label": "Punta del Llano", "lat": 15.410289, "lng": -93.113146
},{
"label": "Rigoberto Hueso", "lat": 15.4625, "lng": -92.91
},{
"label": "El Edén", "lat": 15.407675, "lng": -92.985265
},{
"label": "El Roble", "lat": 15.41801, "lng": -93.01652
},{
"label": "San Antonio", "lat": 15.357404, "lng": -93.021726
},{
"label": "Los Olivos", "lat": 15.397581, "lng": -93.084234
},{
"label": "Las Carolinas", "lat": 15.473622, "lng": -92.866419
},{
"label": "Piedra Aguda (Sesecapa)", "lat": 15.429729, "lng": -92.751073
},{
"label": "Absalón Castellanos Domínguez", "lat": 15.547739, "lng": -92.888027
},{
"label": "Ángel Leyva Farrera", "lat": 15.35194, "lng": -92.84722
},{
"label": "La Trinidad", "lat": 15.460444, "lng": -92.911931
},{
"label": "El Playón", "lat": 15.395914, "lng": -92.919749
},{
"label": "La Herencia", "lat": 15.481137, "lng": -92.892098
},{
"label": "El Porvenir", "lat": 15.340361, "lng": -93.019549
},{
"label": "Nueva Luz", "lat": 15.413663, "lng": -93.001595
},{
"label": "San José", "lat": 15.424061, "lng": -92.90869
},{
"label": "San Antonio (El Colorado)", "lat": 15.394387, "lng": -92.939041
},{
"label": "Los Gavilanes", "lat": 15.390768, "lng": -93.063466
},{
"label": "San Pedrito", "lat": 15.450871, "lng": -92.967424
},{
"label": "La Blanca", "lat": 15.448823, "lng": -92.996357
},{
"label": "Ramiro Silva Macedo", "lat": 15.46333, "lng": -92.89028
},{
"label": "El Primor", "lat": 15.451791, "lng": -93.049699
},{
"label": "El Mirador", "lat": 15.466656, "lng": -92.869933
},{
"label": "Las Conchas", "lat": 15.388076, "lng": -93.030928
},{
"label": "Laguna de Londres", "lat": 15.59288, "lng": -92.741977
},{
"label": "Las Naranjitas", "lat": 15.412745, "lng": -93.07869
},{
"label": "Sagrado Corazón de Jesús", "lat": 15.399911, "lng": -92.964165
},{
"label": "La Huerta", "lat": 15.439099, "lng": -92.972425
},{
"label": "5 de Mayo", "lat": 15.392798, "lng": -92.789794
},{
"label": "La Guadalupe", "lat": 15.436312, "lng": -92.976549
},{
"label": "Rancho Alegre", "lat": 15.419504, "lng": -93.062479
},{
"label": "La Herradura", "lat": 15.410073, "lng": -92.969454
},{
"label": "Nueva Libertad el Progreso", "lat": 15.499, "lng": -92.819386
},{
"label": "Monte Sinaí", "lat": 15.470111, "lng": -92.881336
},{
"label": "El Huamuche", "lat": 15.385625, "lng": -92.882883
},{
"label": "La Liliana", "lat": 15.403794, "lng": -93.039345
},{
"label": "El Corralón", "lat": 15.423169, "lng": -92.847525
},{
"label": "Aguaje Aguilillas", "lat": 15.409162, "lng": -93.057749
},{
"label": "El Caribe", "lat": 15.43611, "lng": -92.94639
},{
"label": "Claro Leyva Farrera", "lat": 15.34267, "lng": -92.855254
},{
"label": "San Antonio (El Alazán)", "lat": 15.467167, "lng": -93.084382
},{
"label": "Valle Bonito", "lat": 15.461484, "lng": -92.905552
},{
"label": "Los Cerritos", "lat": 15.469641, "lng": -93.016356
},{
"label": "El Escapulario", "lat": 15.363453, "lng": -93.022691
},{
"label": "El Huasteco", "lat": 15.43364, "lng": -92.920521
},{
"label": "Gamaliel Becerra (El Apazotal)", "lat": 15.261739, "lng": -92.909386
},{
"label": "Las Camelias", "lat": 15.400203, "lng": -93.091724
},{
"label": "El Atardecer", "lat": 15.498525, "lng": -92.854272
},{
"label": "Santa Cruz", "lat": 15.417007, "lng": -93.065074
},{
"label": "Las Guacamayas", "lat": 15.488666, "lng": -92.928185
},{
"label": "Ojo de Agua", "lat": 15.438313, "lng": -92.76831
},{
"label": "Santa Elena", "lat": 15.363789, "lng": -92.947529
},{
"label": "Marcedonio Salas", "lat": 15.43139, "lng": -92.85639
},{
"label": "Rancho Bonito", "lat": 15.513394, "lng": -92.960895
},{
"label": "Condado", "lat": 15.444211, "lng": -93.040504
},{
"label": "San Vicente", "lat": 15.387585, "lng": -93.051321
},{
"label": "El Cairo", "lat": 15.46212, "lng": -93.015126
},{
"label": "Unión Chiapaneca", "lat": 15.554972, "lng": -92.850774
},{
"label": "Las Aguilillas", "lat": 15.398734, "lng": -93.109676
},{
"label": "Los Luises", "lat": 15.431773, "lng": -92.865732
},{
"label": "Las Bugambilias", "lat": 15.315818, "lng": -92.9952
},{
"label": "Los Laureles", "lat": 15.415352, "lng": -92.921769
},{
"label": "El Palmito", "lat": 15.437173, "lng": -93.00632
},{
"label": "Berlín", "lat": 15.552275, "lng": -92.900511
},{
"label": "Santa Isabel", "lat": 15.281631, "lng": -92.910221
},{
"label": "San Antonio y las Palmas", "lat": 15.328798, "lng": -92.867333
},{
"label": "Santa Luisa", "lat": 15.427773, "lng": -92.967371
},{
"label": "San Marcos", "lat": 15.432703, "lng": -92.982264
},{
"label": "Chichén", "lat": 15.369791, "lng": -93.015238
},{
"label": "San Juan", "lat": 15.409019, "lng": -92.923048
},{
"label": "El Clarón", "lat": 15.366194, "lng": -93.047577
},{
"label": "El Rinconcito", "lat": 15.415185, "lng": -93.004414
},{
"label": "El Pescadero", "lat": 15.39958, "lng": -93.005684
},{
"label": "Joaquín Miguel Gutiérrez", "lat": 15.290001, "lng": -92.895881
},{
"label": "Santa Olga", "lat": 15.389403, "lng": -93.004628
},{
"label": "La Esperanza", "lat": 15.357439, "lng": -93.031749
},{
"label": "Las Brisas", "lat": 15.282565, "lng": -92.865084
},{
"label": "Francisco I. Madero", "lat": 15.264211, "lng": -92.872735
},{
"label": "La Unión", "lat": 15.433797, "lng": -92.978065
},{
"label": "El Aguacate", "lat": 15.402603, "lng": -92.993943
},{
"label": "Las Mercedes", "lat": 15.455706, "lng": -92.948692
},{
"label": "Loma Bonita", "lat": 15.597442, "lng": -92.861484
},{
"label": "Tres Ases", "lat": 15.413985, "lng": -93.06733
},{
"label": "El Sauce", "lat": 15.454728, "lng": -93.023474
},{
"label": "Tilapilla Fracción Tres", "lat": 15.45388, "lng": -92.937772
},{
"label": "El Encuentro", "lat": 15.422063, "lng": -92.916562
},{
"label": "Las Arecas", "lat": 15.438628, "lng": -93.066039
},{
"label": "Nuevo Guerrero", "lat": 15.337133, "lng": -92.924027
},{
"label": "El Cedro", "lat": 15.394889, "lng": -92.983918
},{
"label": "Santa Julia", "lat": 15.498366, "lng": -92.938081
},{
"label": "Federico Durante", "lat": 15.462729, "lng": -92.899221
},{
"label": "Zacazonapan", "lat": 15.467511, "lng": -92.997294
},{
"label": "Santa Mónica", "lat": 15.436937, "lng": -92.862727
},{
"label": "Belisario Domínguez", "lat": 15.402504, "lng": -92.827646
},{
"label": "Mi Tristeza", "lat": 15.582693, "lng": -92.904397
},{
"label": "La Asunción", "lat": 15.418778, "lng": -93.044973
},{
"label": "La Curva", "lat": 15.427374, "lng": -92.855401
},{
"label": "El Horizonte", "lat": 15.432046, "lng": -93.05206
},{
"label": "Ernestina de Montes", "lat": 15.483286, "lng": -92.925577
},{
"label": "Las Barajas", "lat": 15.474368, "lng": -92.986154
},{
"label": "Santa Martha", "lat": 15.386676, "lng": -92.996173
},{
"label": "Sal si Puedes", "lat": 15.450947, "lng": -93.02719
},{
"label": "Jorge Rodríguez", "lat": 15.412573, "lng": -92.905576
},{
"label": "Los Corazones", "lat": 15.43778, "lng": -92.94278
},{
"label": "Yalegf", "lat": 15.507409, "lng": -92.952161
},{
"label": "San Luis", "lat": 15.333647, "lng": -93.000832
},{
"label": "Rizo de Oro", "lat": 15.353233, "lng": -92.94207
},{
"label": "La Fortuna", "lat": 15.403834, "lng": -93.055567
},{
"label": "Los Aguacates", "lat": 15.4231, "lng": -92.923301
},{
"label": "La Floreña", "lat": 15.412922, "lng": -93.044467
},{
"label": "El Triunfo", "lat": 15.458962, "lng": -92.955057
},{
"label": "3 Hermanos", "lat": 15.459331, "lng": -93.005875
},{
"label": "Barrancón", "lat": 15.421771, "lng": -92.863406
},{
"label": "Guadalupe", "lat": 15.439157, "lng": -92.950332
},{
"label": "José Cruz Solís", "lat": 15.450912, "lng": -93.035408
},{
"label": "Reforma", "lat": 15.416718, "lng": -93.000548
},{
"label": "Los Coquitos", "lat": 15.413304, "lng": -92.960862
},{
"label": "Unión Santa Isabel", "lat": 15.264534, "lng": -92.905064
},{
"label": "Las Dos Marías", "lat": 15.321721, "lng": -92.998976
},{
"label": "San José de las Flores", "lat": 15.436289, "lng": -92.935823
},{
"label": "Casa Blanca", "lat": 15.454195, "lng": -92.929114
},{
"label": "El Colorado", "lat": 15.40216, "lng": -92.939098
},{
"label": "Santa Clara", "lat": 15.38833, "lng": -92.950467
},{
"label": "María Esther Gutiérrez E.", "lat": 15.380919, "lng": -92.831967
},{
"label": "La Floresta", "lat": 15.453052, "lng": -93.025317
},{
"label": "El Retiro", "lat": 15.360195, "lng": -93.029578
},{
"label": "Lindavista", "lat": 15.331289, "lng": -92.996894
},{
"label": "San Carlos", "lat": 15.292165, "lng": -92.885327
},{
"label": "Covadonga", "lat": 15.311149, "lng": -92.872381
},{
"label": "Irlanda", "lat": 15.416688, "lng": -93.038918
},{
"label": "Zacatonal las Flores", "lat": 15.346212, "lng": -92.998713
},{
"label": "Majagual", "lat": 15.2675, "lng": -92.96639
},{
"label": "El Rubí", "lat": 15.36437, "lng": -93.06252
},{
"label": "La Nueva Esperanza", "lat": 15.456774, "lng": -92.833173
},{
"label": "Chantuto", "lat": 15.233783, "lng": -92.889756
},{
"label": "Palma Sola", "lat": 15.418926, "lng": -92.945196
},{
"label": "El Tesoro", "lat": 15.372407, "lng": -92.926777
},{
"label": "Juan Escutia (Las Salinas)", "lat": 15.268103, "lng": -92.901451
},{
"label": "México 2000", "lat": 15.396423, "lng": -92.826033
},{
"label": "Tierra de Dios", "lat": 15.44066, "lng": -93.068593
},{
"label": "El Herradero", "lat": 15.446092, "lng": -93.036824
},{
"label": "Tres Hermanos", "lat": 15.277086, "lng": -92.873865
},{
"label": "Santa Anita", "lat": 15.465414, "lng": -92.954762
},{
"label": "Rubén Antonio Cruz", "lat": 15.290915, "lng": -92.858039
},{
"label": "El Castaño", "lat": 15.287976, "lng": -92.96647
},{
"label": "El Bajío", "lat": 15.36137, "lng": -93.058911
},{
"label": "Solo Dios", "lat": 15.568143, "lng": -92.913758
},{
"label": "Las Limas", "lat": 15.331876, "lng": -92.945847
},{
"label": "El Fronterizo", "lat": 15.38917, "lng": -93.09028
},{
"label": "Gustavo Godínez V.", "lat": 15.466435, "lng": -92.822851
},{
"label": "Camino Real", "lat": 15.453556, "lng": -93.056969
},{
"label": "Las Tres Gardenias", "lat": 15.496061, "lng": -92.888096
},{
"label": "Los Naranjos", "lat": 15.411945, "lng": -92.932267
},{
"label": "Rancho Escondido", "lat": 15.447407, "lng": -93.054564
},{
"label": "La Aurora", "lat": 15.418628, "lng": -93.028411
},{
"label": "Santo Tomás", "lat": 15.38104, "lng": -92.885934
},{
"label": "La Pampita", "lat": 15.359028, "lng": -92.927871
},{
"label": "San Jesús", "lat": 15.476001, "lng": -92.887383
},{
"label": "El Ayotal", "lat": 15.580015, "lng": -92.729602
},{
"label": "Nicolás Bravo Uno Anexo Emiliano Zapata", "lat": 15.355343, "lng": -92.839287
},{
"label": "El Brioso", "lat": 15.414167, "lng": -92.958885
},{
"label": "As de Oro", "lat": 15.412996, "lng": -93.069398
},{
"label": "El Alazán", "lat": 15.36409, "lng": -93.05703
},{
"label": "Rancho Alegre Dos", "lat": 15.398441, "lng": -92.929386
},{
"label": "Veintiuno de Marzo", "lat": 15.636044, "lng": -92.90946
},{
"label": "Benito Juárez Fracción Dos (Monterrey)", "lat": 15.296794, "lng": -92.866684
},{
"label": "El Cacao", "lat": 15.405701, "lng": -92.92424
},{
"label": "Juan Escutia", "lat": 15.483347, "lng": -92.940118
},{
"label": "El Brillante", "lat": 15.424693, "lng": -93.056963
},{
"label": "La Gotera", "lat": 15.497008, "lng": -92.937835
},{
"label": "El Diamante", "lat": 15.462335, "lng": -92.987351
},{
"label": "El Pulido", "lat": 15.270287, "lng": -92.880521
},{
"label": "Rosa Blanca", "lat": 15.497574, "lng": -92.887195
},{
"label": "Narciso Peralta", "lat": 15.442239, "lng": -92.914204
},{
"label": "Silverio Gutiérrez C.", "lat": 15.298741, "lng": -92.979286
},{
"label": "Valentín García H.", "lat": 15.552079, "lng": -92.96283
},{
"label": "El Catorce", "lat": 15.427019, "lng": -92.853333
},{
"label": "Bonampak", "lat": 15.487411, "lng": -93.007849
},{
"label": "Las Carmelitas", "lat": 15.426523, "lng": -92.854241
},{
"label": "Las Cruces", "lat": 15.349799, "lng": -93.015427
},{
"label": "Alpes (El Tesoro)", "lat": 15.551879, "lng": -92.873747
},{
"label": "El Paval", "lat": 15.593354, "lng": -92.850578
},{
"label": "Agroindustrias de Mapastepec [Extractora]", "lat": 15.344917, "lng": -92.863839
},{
"label": "Los Amates", "lat": 15.390996, "lng": -93.076206
},{
"label": "San Ángel", "lat": 15.423298, "lng": -92.946
},{
"label": "Francisco Sarabia (La Blanca)", "lat": 15.419315, "lng": -92.997813
},{
"label": "El Carpintero Dos", "lat": 15.47093, "lng": -92.916759
},{
"label": "Las Víboras", "lat": 15.464542, "lng": -92.882412
},{
"label": "Chapala", "lat": 15.385133, "lng": -93.086075
},{
"label": "El Desengaño", "lat": 15.437984, "lng": -92.925917
},{
"label": "El Chaparral", "lat": 15.500056, "lng": -92.854801
},{
"label": "Lázaro Cárdenas Uno", "lat": 15.29969, "lng": -92.891942
},{
"label": "El Coyote", "lat": 15.394786, "lng": -92.945201
},{
"label": "El Esfuerzo (El Cocal)", "lat": 15.346276, "lng": -92.942622
},{
"label": "Altamira Uno", "lat": 15.442332, "lng": -92.816986
},{
"label": "Agua Caliente", "lat": 15.462954, "lng": -92.907628
},{
"label": "El Canadá", "lat": 15.285908, "lng": -92.876204
},{
"label": "Gaby", "lat": 15.50111, "lng": -92.94611
},{
"label": "Mi Grandeza", "lat": 15.58458, "lng": -92.915916
},{
"label": "Arabia Félix", "lat": 15.50145, "lng": -92.943411
},{
"label": "El Anonal", "lat": 15.318753, "lng": -92.996051
},{
"label": "El Capiro", "lat": 15.3817, "lng": -93.071337
},{
"label": "10 de Abril", "lat": 15.356739, "lng": -93.033907
},{
"label": "Atenógenes Cruz Gómez", "lat": 15.330596, "lng": -92.859895
},{
"label": "Rancho de las Esperanzas", "lat": 15.455456, "lng": -93.048802
},{
"label": "Monte Alto", "lat": 15.383138, "lng": -92.833164
},{
"label": "El Framboyant", "lat": 15.457255, "lng": -92.997287
},{
"label": "Kilómetro 7", "lat": 15.472626, "lng": -92.994422
},{
"label": "La Palmita", "lat": 15.489292, "lng": -92.867841
},{
"label": "La Victoria", "lat": 15.469283, "lng": -92.969558
},{
"label": "Flores Magón", "lat": 15.409365, "lng": -92.836293
},{
"label": "El Dorado", "lat": 15.42108, "lng": -93.058503
},{
"label": "El Rosario", "lat": 15.41424, "lng": -92.918703
},{
"label": "Tilapilla Fracción Dos", "lat": 15.459984, "lng": -92.934864
},{
"label": "San Benito", "lat": 15.441263, "lng": -92.873398
},{
"label": "El Perú", "lat": 15.443375, "lng": -92.974986
},{
"label": "El Framboyán", "lat": 15.498442, "lng": -92.853674
},{
"label": "El Cariño", "lat": 15.425689, "lng": -93.083059
},{
"label": "La Primavera", "lat": 15.446847, "lng": -92.850043
},{
"label": "Esquipulas", "lat": 15.39584, "lng": -93.046967
},{
"label": "El Potrerón", "lat": 15.478699, "lng": -92.887108
},{
"label": "8 de Septiembre", "lat": 15.467302, "lng": -92.895168
},{
"label": "Salvador Méndez", "lat": 15.315661, "lng": -92.877776
},{
"label": "Novillerito", "lat": 15.497468, "lng": -92.938237
},{
"label": "Las Vegas", "lat": 15.346572, "lng": -93.042321
},{
"label": "Flamboyanes", "lat": 15.419593, "lng": -92.87353
},{
"label": "Sandi Dos", "lat": 15.334433, "lng": -92.944928
},{
"label": "Santa Catarina", "lat": 15.404869, "lng": -93.026541
},{
"label": "Narciso Mendoza", "lat": 15.310796, "lng": -92.915614
},{
"label": "Nueva Costa Rica", "lat": 15.467846, "lng": -92.813217
},{
"label": "El Saucillo", "lat": 15.496971, "lng": -92.924002
},{
"label": "Martina de la Cruz G.", "lat": 15.436726, "lng": -92.862334
},{
"label": "El Potrerito", "lat": 15.511436, "lng": -92.959478
},{
"label": "Juan Sabines Guerrero", "lat": 15.465839, "lng": -92.891679
},{
"label": "El Fortín", "lat": 15.301854, "lng": -92.850168
},{
"label": "San Fernando", "lat": 15.352493, "lng": -92.931341
},{
"label": "Portaceli", "lat": 15.527213, "lng": -92.894079
},{
"label": "San Jerónimo", "lat": 15.530333, "lng": -92.950664
},{
"label": "Santa Rosa", "lat": 15.356028, "lng": -92.978201
},{
"label": "El As de Oro", "lat": 15.440806, "lng": -92.942125
},{
"label": "Manacalito", "lat": 15.504573, "lng": -92.873699
},{
"label": "No me Olvides", "lat": 15.455285, "lng": -93.022743
},{
"label": "El Sinaí (Isidro Espinoza López)", "lat": 15.453956, "lng": -93.038368
},{
"label": "Las Arenas", "lat": 15.510571, "lng": -92.952848
},{
"label": "La Palmira", "lat": 15.407641, "lng": -93.059453
},{
"label": "Lorena", "lat": 15.395257, "lng": -93.065017
},{
"label": "El Cardel", "lat": 15.469316, "lng": -92.913486
},{
"label": "El Carpintero Uno", "lat": 15.470701, "lng": -92.913785
},{
"label": "La Ariana", "lat": 15.419911, "lng": -93.049938
},{
"label": "Las Palmas", "lat": 15.565051, "lng": -92.791316
},{
"label": "Tilapilla Fracción Uno", "lat": 15.463265, "lng": -92.941397
},{
"label": "La Candelaria", "lat": 15.414887, "lng": -93.066113
},{
"label": "Las Morenas", "lat": 15.280357, "lng": -92.958
},{
"label": "Los Mangos", "lat": 15.49407, "lng": -92.862528
},{
"label": "Santa Rosita", "lat": 15.441408, "lng": -92.951446
},{
"label": "Pancho Villa", "lat": 15.42071, "lng": -93.078971
},{
"label": "San José Aguajal", "lat": 15.280608, "lng": -92.856314
},{
"label": "Adolfo Ruiz Cortínez II", "lat": 15.533449, "lng": -92.899479
},{
"label": "Tras Lomita", "lat": 15.495109, "lng": -92.887308
},{
"label": "La Selva", "lat": 15.566021, "lng": -92.964507
},{
"label": "La Esmeralda", "lat": 15.486098, "lng": -92.926299
},{
"label": "Camino el Cascarón", "lat": 15.428931, "lng": -92.884504
},{
"label": "San Rafael", "lat": 15.406491, "lng": -93.079073
},{
"label": "Ampliación Vainilla", "lat": 15.342851, "lng": -92.933024
},{
"label": "El Refugio", "lat": 15.432748, "lng": -92.845767
},{
"label": "San Antonio Abad", "lat": 15.449934, "lng": -92.877241
},{
"label": "Punta del Llano (El Pajón)", "lat": 15.400003, "lng": -93.099674
},{
"label": "Benito Juárez", "lat": 15.279594, "lng": -92.891754
},{
"label": "Las Águilas", "lat": 15.365854, "lng": -93.049696
},{
"label": "Luis A. Romano H.", "lat": 15.301459, "lng": -92.982198
},{
"label": "El Escobo", "lat": 15.381344, "lng": -93.081247
},{
"label": "El Tunin", "lat": 15.508514, "lng": -92.925788
},{
"label": "Rancho Alegre Uno", "lat": 15.401322, "lng": -92.926969
},{
"label": "Rancho Nuevo", "lat": 15.340202, "lng": -92.990828
},{
"label": "La Lomita", "lat": 15.432274, "lng": -92.855261
},{
"label": "Uluapa", "lat": 15.408428, "lng": -92.827149
},{
"label": "Abraham González", "lat": 15.364823, "lng": -92.898998
},{
"label": "Los Sauces", "lat": 15.462177, "lng": -92.908713
},{
"label": "La Laguna", "lat": 15.381689, "lng": -92.991467
},{
"label": "La Camaronera", "lat": 15.334842, "lng": -93.014477
},{
"label": "Nueva Flor", "lat": 15.431941, "lng": -92.850961
},{
"label": "Diecisiete de Marzo", "lat": 15.334265, "lng": -92.992477
},{
"label": "Los Cascabeles", "lat": 15.340443, "lng": -92.838929
},{
"label": "El Manguito", "lat": 15.287896, "lng": -92.962959
},{
"label": "Israel Campos Muraca", "lat": 15.290111, "lng": -92.855919
},{
"label": "Mario Cruz Gómez", "lat": 15.336588, "lng": -92.874058
},{
"label": "Las Delicias", "lat": 15.401843, "lng": -92.984633
},{
"label": "La Alianza", "lat": 15.371691, "lng": -92.870794
},{
"label": "Las Esmeraldas", "lat": 15.279856, "lng": -92.870361
},{
"label": "La Jungla", "lat": 15.41746, "lng": -92.816562
},{
"label": "Las Margaritas", "lat": 15.470531, "lng": -92.915565
},{
"label": "La Lagunita", "lat": 15.46917, "lng": -92.88444
},{
"label": "Emiliano Zapata", "lat": 15.328549, "lng": -92.932643
},{
"label": "Juan Becerra (María Belén Cruz Hilario)", "lat": 15.425703, "lng": -92.911981
},{
"label": "El Framboyan", "lat": 15.475032, "lng": -92.995489
},{
"label": "Rafael Zavala", "lat": 15.458954, "lng": -93.007666
},{
"label": "Las Saucedas", "lat": 15.541224, "lng": -92.900218
},{
"label": "Tres de Mayo", "lat": 15.570648, "lng": -92.865769
},{
"label": "José María Pino Suárez", "lat": 15.329811, "lng": -92.90325
},{
"label": "La Granja", "lat": 15.318901, "lng": -92.857973
},{
"label": "San Pedro de las Flores", "lat": 15.429316, "lng": -92.931733
},{
"label": "Los Horcones", "lat": 15.542205, "lng": -92.89933
},{
"label": "La Permuta", "lat": 15.474946, "lng": -93.061242
},{
"label": "El Ciprés", "lat": 15.49925, "lng": -92.852664
},{
"label": "Pensylvania", "lat": 15.297936, "lng": -92.854334
},{
"label": "La Tejería", "lat": 15.464521, "lng": -92.898478
},{
"label": "La Vainilla", "lat": 15.351653, "lng": -92.91077
},{
"label": "El Naranjo", "lat": 15.381536, "lng": -93.053474
},{
"label": "La Providencia", "lat": 15.439952, "lng": -93.053708
},{
"label": "El Ensueño (El Cocal)", "lat": 15.346338, "lng": -92.94487
},{
"label": "Tierra y Libertad", "lat": 15.516435, "lng": -92.943439
},{
"label": "San Pedro", "lat": 15.453501, "lng": -92.961665
},{
"label": "La Selva Uno", "lat": 15.560814, "lng": -92.956111
},{
"label": "Roberto Rosas Roblero", "lat": 15.346199, "lng": -92.865585
},{
"label": "Santa Teresita", "lat": 15.445938, "lng": -92.956678
},{
"label": "La Furia", "lat": 15.276394, "lng": -92.889088
},{
"label": "Betania", "lat": 15.407201, "lng": -93.052219
},{
"label": "Fronterita", "lat": 15.386021, "lng": -92.872141
},{
"label": "Piedras Blancas", "lat": 15.503683, "lng": -92.846011
},{
"label": "El Peñón", "lat": 15.481731, "lng": -92.874709
},{
"label": "Nuevo Milenio Valdivia", "lat": 15.503834, "lng": -92.949011
},{
"label": "Isabel", "lat": 15.460844, "lng": -93.014364
},{
"label": "Sesecapa", "lat": 15.402116, "lng": -92.82326
},{
"label": "Simón Bolívar", "lat": 15.428484, "lng": -92.863425
},{
"label": "La Gerona", "lat": 15.414226, "lng": -92.936608
},{
"label": "Santa Cruz (Campo el Chino)", "lat": 15.408991, "lng": -92.951232
},{
"label": "Las Campanas", "lat": 15.371352, "lng": -92.928979
},{
"label": "Julio Valencia", "lat": 15.316462, "lng": -92.852437
},{
"label": "Las Brisas de San Nicolás", "lat": 15.479457, "lng": -92.870983
},{
"label": "Elí Reyes Hernández", "lat": 15.348048, "lng": -92.8711
},{
"label": "Leonardo Leyva", "lat": 15.327222, "lng": -92.868929
},{
"label": "Mapastepec", "lat": 15.441134, "lng": -92.891606
},{
"label": "El Rodeo", "lat": 15.396554, "lng": -93.016908
},{
"label": "El Pino (Lindavista)", "lat": 15.577365, "lng": -92.850491
},{
"label": "Zulum", "lat": 15.4346, "lng": -92.933954
},{
"label": "Salamanca", "lat": 15.291355, "lng": -92.851503
},{
"label": "El Terrero", "lat": 15.418591, "lng": -92.905295
},{
"label": "Castaño Cuache", "lat": 15.411769, "lng": -92.907556
},{
"label": "Morelia", "lat": 15.292005, "lng": -92.850322
},{
"label": "Ocho de Septiembre", "lat": 15.482626, "lng": -92.936303
},{
"label": "Las Américas (El Cocal)", "lat": 15.347718, "lng": -92.946334
},{
"label": "El Limoncito", "lat": 15.405698, "lng": -93.000374
},{
"label": "Guachipilín", "lat": 15.445496, "lng": -92.957639
},{
"label": "La Morena", "lat": 15.442772, "lng": -93.06319
},{
"label": "El Huachipilín", "lat": 15.451273, "lng": -93.023432
},{
"label": "El Quemado", "lat": 15.384615, "lng": -92.980552
},{
"label": "El Mangal", "lat": 15.465611, "lng": -92.944248
},{
"label": "Medias Aguas (San Miguel)", "lat": 15.440756, "lng": -93.041774
}]