[{
"label": "Nueva Alianza", "lat": 17.409245, "lng": -93.329365
},{
"label": "El Carmen", "lat": 17.440807, "lng": -93.330554
},{
"label": "Laguna Arriba", "lat": 17.369831, "lng": -93.295362
},{
"label": "Las Amarillas", "lat": 17.324884, "lng": -93.420996
},{
"label": "Nuevo Emiliano Zapata", "lat": 17.453651, "lng": -93.47403
},{
"label": "Xochimilco (Reymundo Enríquez)", "lat": 17.390195, "lng": -93.304718
},{
"label": "Altamira", "lat": 17.440795, "lng": -93.348708
},{
"label": "Muspac", "lat": 17.423949, "lng": -93.410756
},{
"label": "Plan de Ayala", "lat": 17.473983, "lng": -93.486818
},{
"label": "El Rosario", "lat": 17.494558, "lng": -93.500008
},{
"label": "San Antonio los Potrillos", "lat": 17.523685, "lng": -93.447316
},{
"label": "La Gloria", "lat": 17.542344, "lng": -93.428826
},{
"label": "Nuevo Guadalupe Victoria", "lat": 17.40669, "lng": -93.530725
},{
"label": "Cuauhtémoc", "lat": 17.313168, "lng": -93.451812
},{
"label": "El Chamizal", "lat": 17.471993, "lng": -93.344864
},{
"label": "La Peña 2da. Sección", "lat": 17.52797, "lng": -93.435486
},{
"label": "Playa Larga 1ra. Sección", "lat": 17.38282, "lng": -93.455746
},{
"label": "San Lorenzo", "lat": 17.423397, "lng": -93.354021
},{
"label": "Ostuacán", "lat": 17.405591, "lng": -93.337136
},{
"label": "El Bocacio", "lat": 17.489759, "lng": -93.500046
},{
"label": "Maspac Arriba 3ra. Sección", "lat": 17.354391, "lng": -93.334674
},{
"label": "Playa de Piedra 1ra. Sección", "lat": 17.54306, "lng": -93.479392
},{
"label": "El Cinco", "lat": 17.426769, "lng": -93.34971
},{
"label": "El Triunfo", "lat": 17.346601, "lng": -93.350996
},{
"label": "Copano 2da. Sección", "lat": 17.497063, "lng": -93.404593
},{
"label": "Santa Rosa", "lat": 17.459224, "lng": -93.384656
},{
"label": "La Peña 1ra. Sección", "lat": 17.511148, "lng": -93.46234
},{
"label": "Catedral 2da. Sección", "lat": 17.429279, "lng": -93.351963
},{
"label": "Cuatro Caminos", "lat": 17.48697, "lng": -93.499419
},{
"label": "San José el Porvenir", "lat": 17.382271, "lng": -93.289566
},{
"label": "Paraíso 1ra. Sección", "lat": 17.488291, "lng": -93.308293
},{
"label": "Nuevo Ixtacomitán", "lat": 17.441654, "lng": -93.38877
},{
"label": "El Convenio", "lat": 17.465583, "lng": -93.5066
},{
"label": "Maspac Abajo 1ra. Sección", "lat": 17.397605, "lng": -93.354833
},{
"label": "La Espuela", "lat": 17.52192, "lng": -93.450845
},{
"label": "Peñitas el Mico", "lat": 17.460747, "lng": -93.434908
},{
"label": "Alto Amacoíte 3ra. Sección", "lat": 17.414715, "lng": -93.499894
},{
"label": "Nuevo Peñitas", "lat": 17.45453, "lng": -93.457505
},{
"label": "Maspac Arriba 2da. Sección", "lat": 17.378613, "lng": -93.345721
},{
"label": "Lindavista", "lat": 17.473694, "lng": -93.479145
},{
"label": "Paraíso 2da. Sección", "lat": 17.463784, "lng": -93.350854
},{
"label": "San Antonio", "lat": 17.525121, "lng": -93.482258
},{
"label": "El Llano", "lat": 17.404478, "lng": -93.386526
},{
"label": "Catedral 1ra. Sección", "lat": 17.426016, "lng": -93.324998
},{
"label": "Paraíso 3ra. Sección", "lat": 17.473564, "lng": -93.313289
},{
"label": "Licenciado Pablo Salazar Mendiguchia", "lat": 17.417624, "lng": -93.386583
},{
"label": "San Rafael", "lat": 17.536753, "lng": -93.435809
},{
"label": "Tanchichal", "lat": 17.407291, "lng": -93.30576
},{
"label": "Nuevo Sayula", "lat": 17.390565, "lng": -93.415942
},{
"label": "El Refugio", "lat": 17.450938, "lng": -93.482646
},{
"label": "Arturo López Zacarías", "lat": 17.392853, "lng": -93.43895
},{
"label": "Benito Juárez", "lat": 17.419265, "lng": -93.384782
},{
"label": "Nueva Esperanza (San Rosendo)", "lat": 17.418512, "lng": -93.395987
},{
"label": "El Limón", "lat": 17.450541, "lng": -93.492277
},{
"label": "San José", "lat": 17.449118, "lng": -93.496587
},{
"label": "Laguna la Campana", "lat": 17.364011, "lng": -93.326908
},{
"label": "Pobladores de Pichucalco", "lat": 17.444348, "lng": -93.406259
},{
"label": "La Conformidad", "lat": 17.45007, "lng": -93.488051
},{
"label": "Laguna Abajo", "lat": 17.396287, "lng": -93.327878
},{
"label": "Playa Larga 3ra. Sección", "lat": 17.355943, "lng": -93.479202
},{
"label": "Los Altos de Playa Larga", "lat": 17.3011, "lng": -93.387998
},{
"label": "El Tesoro de los Pobres (Kilómetro 39)", "lat": 17.391389, "lng": -93.541467
},{
"label": "El Cuatro", "lat": 17.419158, "lng": -93.378141
},{
"label": "San Miguel", "lat": 17.460799, "lng": -93.349259
},{
"label": "Amacoíte 1ra. Sección", "lat": 17.508221, "lng": -93.498209
},{
"label": "San Gregorio", "lat": 17.453912, "lng": -93.356634
},{
"label": "Antonio León", "lat": 17.410662, "lng": -93.476789
},{
"label": "La Florida (Kilómetro 37)", "lat": 17.39892, "lng": -93.533353
},{
"label": "Ildefonso Báez Saso", "lat": 17.388798, "lng": -93.540544
},{
"label": "La Herradura", "lat": 17.44651, "lng": -93.359461
},{
"label": "Nuevo Milenio", "lat": 17.409013, "lng": -93.327828
},{
"label": "La Providencia", "lat": 17.459833, "lng": -93.504322
},{
"label": "Playa de Piedra 2da. Sección", "lat": 17.568485, "lng": -93.423139
},{
"label": "Candelaria", "lat": 17.488176, "lng": -93.417994
},{
"label": "El Nuevo Amanecer", "lat": 17.50237, "lng": -93.499934
},{
"label": "Salomón González Blanco", "lat": 17.394691, "lng": -93.409273
},{
"label": "El Polvorín", "lat": 17.485983, "lng": -93.499013
},{
"label": "Copano 1ra. Sección", "lat": 17.477784, "lng": -93.393041
},{
"label": "La Peña 3ra. Sección", "lat": 17.516113, "lng": -93.414038
},{
"label": "Lázaro Cárdenas", "lat": 17.337791, "lng": -93.370434
},{
"label": "Agua Prieta", "lat": 17.566516, "lng": -93.426098
},{
"label": "La Ilusión", "lat": 17.528309, "lng": -93.443696
},{
"label": "Dolores", "lat": 17.451315, "lng": -93.403214
},{
"label": "Mauro Hernández Pérez", "lat": 17.389492, "lng": -93.540848
},{
"label": "Nuevo Juan del Grijalva", "lat": 17.427013, "lng": -93.37207
},{
"label": "Explanada San Judas Tadeo", "lat": 17.360455, "lng": -93.317599
},{
"label": "La Perseverancia", "lat": 17.452058, "lng": -93.3877
},{
"label": "Juan Hernández López", "lat": 17.391859, "lng": -93.537364
},{
"label": "Juan del Grijalva", "lat": 17.364542, "lng": -93.381284
},{
"label": "Las Flores (El Cuarenta)", "lat": 17.386111, "lng": -93.543056
},{
"label": "Peñitas", "lat": 17.463988, "lng": -93.479315
},{
"label": "Los Milagros", "lat": 17.482113, "lng": -93.405158
},{
"label": "El Progreso", "lat": 17.358447, "lng": -93.353836
},{
"label": "Novillero", "lat": 17.433228, "lng": -93.350106
},{
"label": "El Coconal", "lat": 17.506217, "lng": -93.498045
},{
"label": "Bajo Amacoíte", "lat": 17.522677, "lng": -93.494083
},{
"label": "La Esperanza", "lat": 17.433433, "lng": -93.308888
},{
"label": "Paraíso San Antonio", "lat": 17.499262, "lng": -93.359681
},{
"label": "Catedral de Chiapas", "lat": 17.441058, "lng": -93.296661
},{
"label": "La Laja", "lat": 17.383862, "lng": -93.370276
},{
"label": "Grano de Oro", "lat": 17.485159, "lng": -93.498755
},{
"label": "Alto Amacoite 2da. Sección", "lat": 17.436064, "lng": -93.519451
},{
"label": "Loma Bonita", "lat": 17.362831, "lng": -93.462141
},{
"label": "Nuevo Xochimilco", "lat": 17.454834, "lng": -93.368543
}]