[{
"label": "Pamaló", "lat": 16.854077, "lng": -93.066024
},{
"label": "Cuba Libre", "lat": 16.868078, "lng": -93.028214
},{
"label": "San Antonio el Arroyón", "lat": 16.890119, "lng": -93.067498
},{
"label": "Cañón del Sumidero [Parque Ecoturístico]", "lat": 16.884369, "lng": -93.102654
},{
"label": "El Carrizal", "lat": 16.937862, "lng": -93.123687
},{
"label": "Libertad Campesina", "lat": 16.878673, "lng": -93.032567
},{
"label": "Nueva Esperanza", "lat": 16.904839, "lng": -93.063837
},{
"label": "El Paraíso", "lat": 16.909389, "lng": -93.068872
},{
"label": "La Sombra", "lat": 16.941173, "lng": -93.140992
},{
"label": "Agua Fría", "lat": 16.857786, "lng": -93.037406
},{
"label": "Osumacinta", "lat": 16.935467, "lng": -93.091337
},{
"label": "Candelaria", "lat": 16.879264, "lng": -93.065822
},{
"label": "Triunfo Agrarista", "lat": 16.855136, "lng": -93.07185
},{
"label": "Buenavista", "lat": 16.859177, "lng": -93.04309
},{
"label": "Sonora", "lat": 16.868359, "lng": -93.052577
}]