[{
"label": "San Isidro Liquidámbar", "lat": 17.23754, "lng": -93.081802
},{
"label": "El Carmen", "lat": 17.188146, "lng": -93.055757
},{
"label": "El Tulipán", "lat": 17.227276, "lng": -93.035768
},{
"label": "El Recuerdo", "lat": 17.155618, "lng": -93.076811
},{
"label": "El Horcón", "lat": 17.145684, "lng": -93.098713
},{
"label": "Buenavista Caracol", "lat": 17.226252, "lng": -93.049911
},{
"label": "Concepción", "lat": 17.185038, "lng": -93.051283
},{
"label": "El Sauz", "lat": 17.149336, "lng": -93.044837
},{
"label": "Buenavista", "lat": 17.200281, "lng": -93.055639
},{
"label": "La Naranja", "lat": 17.149897, "lng": -93.05199
},{
"label": "El Avellano", "lat": 17.1906, "lng": -93.033697
},{
"label": "Santa Martha", "lat": 17.223447, "lng": -93.062915
},{
"label": "La Guadalupe", "lat": 17.184583, "lng": -93.04745
},{
"label": "El Naranjo", "lat": 17.14732, "lng": -93.026164
},{
"label": "San José Buenavista", "lat": 17.182713, "lng": -93.079326
},{
"label": "San Antonio 2da. Sección", "lat": 17.212243, "lng": -93.034493
},{
"label": "San Antonio 1ra. Sección", "lat": 17.212702, "lng": -93.041592
},{
"label": "La Soledad Segunda Sección", "lat": 17.178759, "lng": -93.037337
},{
"label": "El Triunfo", "lat": 17.217634, "lng": -93.053206
},{
"label": "Los Pinos", "lat": 17.227118, "lng": -93.062672
},{
"label": "El Achiote", "lat": 17.151723, "lng": -93.080947
},{
"label": "Santa Cruz", "lat": 17.177928, "lng": -93.043559
},{
"label": "Nueva Reforma", "lat": 17.217348, "lng": -93.074486
},{
"label": "Ojo de Agua", "lat": 17.151599, "lng": -93.033179
},{
"label": "La Nueva Unión", "lat": 17.25363, "lng": -93.055032
},{
"label": "Santa Rosa", "lat": 17.158586, "lng": -93.051187
},{
"label": "La Florida", "lat": 17.1688, "lng": -93.042604
},{
"label": "Liquidámbar", "lat": 17.222055, "lng": -93.063225
},{
"label": "Pantepec", "lat": 17.188092, "lng": -93.049546
},{
"label": "Laguna Grande", "lat": 17.248568, "lng": -93.083921
},{
"label": "El Poco", "lat": 17.145281, "lng": -93.041549
},{
"label": "Canaleja", "lat": 17.23107, "lng": -93.052596
},{
"label": "Laguna Chica", "lat": 17.253384, "lng": -93.062634
},{
"label": "El Carrizal", "lat": 17.161718, "lng": -93.077377
},{
"label": "Montebello", "lat": 17.181513, "lng": -93.069968
},{
"label": "Canelar", "lat": 17.242785, "lng": -93.056035
},{
"label": "El Shuti", "lat": 17.150442, "lng": -93.028287
},{
"label": "La Fábrica", "lat": 17.159385, "lng": -93.0765
},{
"label": "La Reforma", "lat": 17.142472, "lng": -93.035544
},{
"label": "Berlín", "lat": 17.151715, "lng": -93.083089
},{
"label": "San Isidro las Banderas", "lat": 17.231981, "lng": -93.06005
},{
"label": "Buenos Aires", "lat": 17.248128, "lng": -93.048739
},{
"label": "San Lucas", "lat": 17.184506, "lng": -93.074419
},{
"label": "La Cruz", "lat": 17.186381, "lng": -93.04761
},{
"label": "Manzana 1 Bella Candelaria", "lat": 17.185126, "lng": -93.031943
},{
"label": "San Francisco", "lat": 17.140096, "lng": -93.051889
},{
"label": "Rincón Ocote", "lat": 17.159514, "lng": -93.090726
},{
"label": "Julián Grajales", "lat": 17.129975, "lng": -92.97852
},{
"label": "La Soledad", "lat": 17.172857, "lng": -93.038003
},{
"label": "El Avellanito", "lat": 17.19746, "lng": -93.032142
},{
"label": "El Limón", "lat": 17.194705, "lng": -93.040032
},{
"label": "Las Estrellas", "lat": 17.182611, "lng": -93.044849
},{
"label": "Nuevo Poblado San Isidro las Banderas", "lat": 17.228537, "lng": -93.057229
}]