[{
"label": "La Unión Nueva", "lat": 17.222411, "lng": -92.978633
},{
"label": "El Carmen", "lat": 17.209901, "lng": -93.032873
},{
"label": "Cruz Verde", "lat": 17.178136, "lng": -92.975561
},{
"label": "Esperanza", "lat": 17.190344, "lng": -93.025113
},{
"label": "Rivera Unión Lajas", "lat": 17.228954, "lng": -92.992148
},{
"label": "Dolores", "lat": 17.230308, "lng": -93.013547
},{
"label": "El Campanario", "lat": 17.212164, "lng": -93.013991
},{
"label": "San Martín", "lat": 17.226815, "lng": -93.013824
},{
"label": "Aguacate Pijuy", "lat": 17.171283, "lng": -93.01592
},{
"label": "José D. López D.", "lat": 17.214821, "lng": -93.017173
},{
"label": "San Miguel", "lat": 17.227808, "lng": -93.014287
},{
"label": "El Patio", "lat": 17.19383, "lng": -93.011552
},{
"label": "Guadalupe Victoria", "lat": 17.185884, "lng": -92.98902
},{
"label": "La Candelaria", "lat": 17.195072, "lng": -93.015177
},{
"label": "Rayón", "lat": 17.200503, "lng": -93.011217
},{
"label": "San Martín Caballero", "lat": 17.18472, "lng": -92.98806
},{
"label": "Cacate", "lat": 17.154149, "lng": -93.010259
},{
"label": "Rivera San Antonio", "lat": 17.184679, "lng": -92.980026
},{
"label": "El Vergel", "lat": 17.235345, "lng": -93.019011
},{
"label": "La Naranja", "lat": 17.164236, "lng": -92.97576
},{
"label": "Nueva Localidad Zoque", "lat": 17.205073, "lng": -93.002551
},{
"label": "Anexo las Nubes", "lat": 17.205298, "lng": -92.978966
},{
"label": "Nopalito", "lat": 17.212042, "lng": -92.960281
},{
"label": "El Carmen Dos", "lat": 17.181078, "lng": -92.999366
},{
"label": "El Zapote", "lat": 17.226553, "lng": -93.004416
},{
"label": "Flor de María", "lat": 17.228621, "lng": -92.988129
},{
"label": "Los Dos Hermanos", "lat": 17.209545, "lng": -93.009302
},{
"label": "Flor de Ventana", "lat": 17.218898, "lng": -92.985426
},{
"label": "Nueva Esperanza (La Providencia)", "lat": 17.218937, "lng": -93.011976
},{
"label": "Sebastián Pérez Nuñez", "lat": 17.218996, "lng": -93.001282
},{
"label": "Cumbre de Manzanillo", "lat": 17.168305, "lng": -92.972429
},{
"label": "San Francisco", "lat": 17.183633, "lng": -93.006248
},{
"label": "Carrizal", "lat": 17.139577, "lng": -92.991153
},{
"label": "El Volcán", "lat": 17.227898, "lng": -93.0108
},{
"label": "San Antonio Canelar", "lat": 17.210305, "lng": -92.991893
},{
"label": "La Soledad", "lat": 17.170691, "lng": -93.031797
},{
"label": "El Pinabeto", "lat": 17.208015, "lng": -92.959258
},{
"label": "Manzanillo Pinabeto", "lat": 17.187598, "lng": -92.966421
},{
"label": "El Mecatal", "lat": 17.187781, "lng": -92.976105
},{
"label": "Rivera San Sebastián", "lat": 17.199521, "lng": -92.9668
},{
"label": "José Dolores López Domínguez", "lat": 17.215502, "lng": -93.02297
}]