[{
"label": "Río Trapiche", "lat": 16.593505, "lng": -92.687408
},{
"label": "Laguna del Carmen", "lat": 16.647989, "lng": -92.708097
},{
"label": "El Recreo", "lat": 16.576602, "lng": -92.628995
},{
"label": "El Camarón", "lat": 16.586631, "lng": -92.722216
},{
"label": "San José Buenavista", "lat": 16.622282, "lng": -92.731346
},{
"label": "Chacampon del Carmen", "lat": 16.629568, "lng": -92.741734
},{
"label": "La Montaña", "lat": 16.576369, "lng": -92.641773
},{
"label": "Francisco Villa", "lat": 16.590319, "lng": -92.679783
},{
"label": "Fracción el Nacimiento", "lat": 16.601314, "lng": -92.724393
},{
"label": "El Nacimiento", "lat": 16.60454, "lng": -92.723434
},{
"label": "El Amate", "lat": 16.581948, "lng": -92.645173
},{
"label": "La Mora", "lat": 16.596953, "lng": -92.724531
},{
"label": "San Lucas", "lat": 16.611637, "lng": -92.719342
}]