[{
"label": "San José el Recreo", "lat": 17.026143, "lng": -92.328318
},{
"label": "San Juan de la Montaña", "lat": 17.084421, "lng": -92.368913
},{
"label": "Villaflores", "lat": 17.033723, "lng": -92.372506
},{
"label": "Guadalupe Peña Blanca Primera", "lat": 17.049302, "lng": -92.340614
},{
"label": "Santo Domingo Fracción II", "lat": 17.019055, "lng": -92.375923
},{
"label": "La Gloria", "lat": 17.032766, "lng": -92.313848
},{
"label": "Guadalupe Picoté", "lat": 17.044372, "lng": -92.391915
},{
"label": "Guadalupe Porvenir", "lat": 17.039857, "lng": -92.351632
},{
"label": "Guadalupe Copatil", "lat": 17.022281, "lng": -92.379388
},{
"label": "San Isidro", "lat": 17.017178, "lng": -92.300077
},{
"label": "Santo Domingo Shucail", "lat": 17.020175, "lng": -92.377193
},{
"label": "Arizona", "lat": 17.033576, "lng": -92.345496
},{
"label": "Santa Martha", "lat": 17.036966, "lng": -92.354941
},{
"label": "San José Terranova", "lat": 17.028432, "lng": -92.340286
},{
"label": "Guadalupe Shucail", "lat": 17.019798, "lng": -92.379468
},{
"label": "Guadalupe la Palma", "lat": 17.020347, "lng": -92.332271
},{
"label": "Batilá", "lat": 17.017029, "lng": -92.296043
},{
"label": "Santa Cruz la Reforma", "lat": 17.056131, "lng": -92.298107
},{
"label": "Fracción Jagualá", "lat": 17.058808, "lng": -92.334654
},{
"label": "San Antonio Jagualá", "lat": 17.060589, "lng": -92.336249
},{
"label": "Frontera Mevajá", "lat": 17.050661, "lng": -92.364851
},{
"label": "Pomiltic", "lat": 17.063638, "lng": -92.341315
},{
"label": "Santa Anita la Ceiba", "lat": 17.059018, "lng": -92.408822
},{
"label": "Pamala (La Laguna)", "lat": 17.015579, "lng": -92.313044
},{
"label": "San Agustín", "lat": 17.067287, "lng": -92.335029
},{
"label": "Sitalá", "lat": 17.025051, "lng": -92.307743
},{
"label": "San Jerónimo", "lat": 17.016705, "lng": -92.404033
},{
"label": "Jagualá Porvenir", "lat": 17.069982, "lng": -92.348344
},{
"label": "La Palma", "lat": 17.016016, "lng": -92.334517
},{
"label": "San José Jágualá", "lat": 17.05778, "lng": -92.32333
},{
"label": "Golonchán Viejo", "lat": 17.032747, "lng": -92.385628
},{
"label": "El Recreo", "lat": 17.040619, "lng": -92.333743
},{
"label": "La Trinitaria", "lat": 17.062819, "lng": -92.375624
},{
"label": "Fracción Recreo", "lat": 17.030443, "lng": -92.327113
},{
"label": "San José el Porvenir", "lat": 17.065443, "lng": -92.351228
},{
"label": "Santa Cruz Bahuitz", "lat": 17.051853, "lng": -92.373108
},{
"label": "Santa Clara", "lat": 17.047535, "lng": -92.407129
},{
"label": "Jagualá Santa Cruz", "lat": 17.070728, "lng": -92.34498
},{
"label": "La Ventana Pichitán", "lat": 17.01361, "lng": -92.33194
},{
"label": "Nuevo Plan de Guadalupe Tzatel", "lat": 17.010952, "lng": -92.388519
},{
"label": "Villa las Rosas", "lat": 17.038501, "lng": -92.358315
},{
"label": "San Francisco la Unión", "lat": 17.009994, "lng": -92.369698
},{
"label": "San Carlos", "lat": 17.037725, "lng": -92.349476
},{
"label": "Buenos Aires", "lat": 17.060943, "lng": -92.377879
},{
"label": "San Pedro Buenavista", "lat": 17.018491, "lng": -92.296024
},{
"label": "Mebaja (Rancho Nuevo)", "lat": 17.071814, "lng": -92.354763
},{
"label": "11 de Abril", "lat": 17.043112, "lng": -92.329827
},{
"label": "San Luis Xixintonil", "lat": 17.061894, "lng": -92.326872
},{
"label": "Ocotal Chabeclumil", "lat": 17.067757, "lng": -92.362077
},{
"label": "Insurgente Picoté", "lat": 17.059364, "lng": -92.383128
},{
"label": "La Nueva Esperanza", "lat": 17.030712, "lng": -92.289842
},{
"label": "San Juan Mazanil", "lat": 17.047903, "lng": -92.38507
},{
"label": "Palestina", "lat": 17.015291, "lng": -92.362332
},{
"label": "Perla el Vergel", "lat": 17.058578, "lng": -92.324044
},{
"label": "Vergel", "lat": 17.053099, "lng": -92.311327
},{
"label": "La Trinidad", "lat": 17.017451, "lng": -92.357896
},{
"label": "Los Alpes el Palmar", "lat": 17.033155, "lng": -92.354026
},{
"label": "San Antonio el Rosario", "lat": 17.041601, "lng": -92.325426
},{
"label": "Golonchán Nuevo Segunda Fracción", "lat": 17.016314, "lng": -92.394758
},{
"label": "Porfirio Encino", "lat": 17.027931, "lng": -92.362788
},{
"label": "San José la Unión", "lat": 17.008669, "lng": -92.38208
},{
"label": "Rancho Nuevo", "lat": 17.067563, "lng": -92.348708
},{
"label": "Santa Anita", "lat": 17.061088, "lng": -92.405058
},{
"label": "Génova", "lat": 17.034886, "lng": -92.345385
},{
"label": "San José", "lat": 17.029072, "lng": -92.359603
},{
"label": "Golonchán Nuevo Primera Fracción", "lat": 17.018916, "lng": -92.395137
},{
"label": "El Barranco", "lat": 17.041052, "lng": -92.35482
},{
"label": "Santa Bárbara Primera Fracción", "lat": 17.028729, "lng": -92.3511
},{
"label": "San Joaquín", "lat": 17.048917, "lng": -92.400136
},{
"label": "Los Naranjos", "lat": 17.074095, "lng": -92.352094
},{
"label": "Emiliano Zapata", "lat": 17.033239, "lng": -92.34085
},{
"label": "Ach'Lum el Suspiro", "lat": 17.053373, "lng": -92.336381
},{
"label": "Chabeclumil", "lat": 17.070298, "lng": -92.36167
},{
"label": "San Juan Shucail", "lat": 17.021344, "lng": -92.374676
},{
"label": "San Juan Santa Bárbara", "lat": 17.034235, "lng": -92.363865
},{
"label": "San Antonio Jaguala 2da. Fracción", "lat": 17.075492, "lng": -92.334514
},{
"label": "El Carmen San Antonio", "lat": 17.03194, "lng": -92.36083
},{
"label": "La Merced", "lat": 17.041078, "lng": -92.315283
},{
"label": "La Providencia", "lat": 17.01472, "lng": -92.35694
},{
"label": "Guadalupe los Pinos", "lat": 17.021475, "lng": -92.338834
},{
"label": "Jaguala Río Grande", "lat": 17.064734, "lng": -92.338914
},{
"label": "San José Buenavista", "lat": 17.018204, "lng": -92.349441
},{
"label": "El Rosario Anholo", "lat": 17.035255, "lng": -92.320476
},{
"label": "San Pedro Chutel", "lat": 17.019238, "lng": -92.326546
},{
"label": "San José Arenal", "lat": 17.022899, "lng": -92.389888
},{
"label": "San Luis los Vertientes", "lat": 17.057589, "lng": -92.318799
},{
"label": "Santa Bárbara Segunda Fracción", "lat": 17.030712, "lng": -92.359608
},{
"label": "La Unión Jagualá", "lat": 17.070625, "lng": -92.342907
},{
"label": "El Diamante", "lat": 17.007996, "lng": -92.38718
},{
"label": "Guadalupe Jagualá", "lat": 17.069336, "lng": -92.333744
},{
"label": "San AntonioTanial", "lat": 17.006143, "lng": -92.343354
},{
"label": "San Antonio los Alpes", "lat": 17.03167, "lng": -92.36111
},{
"label": "Ojo de Agua", "lat": 17.02278, "lng": -92.32056
},{
"label": "Santa Anita las Cruces", "lat": 17.051611, "lng": -92.407683
},{
"label": "San José Mebaja 2da. Fracción", "lat": 17.060706, "lng": -92.379283
},{
"label": "Picote 3ra. Fracción", "lat": 17.060948, "lng": -92.389539
},{
"label": "El Carmen Santa Bárbara", "lat": 17.029886, "lng": -92.351192
},{
"label": "Paraíso Santa Bárbara", "lat": 17.035038, "lng": -92.356027
},{
"label": "Don Pedro", "lat": 17.016245, "lng": -92.319979
},{
"label": "La Palmita San Pedro", "lat": 17.019886, "lng": -92.33095
},{
"label": "San Juan Canakil", "lat": 17.048669, "lng": -92.381425
},{
"label": "San Pablo", "lat": 17.041372, "lng": -92.293284
},{
"label": "Las Gardenias el Porvenir", "lat": 17.031076, "lng": -92.349316
},{
"label": "San Juan Veracruz", "lat": 17.06846, "lng": -92.386123
},{
"label": "San Martín", "lat": 17.030312, "lng": -92.367411
},{
"label": "Vistahermosa", "lat": 17.016927, "lng": -92.303825
},{
"label": "Guadalupe Peña Blanca 3ra. Sección", "lat": 17.049063, "lng": -92.336362
},{
"label": "El Vergel", "lat": 17.045434, "lng": -92.320168
},{
"label": "Guadalupe el Rodeo", "lat": 17.020533, "lng": -92.346736
},{
"label": "Berlín", "lat": 17.014289, "lng": -92.363715
},{
"label": "San José Ilusión", "lat": 17.04564, "lng": -92.388001
},{
"label": "Nuevo Porvenir", "lat": 17.00361, "lng": -92.37833
},{
"label": "Santa Isabel", "lat": 17.025321, "lng": -92.366156
},{
"label": "El Rodeo", "lat": 17.022649, "lng": -92.344625
},{
"label": "Porvenir", "lat": 17.06418, "lng": -92.351515
},{
"label": "Guadalupe Mazanil", "lat": 17.044828, "lng": -92.370674
},{
"label": "Picoté Pamalá", "lat": 17.062154, "lng": -92.396948
},{
"label": "San José Mebaja", "lat": 17.063154, "lng": -92.351099
},{
"label": "Guadalupe Captetaj", "lat": 17.065436, "lng": -92.38409
},{
"label": "San Juan Ocotal", "lat": 17.070914, "lng": -92.384367
},{
"label": "Tulaquil", "lat": 17.041509, "lng": -92.335353
},{
"label": "Ojo de Agua (Mebaja)", "lat": 17.064093, "lng": -92.35571
},{
"label": "La Unión", "lat": 17.011799, "lng": -92.365209
},{
"label": "Guadalupe Tulaquil", "lat": 17.037834, "lng": -92.332256
},{
"label": "Mevaja Uno", "lat": 17.065433, "lng": -92.352397
},{
"label": "San Martín (Ciro Estrada)", "lat": 17.05399, "lng": -92.330934
},{
"label": "Guadalupe Peña Blanca Segunda", "lat": 17.044422, "lng": -92.336203
},{
"label": "El Encanto", "lat": 17.031545, "lng": -92.294642
},{
"label": "Picoté 2da. Fracción", "lat": 17.062196, "lng": -92.390521
},{
"label": "Paraíso Chicotánil", "lat": 17.011738, "lng": -92.343641
},{
"label": "Santa Cruz el Recreo", "lat": 17.030294, "lng": -92.333657
}]