[{
"label": "Concepción Tierra Blanca", "lat": 16.211602, "lng": -92.394991
},{
"label": "El Recuerdo", "lat": 16.22957, "lng": -92.3497
},{
"label": "San Pedro Tunimal", "lat": 16.202616, "lng": -92.333676
},{
"label": "Nuevo Zacoalpa (La Roca)", "lat": 16.238787, "lng": -92.402114
},{
"label": "Nuevo Progreso Agrario", "lat": 16.219182, "lng": -92.383382
},{
"label": "Los Potrillos", "lat": 15.975958, "lng": -92.32645
},{
"label": "Navarrete", "lat": 16.211203, "lng": -92.395174
},{
"label": "La Primavera", "lat": 16.10662, "lng": -92.354212
},{
"label": "Tierra Blanca", "lat": 16.213371, "lng": -92.405284
},{
"label": "Buenavista", "lat": 16.248629, "lng": -92.342954
},{
"label": "La Joya", "lat": 16.241844, "lng": -92.360839
},{
"label": "Las Palmas Santa Cruz", "lat": 16.237816, "lng": -92.398156
},{
"label": "Antonio Ruiz Gómez", "lat": 16.197461, "lng": -92.412358
},{
"label": "Abasolo", "lat": 16.234241, "lng": -92.420545
},{
"label": "Calzada Larga", "lat": 16.165905, "lng": -92.440537
},{
"label": "Unión Campesina", "lat": 16.16079, "lng": -92.359159
},{
"label": "Zacatera", "lat": 16.231056, "lng": -92.350937
},{
"label": "Ninguno [Jesús Hernández Jiménez]", "lat": 16.118656, "lng": -92.354943
},{
"label": "San Luis", "lat": 16.185275, "lng": -92.440188
},{
"label": "Cinco de Mayo", "lat": 16.248758, "lng": -92.348461
},{
"label": "La Fortuna", "lat": 16.210044, "lng": -92.375676
},{
"label": "Santa Cruz Jotolá", "lat": 16.216629, "lng": -92.333813
},{
"label": "El Santuario", "lat": 16.115856, "lng": -92.438036
},{
"label": "Manuel Avendaño G.", "lat": 16.230864, "lng": -92.347558
},{
"label": "San Pedro Tierra Blanca", "lat": 16.211646, "lng": -92.379759
},{
"label": "San Caralampio", "lat": 16.244556, "lng": -92.355733
},{
"label": "Doctor Samuel León Brindis", "lat": 16.108992, "lng": -92.355745
},{
"label": "El Banco", "lat": 16.197063, "lng": -92.314227
},{
"label": "La Haciendita", "lat": 16.213718, "lng": -92.338345
},{
"label": "Guadalupe", "lat": 16.125006, "lng": -92.280533
},{
"label": "Puerto Rico", "lat": 15.934401, "lng": -92.255935
},{
"label": "Victoria Tierra Blanca", "lat": 16.216243, "lng": -92.408676
},{
"label": "Lorena", "lat": 16.207478, "lng": -92.374386
},{
"label": "Trapiche de Dolores", "lat": 16.24809, "lng": -92.356589
},{
"label": "Manuel Aguilar", "lat": 15.971143, "lng": -92.306914
},{
"label": "Estrella Roja", "lat": 16.204154, "lng": -92.443363
},{
"label": "Las Palmas", "lat": 16.2325, "lng": -92.348151
},{
"label": "Monte Sinaí (Limonarcito)", "lat": 16.147698, "lng": -92.3115
},{
"label": "Santa Rita Agua Escondida", "lat": 16.252894, "lng": -92.357452
},{
"label": "San Pedro Pedernal", "lat": 16.007904, "lng": -92.269286
},{
"label": "San Antonio Copalar", "lat": 16.117549, "lng": -92.327263
},{
"label": "La Granada", "lat": 16.156495, "lng": -92.459443
},{
"label": "San Nicolás", "lat": 16.143146, "lng": -92.322268
},{
"label": "Santa Rosalía", "lat": 16.2524, "lng": -92.349424
},{
"label": "Adolfo Ruiz Cortínez (Ojo de Agua)", "lat": 16.258643, "lng": -92.353734
},{
"label": "Santa Rita Agua Escondida (El Molino)", "lat": 16.243994, "lng": -92.387803
},{
"label": "Nuevo San Sebastián la Candelaria", "lat": 16.204677, "lng": -92.449067
},{
"label": "El Tuninal", "lat": 16.25181, "lng": -92.346968
},{
"label": "Laguna Verde", "lat": 16.119894, "lng": -92.286597
},{
"label": "Nuevo Chejel", "lat": 15.943725, "lng": -92.286383
},{
"label": "Nueva Reforma Agraria", "lat": 16.210239, "lng": -92.394506
},{
"label": "Vistahermosa Shoctic (Las Águilas)", "lat": 16.155653, "lng": -92.43002
},{
"label": "San Miguel Soctic", "lat": 16.264881, "lng": -92.371967
},{
"label": "Miramar", "lat": 15.985508, "lng": -92.237558
},{
"label": "Benito Juárez", "lat": 16.174644, "lng": -92.399737
},{
"label": "El Carmen Chamena", "lat": 16.268879, "lng": -92.382791
},{
"label": "La Mesa", "lat": 16.217856, "lng": -92.318992
},{
"label": "El Cedral", "lat": 15.93111, "lng": -92.21944
},{
"label": "Las Delicias del Carmen (Mumuntic)", "lat": 16.211763, "lng": -92.346031
},{
"label": "San José", "lat": 16.088586, "lng": -92.350529
},{
"label": "La Planada", "lat": 16.207766, "lng": -92.33813
},{
"label": "El Santuario Dos (Caña Castilla)", "lat": 16.126572, "lng": -92.411841
},{
"label": "Jorge de la Vega Domínguez", "lat": 16.211118, "lng": -92.385266
},{
"label": "San Francisco Puerto Rico", "lat": 16.098903, "lng": -92.452515
},{
"label": "Anexo las Rosas de Guadalupe", "lat": 16.15037, "lng": -92.337899
},{
"label": "Nueve de Marzo", "lat": 16.235836, "lng": -92.425877
},{
"label": "San Vicente Pauchil Chanival", "lat": 16.231379, "lng": -92.419565
},{
"label": "Las Limas", "lat": 16.249227, "lng": -92.346256
},{
"label": "Nueva Esperanza", "lat": 16.124299, "lng": -92.279518
},{
"label": "Tzinil", "lat": 16.257646, "lng": -92.322826
},{
"label": "El Mirador", "lat": 16.087013, "lng": -92.349731
},{
"label": "El Nantzal", "lat": 16.120216, "lng": -92.346942
},{
"label": "Emiliano Zapata", "lat": 16.184031, "lng": -92.415419
},{
"label": "Dolores Hidalgo", "lat": 16.250429, "lng": -92.366161
},{
"label": "San Antonio el Sauzal", "lat": 16.217397, "lng": -92.407907
},{
"label": "Rosario Tierra Blanca", "lat": 16.213717, "lng": -92.404304
},{
"label": "Los Horcones", "lat": 16.115439, "lng": -92.492955
},{
"label": "Unión Guadalupe", "lat": 16.201028, "lng": -92.310557
},{
"label": "San Francisco el Cerecillo", "lat": 16.122058, "lng": -92.450874
},{
"label": "Tierra y Libertad", "lat": 16.005827, "lng": -92.28814
},{
"label": "Pajalpit", "lat": 16.240682, "lng": -92.410065
},{
"label": "San José Navalán", "lat": 16.208483, "lng": -92.370752
},{
"label": "Santa María", "lat": 16.115562, "lng": -92.506219
},{
"label": "Campeche", "lat": 16.181657, "lng": -92.432078
},{
"label": "Constitución 27", "lat": 16.2093, "lng": -92.389533
},{
"label": "El Bajío San Lazarito", "lat": 16.155374, "lng": -92.350755
},{
"label": "Perlas de San Antonio", "lat": 16.209563, "lng": -92.375294
},{
"label": "Lázaro Cárdenas", "lat": 16.160046, "lng": -92.356351
},{
"label": "Las Guayabas", "lat": 16.236746, "lng": -92.356089
},{
"label": "San Vicente", "lat": 16.177181, "lng": -92.353271
},{
"label": "La Ceiba", "lat": 16.233573, "lng": -92.352629
},{
"label": "Nueva Jerusalén Cascajal", "lat": 16.260376, "lng": -92.40849
},{
"label": "Porvenir Tierra Blanca (Monte Sinaí)", "lat": 16.211586, "lng": -92.398389
},{
"label": "Las Bugambilias", "lat": 16.235613, "lng": -92.376839
},{
"label": "Socoltenango", "lat": 16.242949, "lng": -92.350316
},{
"label": "Los Laureles", "lat": 16.234494, "lng": -92.379642
},{
"label": "Nuevo Tamaulipas", "lat": 16.233145, "lng": -92.422305
},{
"label": "Santa Elena Buenavista", "lat": 16.185984, "lng": -92.414714
},{
"label": "Santo Domingo", "lat": 16.121181, "lng": -92.280806
},{
"label": "2 de Noviembre", "lat": 16.186203, "lng": -92.419303
},{
"label": "Laguna de Dolores", "lat": 15.971525, "lng": -92.322223
},{
"label": "Miravalle", "lat": 16.262445, "lng": -92.352847
},{
"label": "San Antonio Crucila", "lat": 16.239098, "lng": -92.412635
},{
"label": "Chihuahua", "lat": 16.225935, "lng": -92.405513
},{
"label": "Argelia", "lat": 15.92809, "lng": -92.199706
},{
"label": "El Trapichito (Los Cimientos)", "lat": 16.192194, "lng": -92.32856
},{
"label": "Miami", "lat": 16.09467, "lng": -92.444731
},{
"label": "Nueva Floresta", "lat": 16.122567, "lng": -92.282898
},{
"label": "Francisco Villa", "lat": 16.208614, "lng": -92.376585
},{
"label": "San José Tierra Blanca", "lat": 16.21444, "lng": -92.40556
},{
"label": "Doctor Belisario Domínguez", "lat": 16.210856, "lng": -92.40215
},{
"label": "El Sabinal", "lat": 16.185161, "lng": -92.290207
},{
"label": "La Poblazón", "lat": 16.102652, "lng": -92.410584
},{
"label": "Buenavista Jocotal (El Jocote)", "lat": 16.231999, "lng": -92.378121
},{
"label": "San Agustín el Porvenir", "lat": 16.164538, "lng": -92.366764
}]