[{
"label": "Liquidámbar", "lat": 17.232677, "lng": -93.094758
},{
"label": "Buenavista (Lindavista)", "lat": 17.248206, "lng": -93.105946
},{
"label": "Tapalapa", "lat": 17.190048, "lng": -93.104605
},{
"label": "Loma Alta", "lat": 17.263247, "lng": -93.141808
},{
"label": "San Antonio", "lat": 17.186175, "lng": -93.083279
},{
"label": "Palestina", "lat": 17.242467, "lng": -93.126064
},{
"label": "Blanca Rosa", "lat": 17.241491, "lng": -93.135626
},{
"label": "Flores Magón", "lat": 17.187637, "lng": -93.09355
},{
"label": "Sagrado Corazón de Jesús", "lat": 17.26492, "lng": -93.118174
},{
"label": "Plan Grande", "lat": 17.163321, "lng": -93.110871
},{
"label": "San Agustín", "lat": 17.177397, "lng": -93.093977
},{
"label": "El Porvenir", "lat": 17.255043, "lng": -93.129105
},{
"label": "Buenavista", "lat": 17.192727, "lng": -93.093739
},{
"label": "Nuevo Progreso", "lat": 17.235504, "lng": -93.131884
},{
"label": "Buena Vista 1ra. Sección", "lat": 17.25232, "lng": -93.098376
},{
"label": "San Isidro", "lat": 17.248421, "lng": -93.134283
},{
"label": "Veinte de Noviembre", "lat": 17.261473, "lng": -93.139358
},{
"label": "Arroyo Seco", "lat": 17.248383, "lng": -93.138311
},{
"label": "Linda Vista", "lat": 17.251933, "lng": -93.119898
},{
"label": "San Antonio Blanca Rosa", "lat": 17.243681, "lng": -93.123864
},{
"label": "Mazono", "lat": 17.26124, "lng": -93.125991
}]