[{
"label": "El Carmen Cerro Blanco", "lat": 17.279094, "lng": -93.427203
},{
"label": "Nuevo Yomono", "lat": 17.106657, "lng": -93.433034
},{
"label": "La Encañada", "lat": 17.146819, "lng": -93.358704
},{
"label": "Santa María de Cambac", "lat": 17.299923, "lng": -93.394363
},{
"label": "Buenavista Manón", "lat": 17.175841, "lng": -93.454679
},{
"label": "San José Reforma", "lat": 17.180969, "lng": -93.343274
},{
"label": "Las Galicias", "lat": 17.19779, "lng": -93.348339
},{
"label": "Manuel Jiménez", "lat": 17.133928, "lng": -93.433958
},{
"label": "El Horizonte", "lat": 17.090533, "lng": -93.352123
},{
"label": "Gilberto Pérez S.", "lat": 17.001431, "lng": -93.396259
},{
"label": "Nuevo Veracruz", "lat": 17.064118, "lng": -93.40697
},{
"label": "Santa Amalia", "lat": 17.180523, "lng": -93.37343
},{
"label": "Puerto los Cocos", "lat": 17.007845, "lng": -93.395047
},{
"label": "Luis Espinosa", "lat": 17.14967, "lng": -93.42398
},{
"label": "Tulipán de las Flores", "lat": 17.240118, "lng": -93.367282
},{
"label": "Misael López Álvarez", "lat": 17.185596, "lng": -93.346702
},{
"label": "San Luis", "lat": 17.157903, "lng": -93.307725
},{
"label": "Nucupac", "lat": 17.116445, "lng": -93.409081
},{
"label": "El Carmen Cerro Santo Uno (Athecnhe)", "lat": 17.166211, "lng": -93.354536
},{
"label": "Santa Juvencia", "lat": 17.102878, "lng": -93.433156
},{
"label": "El Carmen (Monte Grande)", "lat": 17.16849, "lng": -93.305297
},{
"label": "Ninguno", "lat": 16.993637, "lng": -93.404343
},{
"label": "Tombac", "lat": 17.143114, "lng": -93.318698
},{
"label": "Plan Grande", "lat": 17.195413, "lng": -93.485474
},{
"label": "El Triunfo", "lat": 17.210288, "lng": -93.333859
},{
"label": "Filemón González", "lat": 17.106753, "lng": -93.404293
},{
"label": "San Antonio Azapac", "lat": 17.257973, "lng": -93.391855
},{
"label": "La Libertad", "lat": 17.256009, "lng": -93.337452
},{
"label": "La Palma", "lat": 17.219971, "lng": -93.333988
},{
"label": "Reforma", "lat": 17.015271, "lng": -93.40847
},{
"label": "Canguy", "lat": 17.139678, "lng": -93.432091
},{
"label": "El Recreo", "lat": 17.16269, "lng": -93.38167
},{
"label": "La Fuente", "lat": 17.163399, "lng": -93.377283
},{
"label": "El Tesoro Escondido", "lat": 17.252481, "lng": -93.347994
},{
"label": "Los Volcanes", "lat": 17.116175, "lng": -93.3727
},{
"label": "Guatope", "lat": 17.190001, "lng": -93.358987
},{
"label": "Maspuente", "lat": 17.190803, "lng": -93.44134
},{
"label": "Altos del Grijalva", "lat": 17.152879, "lng": -93.442164
},{
"label": "Azapac el Rayo", "lat": 17.256388, "lng": -93.373611
},{
"label": "El Carmen Santa Lucía", "lat": 17.15065, "lng": -93.368607
},{
"label": "El Retiro", "lat": 17.139435, "lng": -93.397032
},{
"label": "El Ojo de Agua", "lat": 17.153014, "lng": -93.345746
},{
"label": "Nuevo Quechula", "lat": 17.061738, "lng": -93.403583
},{
"label": "Gracias a Dios (Buenavista)", "lat": 17.185611, "lng": -93.362276
},{
"label": "Las Piedrecitas", "lat": 17.238143, "lng": -93.317054
},{
"label": "San Juan (Playa del Cochi)", "lat": 17.023942, "lng": -93.389469
},{
"label": "Río Blanco", "lat": 17.198374, "lng": -93.43977
},{
"label": "Simbak", "lat": 17.227418, "lng": -93.307068
},{
"label": "Magdalena", "lat": 17.140102, "lng": -93.407977
},{
"label": "Isla el Retazo", "lat": 17.115459, "lng": -93.447767
},{
"label": "El Tesoro", "lat": 17.002865, "lng": -93.405267
},{
"label": "San Antonio la Reforma", "lat": 17.185709, "lng": -93.339541
},{
"label": "Bellavista (Buenavista)", "lat": 17.16554, "lng": -93.32532
},{
"label": "Nuevo Totopac", "lat": 17.084838, "lng": -93.421446
},{
"label": "Los Lirios", "lat": 17.256003, "lng": -93.429407
},{
"label": "Monte Grande", "lat": 17.176011, "lng": -93.307414
},{
"label": "Las Pilas", "lat": 17.227683, "lng": -93.469508
},{
"label": "El Rincón", "lat": 17.252003, "lng": -93.343781
},{
"label": "La Ventana", "lat": 17.12714, "lng": -93.35973
},{
"label": "Patricia", "lat": 17.007389, "lng": -93.389165
},{
"label": "Camino Real", "lat": 17.132127, "lng": -93.384458
},{
"label": "Fracción Concepción", "lat": 17.15533, "lng": -93.374568
},{
"label": "El Hormiguero", "lat": 17.180148, "lng": -93.347744
},{
"label": "Jícaro I", "lat": 17.191224, "lng": -93.292793
},{
"label": "Nuevo Vicente Guerrero", "lat": 17.233633, "lng": -93.417531
},{
"label": "Poblado Nuevo General Francisco Villa", "lat": 17.126717, "lng": -93.317513
},{
"label": "Menapac", "lat": 17.153019, "lng": -93.328078
},{
"label": "Agua Fría", "lat": 17.199717, "lng": -93.30606
},{
"label": "El Gavilán", "lat": 17.17577, "lng": -93.436446
},{
"label": "Adolfo Ruiz Cortines", "lat": 17.295468, "lng": -93.392384
},{
"label": "Mirador", "lat": 17.19073, "lng": -93.40024
},{
"label": "San Pedro Achegne", "lat": 17.177546, "lng": -93.345374
},{
"label": "Los Tres Pinos", "lat": 17.277718, "lng": -93.459972
},{
"label": "El Pesebre", "lat": 17.109017, "lng": -93.425728
},{
"label": "La Primavera (San Antonio Mirabel)", "lat": 17.254998, "lng": -93.458326
},{
"label": "La Piñita", "lat": 17.192976, "lng": -93.34979
},{
"label": "Santa María", "lat": 17.216509, "lng": -93.338849
},{
"label": "El Triángulo", "lat": 17.013685, "lng": -93.384532
},{
"label": "Monte Video", "lat": 17.216313, "lng": -93.334701
},{
"label": "Nuevo Guadalupe", "lat": 17.118247, "lng": -93.399649
},{
"label": "Shunipamo", "lat": 17.160867, "lng": -93.31868
},{
"label": "Lázaro Cárdenas 2", "lat": 17.253417, "lng": -93.485749
},{
"label": "Cuzumbac", "lat": 17.132376, "lng": -93.364773
},{
"label": "Las Maravillas (Petznapac)", "lat": 17.142137, "lng": -93.390685
},{
"label": "Isla Yomonó", "lat": 17.177562, "lng": -93.442768
},{
"label": "Popotza", "lat": 17.222291, "lng": -93.327555
},{
"label": "La Ceiba (El Brillante)", "lat": 17.145583, "lng": -93.361571
},{
"label": "Jesús Abadías", "lat": 17.131628, "lng": -93.299902
},{
"label": "Monterrey (Buenavista Poyospac)", "lat": 17.079624, "lng": -93.386004
},{
"label": "San Martín", "lat": 17.2147, "lng": -93.358476
},{
"label": "San Judas Tadeo", "lat": 17.132955, "lng": -93.348156
},{
"label": "San Jacinto", "lat": 17.215196, "lng": -93.32919
},{
"label": "Isla Zospoc", "lat": 17.096172, "lng": -93.480679
},{
"label": "Las Maravillas", "lat": 17.288331, "lng": -93.402223
},{
"label": "Casa Blanca (San Isidro)", "lat": 17.187171, "lng": -93.305614
},{
"label": "El Corozo (Los Laureles)", "lat": 17.193217, "lng": -93.489259
},{
"label": "Las Flores", "lat": 17.249811, "lng": -93.350058
},{
"label": "Onda Fría", "lat": 17.200277, "lng": -93.361117
},{
"label": "Concepción las Delicias", "lat": 17.151892, "lng": -93.381478
},{
"label": "Tecpatán", "lat": 17.136478, "lng": -93.311165
},{
"label": "El Progreso", "lat": 17.186963, "lng": -93.404154
},{
"label": "Miguel Alemán", "lat": 17.200728, "lng": -93.421073
},{
"label": "La Escalera", "lat": 17.207844, "lng": -93.346669
},{
"label": "David Saráoz Hernández", "lat": 17.218086, "lng": -93.358202
},{
"label": "El Desengaño", "lat": 17.181426, "lng": -93.410801
},{
"label": "El Corozo", "lat": 17.135631, "lng": -93.500753
},{
"label": "El Suspiro", "lat": 17.124852, "lng": -93.342209
},{
"label": "Portes Gil", "lat": 17.102499, "lng": -93.424967
},{
"label": "Nuevo Altamirano", "lat": 17.070849, "lng": -93.408513
},{
"label": "San Francisco", "lat": 17.175862, "lng": -93.464716
},{
"label": "San Manuel", "lat": 17.152253, "lng": -93.434206
},{
"label": "La Concepción", "lat": 17.145258, "lng": -93.375869
},{
"label": "Cerro la Campana", "lat": 17.21167, "lng": -93.361662
},{
"label": "El Encanto", "lat": 17.231218, "lng": -93.352067
},{
"label": "San Antonio el Carmen (Candelaria)", "lat": 17.185693, "lng": -93.325568
},{
"label": "El Carmen", "lat": 17.09546, "lng": -93.44756
},{
"label": "El Recuerdo", "lat": 17.111748, "lng": -93.467709
},{
"label": "José Esteban", "lat": 17.17722, "lng": -93.47861
},{
"label": "Juan Sabines Gutiérrez", "lat": 17.235961, "lng": -93.417339
},{
"label": "Península Varataria", "lat": 17.076327, "lng": -93.432778
},{
"label": "Yumina", "lat": 17.121082, "lng": -93.329812
},{
"label": "La Victoria", "lat": 17.131869, "lng": -93.428729
},{
"label": "Nuevo Naranjo", "lat": 17.153533, "lng": -93.430369
},{
"label": "Monterrey", "lat": 17.252698, "lng": -93.464652
},{
"label": "Las Casas", "lat": 17.150354, "lng": -93.354507
},{
"label": "Jupac", "lat": 17.172154, "lng": -93.3873
},{
"label": "Zacalapa Portaceli", "lat": 17.153285, "lng": -93.33571
},{
"label": "Gustavo Carrillo", "lat": 17.129946, "lng": -93.318272
},{
"label": "Armando Pastrana", "lat": 17.180623, "lng": -93.329506
},{
"label": "La Primavera", "lat": 17.258911, "lng": -93.475385
},{
"label": "Soquinó la Torre", "lat": 17.184061, "lng": -93.398647
},{
"label": "Buenavista", "lat": 17.214256, "lng": -93.339123
},{
"label": "José Alberto Márquez", "lat": 17.182457, "lng": -93.482443
},{
"label": "El Trocadero", "lat": 17.168567, "lng": -93.328304
},{
"label": "Veracruz", "lat": 17.071282, "lng": -93.417302
},{
"label": "El Gavilán (Las Maravillas)", "lat": 17.213125, "lng": -93.359847
},{
"label": "El Edén (Agua Escondida)", "lat": 17.006739, "lng": -93.379121
},{
"label": "Buenavista las Nubes", "lat": 17.175843, "lng": -93.473787
},{
"label": "San José Cushipac", "lat": 17.179257, "lng": -93.320143
},{
"label": "Mirador la Vuelta", "lat": 17.208859, "lng": -93.350256
},{
"label": "Julio Cesar Calvo", "lat": 17.235946, "lng": -93.358331
},{
"label": "La Cascada", "lat": 17.195403, "lng": -93.354811
},{
"label": "Nuevo Quechula (Chaspac)", "lat": 17.065877, "lng": -93.408416
},{
"label": "San Joaquín (Yucatán)", "lat": 17.144233, "lng": -93.422565
},{
"label": "Santa Cruz Buenavista", "lat": 17.034739, "lng": -93.424958
},{
"label": "Gracias a Dios", "lat": 17.116435, "lng": -93.335869
},{
"label": "La Cabaña", "lat": 17.152614, "lng": -93.348677
},{
"label": "El Espejo", "lat": 17.197192, "lng": -93.353877
},{
"label": "Achimella", "lat": 17.114079, "lng": -93.352209
},{
"label": "Cuchay Gién", "lat": 17.113923, "lng": -93.379873
},{
"label": "Saltillo", "lat": 17.045291, "lng": -93.392206
},{
"label": "Los Adines", "lat": 17.098185, "lng": -93.342032
},{
"label": "El Retazo", "lat": 17.014504, "lng": -93.399409
},{
"label": "El Herradero (Japón)", "lat": 17.122961, "lng": -93.311346
},{
"label": "El Carmen Cerro Santo Dos", "lat": 17.15704, "lng": -93.347158
},{
"label": "San Isidro Cambac", "lat": 17.302843, "lng": -93.402563
},{
"label": "Loma Linda", "lat": 17.088685, "lng": -93.390736
},{
"label": "La Nueva Jerusalén", "lat": 17.180946, "lng": -93.317618
},{
"label": "La Vuelta", "lat": 17.192106, "lng": -93.346751
},{
"label": "Santa Elena el Azufre", "lat": 17.170003, "lng": -93.296144
},{
"label": "Buenos Aires", "lat": 17.135853, "lng": -93.298549
},{
"label": "Isla el Guanacastle", "lat": 17.103426, "lng": -93.467137
},{
"label": "Miguel Hidalgo y Costilla", "lat": 17.268295, "lng": -93.448577
},{
"label": "El Edén", "lat": 17.131983, "lng": -93.30435
},{
"label": "Los Olivos", "lat": 17.244677, "lng": -93.488548
},{
"label": "San Antonio", "lat": 17.059158, "lng": -93.419204
},{
"label": "Nuevo Edén", "lat": 17.232538, "lng": -93.47163
},{
"label": "La Pera", "lat": 17.258901, "lng": -93.495571
},{
"label": "La Esmeralda", "lat": 17.152055, "lng": -93.358264
},{
"label": "La Pobreza", "lat": 17.188529, "lng": -93.358933
},{
"label": "San Rafael", "lat": 17.116216, "lng": -93.389385
},{
"label": "Las Gaviotas (Baja California)", "lat": 17.127868, "lng": -93.482966
},{
"label": "Nuevo Laredo", "lat": 17.122431, "lng": -93.427058
},{
"label": "El Refugio", "lat": 17.21216, "lng": -93.447195
},{
"label": "El Remanente", "lat": 17.185411, "lng": -93.349079
},{
"label": "La Trinidad", "lat": 17.164563, "lng": -93.292834
},{
"label": "El Chichonal (Los Volcanes)", "lat": 17.165052, "lng": -93.379129
},{
"label": "Franja Piztingén", "lat": 17.150771, "lng": -93.304741
},{
"label": "Quimquimbac", "lat": 17.140501, "lng": -93.29933
},{
"label": "Tulipán las Nubes", "lat": 17.18472, "lng": -93.47306
},{
"label": "Cochay", "lat": 17.155238, "lng": -93.309829
},{
"label": "El Porvenir", "lat": 17.181859, "lng": -93.393128
},{
"label": "Pie de los Volcanes (Menapac)", "lat": 17.121674, "lng": -93.348743
},{
"label": "Javier Mayorga Herrera", "lat": 17.239095, "lng": -93.348436
},{
"label": "San José", "lat": 17.124657, "lng": -93.429609
},{
"label": "Álvaro Sánchez Sánchez", "lat": 17.013736, "lng": -93.379041
},{
"label": "Los Gavilanes", "lat": 17.255386, "lng": -93.478432
},{
"label": "Buenavista Totopac", "lat": 17.096864, "lng": -93.384221
},{
"label": "La Nueva Experiencia", "lat": 17.179442, "lng": -93.419444
},{
"label": "El Consuelo (El Rincón)", "lat": 17.250037, "lng": -93.343632
},{
"label": "La Nueva Independencia (Guañuti)", "lat": 17.127504, "lng": -93.411334
},{
"label": "La Experiencia", "lat": 17.184093, "lng": -93.429108
},{
"label": "El Chinín (El Recreo)", "lat": 17.199982, "lng": -93.379759
},{
"label": "San Felipe", "lat": 17.073332, "lng": -93.420792
},{
"label": "Nueva Esperanza", "lat": 17.251549, "lng": -93.460633
},{
"label": "San José el Diamante", "lat": 17.13989, "lng": -93.357665
},{
"label": "Las Delicias", "lat": 17.256542, "lng": -93.481164
},{
"label": "Monte Alegre", "lat": 17.040294, "lng": -93.394844
},{
"label": "El Primor", "lat": 17.261915, "lng": -93.345236
},{
"label": "El Bambú", "lat": 17.116531, "lng": -93.337545
},{
"label": "El Vendaval", "lat": 17.188624, "lng": -93.371761
},{
"label": "El Mirador", "lat": 17.162563, "lng": -93.337809
},{
"label": "Emiliano Zapata", "lat": 17.217859, "lng": -93.342022
},{
"label": "La Gran Via", "lat": 17.140608, "lng": -93.305448
},{
"label": "Yamono Tres", "lat": 17.121329, "lng": -93.325361
},{
"label": "La Estrella", "lat": 17.225788, "lng": -93.475172
},{
"label": "Reynel Gómez Jiménez", "lat": 17.167019, "lng": -93.381354
},{
"label": "Fracción Reforma", "lat": 17.192461, "lng": -93.3514
},{
"label": "Rancho Alegre", "lat": 17.307614, "lng": -93.416999
},{
"label": "Yumisna (Agua Humilde)", "lat": 17.12296, "lng": -93.331931
},{
"label": "La Sal", "lat": 17.068648, "lng": -93.447303
},{
"label": "Dos Estrellas", "lat": 17.142833, "lng": -93.392219
},{
"label": "Sinaí", "lat": 17.213002, "lng": -93.328017
},{
"label": "La Providencia", "lat": 17.201068, "lng": -93.347401
},{
"label": "Loma Tejón", "lat": 17.218162, "lng": -93.313556
},{
"label": "Mocotonguy", "lat": 17.202429, "lng": -93.325102
},{
"label": "San Pedro Yomonó", "lat": 17.120996, "lng": -93.429558
},{
"label": "El Pénjamo", "lat": 17.096985, "lng": -93.325201
},{
"label": "Fideicomiso el Naranjo", "lat": 17.133636, "lng": -93.441878
},{
"label": "Epifanio Pablo Cruz", "lat": 17.288331, "lng": -93.413384
},{
"label": "Candelaria", "lat": 17.173245, "lng": -93.331874
},{
"label": "Candelaria el Jícaro", "lat": 17.189335, "lng": -93.28155
},{
"label": "La Maravilla", "lat": 17.192055, "lng": -93.353904
},{
"label": "El Último Jalón (El Progreso)", "lat": 17.0946, "lng": -93.337333
},{
"label": "Santa Cruz", "lat": 17.137851, "lng": -93.403591
},{
"label": "Roberto Hernández", "lat": 17.253342, "lng": -93.48165
},{
"label": "Juntzigupiac", "lat": 17.169404, "lng": -93.331969
},{
"label": "Rancho Bonito", "lat": 17.232158, "lng": -93.349475
},{
"label": "San Vicente", "lat": 17.041454, "lng": -93.417343
},{
"label": "El Azufre", "lat": 17.163888, "lng": -93.295893
},{
"label": "El Destello", "lat": 17.056668, "lng": -93.397939
},{
"label": "Los Tres Potrillos", "lat": 17.180466, "lng": -93.385709
},{
"label": "San Pablo", "lat": 17.14404, "lng": -93.372555
},{
"label": "Tacuspac", "lat": 17.142303, "lng": -93.301126
},{
"label": "Unión Azapac", "lat": 17.259177, "lng": -93.398971
},{
"label": "Río Cuachi", "lat": 17.082177, "lng": -93.37525
},{
"label": "El Laurel", "lat": 17.096181, "lng": -93.449333
},{
"label": "Cuernavaca", "lat": 17.140514, "lng": -93.486978
},{
"label": "El Clavito", "lat": 17.146107, "lng": -93.307034
},{
"label": "Arroyo Nuevo", "lat": 17.205854, "lng": -93.352565
},{
"label": "Bellavista", "lat": 17.218449, "lng": -93.443339
},{
"label": "Las Brisas", "lat": 17.190904, "lng": -93.367369
},{
"label": "San Miguel Azapac", "lat": 17.25951, "lng": -93.415692
},{
"label": "Francisco I. Madero", "lat": 17.212859, "lng": -93.389454
},{
"label": "Antonio Hernández", "lat": 16.993325, "lng": -93.380563
},{
"label": "La Guadalupana", "lat": 17.24131, "lng": -93.457613
},{
"label": "Loma Bonita", "lat": 17.084415, "lng": -93.380113
},{
"label": "Zazatec", "lat": 17.137586, "lng": -93.302062
}]