[{
"label": "Santa Cecilia", "lat": 16.544709, "lng": -92.665503
},{
"label": "San Ramón", "lat": 16.566278, "lng": -92.617722
},{
"label": "San Vicente", "lat": 16.475337, "lng": -92.729671
},{
"label": "El Silencio (San Francisco)", "lat": 16.457189, "lng": -92.718691
},{
"label": "El Cangrejo", "lat": 16.523938, "lng": -92.737899
},{
"label": "El Calvario", "lat": 16.498467, "lng": -92.678823
},{
"label": "Ponciano Arriaga", "lat": 16.48975, "lng": -92.625591
},{
"label": "Totolapa", "lat": 16.544733, "lng": -92.680376
},{
"label": "Las Limas", "lat": 16.493238, "lng": -92.740225
},{
"label": "El Paraíso", "lat": 16.501187, "lng": -92.656172
},{
"label": "Paso Limón", "lat": 16.566294, "lng": -92.608647
},{
"label": "Mojón Paso del Padre", "lat": 16.514966, "lng": -92.66425
},{
"label": "San José el Retiro", "lat": 16.505626, "lng": -92.671249
},{
"label": "Chachi", "lat": 16.516684, "lng": -92.681616
},{
"label": "Nuevo Dolores", "lat": 16.494489, "lng": -92.657564
},{
"label": "La Reforma", "lat": 16.46278, "lng": -92.74528
},{
"label": "Pachen", "lat": 16.545155, "lng": -92.691424
},{
"label": "Los Mangos", "lat": 16.520103, "lng": -92.755628
},{
"label": "El Ojo de Agua", "lat": 16.509129, "lng": -92.720642
},{
"label": "El Chipilinar", "lat": 16.510348, "lng": -92.735268
},{
"label": "La Herradura", "lat": 16.516428, "lng": -92.755226
},{
"label": "San Antonio", "lat": 16.512567, "lng": -92.748282
},{
"label": "El Carmelito", "lat": 16.511728, "lng": -92.75323
},{
"label": "La Bodega", "lat": 16.547138, "lng": -92.691047
},{
"label": "La Merced", "lat": 16.505763, "lng": -92.680191
},{
"label": "Huerta Vieja", "lat": 16.505928, "lng": -92.669209
},{
"label": "Villa de Guadalupe", "lat": 16.504924, "lng": -92.702065
},{
"label": "El Triunfo", "lat": 16.4975, "lng": -92.5875
},{
"label": "El Palmar", "lat": 16.54889, "lng": -92.65389
},{
"label": "San José Jovelja", "lat": 16.55218, "lng": -92.597411
},{
"label": "El Guayabal", "lat": 16.548104, "lng": -92.585178
},{
"label": "Laguna Negra", "lat": 16.549384, "lng": -92.597393
}]