[{
"label": "Tumbalá", "lat": 17.278463, "lng": -92.315988
},{
"label": "Venustiano Carranza", "lat": 17.302798, "lng": -92.173944
},{
"label": "Propiedad Acapulco", "lat": 17.334749, "lng": -92.262944
},{
"label": "Cacahuatal", "lat": 17.322605, "lng": -92.226039
},{
"label": "La Victoria", "lat": 17.332455, "lng": -92.288049
},{
"label": "El Cedro", "lat": 17.345366, "lng": -92.342604
},{
"label": "El Paraíso", "lat": 17.271858, "lng": -92.367097
},{
"label": "El Pedregal", "lat": 17.343723, "lng": -92.344891
},{
"label": "La Primavera", "lat": 17.363214, "lng": -92.331362
},{
"label": "Patelná", "lat": 17.240224, "lng": -92.174015
},{
"label": "Buenavista", "lat": 17.294847, "lng": -92.366766
},{
"label": "Flor de Café", "lat": 17.327549, "lng": -92.268473
},{
"label": "Embarcadero Joyetá", "lat": 17.287538, "lng": -92.116694
},{
"label": "Joljamil 2da. Sección", "lat": 17.252722, "lng": -92.330278
},{
"label": "Álvaro Obregón (Planada)", "lat": 17.313546, "lng": -92.310472
},{
"label": "San Cristóbal", "lat": 17.339275, "lng": -92.283036
},{
"label": "Chulajcob", "lat": 17.352125, "lng": -92.213515
},{
"label": "Monte Azules", "lat": 17.282895, "lng": -92.312281
},{
"label": "Hueshib", "lat": 17.267961, "lng": -92.304453
},{
"label": "Las Peñitas", "lat": 17.334713, "lng": -92.289964
},{
"label": "California", "lat": 17.332114, "lng": -92.276467
},{
"label": "Ignacio Allende", "lat": 17.249687, "lng": -92.148757
},{
"label": "El Triunfo", "lat": 17.319358, "lng": -92.309454
},{
"label": "Sombra Grande", "lat": 17.29862, "lng": -92.316655
},{
"label": "El Parral", "lat": 17.379751, "lng": -92.329443
},{
"label": "Chuchucruz Primera Sección", "lat": 17.302958, "lng": -92.271031
},{
"label": "La Florida", "lat": 17.34511, "lng": -92.335762
},{
"label": "Emiliano Zapata [Copropiedad]", "lat": 17.331655, "lng": -92.288739
},{
"label": "Nuevo Chuchucruz (Kajkam)", "lat": 17.322553, "lng": -92.193261
},{
"label": "Niños Héroes", "lat": 17.314299, "lng": -92.290615
},{
"label": "San Miguel Fracción 2", "lat": 17.33473, "lng": -92.283421
},{
"label": "El Arenal", "lat": 17.274771, "lng": -92.146466
},{
"label": "Panchén Dos", "lat": 17.263103, "lng": -92.334172
},{
"label": "Bactiel", "lat": 17.323662, "lng": -92.283762
},{
"label": "Joljamil", "lat": 17.262839, "lng": -92.322328
},{
"label": "Progreso Agua Azul", "lat": 17.267616, "lng": -92.135408
},{
"label": "Estrella de Belén", "lat": 17.244492, "lng": -92.3316
},{
"label": "Las Palmas", "lat": 17.277108, "lng": -92.304638
},{
"label": "Yerbabuena", "lat": 17.288434, "lng": -92.27953
},{
"label": "El Delirio", "lat": 17.336841, "lng": -92.277778
},{
"label": "Arroyo Panshuc", "lat": 17.347692, "lng": -92.235956
},{
"label": "La Revolución", "lat": 17.335359, "lng": -92.288458
},{
"label": "José María Morelos y Pavón", "lat": 17.274818, "lng": -92.212971
},{
"label": "San Antonio", "lat": 17.378769, "lng": -92.328776
},{
"label": "Aguas Calientes", "lat": 17.303218, "lng": -92.268468
},{
"label": "Tiobujún", "lat": 17.27554, "lng": -92.242657
},{
"label": "El Refugio", "lat": 17.337669, "lng": -92.248996
},{
"label": "Nuevo Benito Juárez", "lat": 17.367458, "lng": -92.385889
},{
"label": "La Rejoya 2", "lat": 17.293514, "lng": -92.32179
},{
"label": "Mariscal Yehuitz", "lat": 17.350414, "lng": -92.364045
},{
"label": "Benito Juárez", "lat": 17.259132, "lng": -92.256296
},{
"label": "El Porvenir", "lat": 17.343292, "lng": -92.326972
},{
"label": "Pactiún", "lat": 17.266503, "lng": -92.228723
},{
"label": "Xumuljá", "lat": 17.268467, "lng": -92.126478
},{
"label": "La Lomita", "lat": 17.301744, "lng": -92.321978
},{
"label": "Pedregal", "lat": 17.316188, "lng": -92.226033
},{
"label": "El Limón", "lat": 17.344453, "lng": -92.258652
},{
"label": "Las Estrellas", "lat": 17.327365, "lng": -92.287002
},{
"label": "La Ventana", "lat": 17.289443, "lng": -92.220725
},{
"label": "Yevalchén Planada", "lat": 17.256869, "lng": -92.328993
},{
"label": "La Esperanza del Porvenir", "lat": 17.3639, "lng": -92.342181
},{
"label": "Joshil", "lat": 17.246988, "lng": -92.362718
},{
"label": "Campamento", "lat": 17.320478, "lng": -92.332213
},{
"label": "El Cielo", "lat": 17.277586, "lng": -92.368403
},{
"label": "El Hormiguero", "lat": 17.330176, "lng": -92.216714
},{
"label": "Joyeta Fracción", "lat": 17.280785, "lng": -92.100702
},{
"label": "Las Delicias", "lat": 17.338775, "lng": -92.270694
},{
"label": "La Alianza", "lat": 17.283322, "lng": -92.319628
},{
"label": "El Ocotal", "lat": 17.253581, "lng": -92.362414
},{
"label": "El Mirador", "lat": 17.326483, "lng": -92.211803
},{
"label": "Emiliano Zapata", "lat": 17.337663, "lng": -92.289714
},{
"label": "Arroyo Abán", "lat": 17.295606, "lng": -92.213607
},{
"label": "El Farolito", "lat": 17.334766, "lng": -92.313105
},{
"label": "Crucero Bambú", "lat": 17.327889, "lng": -92.311316
},{
"label": "Anexo Chuchucruz 1ra. Sección", "lat": 17.302218, "lng": -92.268541
},{
"label": "Obregón la Loma", "lat": 17.317273, "lng": -92.306691
},{
"label": "Coyojil", "lat": 17.307381, "lng": -92.285377
},{
"label": "Tientiul Chico", "lat": 17.364091, "lng": -92.235982
},{
"label": "La Providencia", "lat": 17.385617, "lng": -92.33201
},{
"label": "Chuctiepa", "lat": 17.330404, "lng": -92.210804
},{
"label": "Lote 20 Fracción", "lat": 17.279288, "lng": -92.139556
},{
"label": "Nuevo Triunfo", "lat": 17.334567, "lng": -92.314486
},{
"label": "Takinukum Peñascal", "lat": 17.235114, "lng": -92.333667
},{
"label": "Flor de Alianza", "lat": 17.288067, "lng": -92.320125
},{
"label": "Las Lomas", "lat": 17.334815, "lng": -92.277223
},{
"label": "El Prado", "lat": 17.356408, "lng": -92.279266
},{
"label": "Mirador Joyeta", "lat": 17.289178, "lng": -92.126272
},{
"label": "Arroyo Agua Azul", "lat": 17.254624, "lng": -92.111362
},{
"label": "Cuctiepa", "lat": 17.3076, "lng": -92.177389
},{
"label": "Santa Cruz", "lat": 17.334189, "lng": -92.276976
},{
"label": "Joljamil Planada", "lat": 17.259489, "lng": -92.323804
},{
"label": "Lázaro Cárdenas", "lat": 17.282801, "lng": -92.297351
},{
"label": "Chuchucruz 2da. Sección", "lat": 17.298628, "lng": -92.291529
},{
"label": "La Ilusión", "lat": 17.248519, "lng": -92.330483
},{
"label": "Joyeta", "lat": 17.294061, "lng": -92.35865
},{
"label": "Esperanza Joyeta", "lat": 17.269566, "lng": -92.105038
},{
"label": "Chuculumtiel", "lat": 17.268067, "lng": -92.30893
},{
"label": "Nueva Creación", "lat": 17.306084, "lng": -92.267301
},{
"label": "El Potrero", "lat": 17.275438, "lng": -92.314279
},{
"label": "Naranjil", "lat": 17.349414, "lng": -92.235073
},{
"label": "El Peñasco", "lat": 17.247228, "lng": -92.33737
},{
"label": "Tres Arroyos", "lat": 17.342068, "lng": -92.3378
},{
"label": "Ernesto Astudillo", "lat": 17.351193, "lng": -92.272805
},{
"label": "Joloniel", "lat": 17.359468, "lng": -92.318524
},{
"label": "Rio Bravo", "lat": 17.353817, "lng": -92.218936
},{
"label": "Yevalchén", "lat": 17.264128, "lng": -92.326161
},{
"label": "La Ventana 2da. Sección", "lat": 17.293486, "lng": -92.221311
},{
"label": "El Progreso", "lat": 17.337856, "lng": -92.283392
},{
"label": "Arroyo Libertad", "lat": 17.354109, "lng": -92.246103
},{
"label": "Mariscal los Jiménez", "lat": 17.318188, "lng": -92.352263
},{
"label": "San Juan", "lat": 17.3125, "lng": -92.21194
},{
"label": "Tehuacan", "lat": 17.274931, "lng": -92.308813
},{
"label": "Fraccionamiento Tierra y Libertad", "lat": 17.33397, "lng": -92.289468
},{
"label": "Cololil", "lat": 17.265068, "lng": -92.314805
},{
"label": "Nuevo Mariscal Subikuski", "lat": 17.395314, "lng": -92.384077
},{
"label": "La Esperanza Mórrizon", "lat": 17.253963, "lng": -92.20315
},{
"label": "Francisco Villa", "lat": 17.289026, "lng": -92.296184
},{
"label": "La Revancha", "lat": 17.313231, "lng": -92.267892
},{
"label": "Hidalgo Joshil", "lat": 17.22634, "lng": -92.345366
},{
"label": "Loma Bonita", "lat": 17.371903, "lng": -92.374271
},{
"label": "Nichinjá", "lat": 17.260898, "lng": -92.337678
},{
"label": "Sombra Chica", "lat": 17.297742, "lng": -92.308569
},{
"label": "Mariscal Subikuski", "lat": 17.333906, "lng": -92.381228
}]