[{
"label": "Esperanza", "lat": 17.184764, "lng": -92.302378
},{
"label": "Arroyo Afiladero", "lat": 17.211977, "lng": -92.308186
},{
"label": "Lagushtón", "lat": 17.174374, "lng": -92.323598
},{
"label": "Esperanza Sétzer", "lat": 17.18793, "lng": -92.29006
},{
"label": "Cueva Joctiul", "lat": 17.22705, "lng": -92.230481
},{
"label": "Chitaltic Centro", "lat": 17.184767, "lng": -92.365678
},{
"label": "El Chuchumil", "lat": 17.147556, "lng": -92.3421
},{
"label": "El Pedregal", "lat": 17.181311, "lng": -92.326669
},{
"label": "Amado Nervo", "lat": 17.229933, "lng": -92.245
},{
"label": "Ixmocoy", "lat": 17.188168, "lng": -92.360335
},{
"label": "Nueva Jerusalén 2a. Sección", "lat": 17.223184, "lng": -92.26793
},{
"label": "Braulio Constantino", "lat": 17.173585, "lng": -92.297427
},{
"label": "Sierra Morena", "lat": 17.172732, "lng": -92.295176
},{
"label": "San Francisco Takinukum", "lat": 17.221162, "lng": -92.338456
},{
"label": "Vistahermosa (Esquipulas)", "lat": 17.14733, "lng": -92.333379
},{
"label": "San Luis", "lat": 17.169115, "lng": -92.339808
},{
"label": "Cumbre la Unión", "lat": 17.191176, "lng": -92.323707
},{
"label": "El Faro", "lat": 17.190193, "lng": -92.377503
},{
"label": "La Isla", "lat": 17.231056, "lng": -92.271224
},{
"label": "Calvario Bahuitz", "lat": 17.16643, "lng": -92.356089
},{
"label": "Santa Cruz Lindavista", "lat": 17.175242, "lng": -92.319365
},{
"label": "Agua Fría Carrizal", "lat": 17.167514, "lng": -92.320561
},{
"label": "Las Arboladas", "lat": 17.148399, "lng": -92.316197
},{
"label": "El Tzementé", "lat": 17.156735, "lng": -92.32361
},{
"label": "Nueva Jerusalén 1ra. Sección", "lat": 17.224409, "lng": -92.269531
},{
"label": "San José de la Reforma", "lat": 17.231766, "lng": -92.322889
},{
"label": "El Águila", "lat": 17.188697, "lng": -92.342831
},{
"label": "Barranca Nabil", "lat": 17.160971, "lng": -92.320067
},{
"label": "La Libertad", "lat": 17.158061, "lng": -92.329848
},{
"label": "Canenab", "lat": 17.160083, "lng": -92.295984
},{
"label": "Saclumil Dos", "lat": 17.189702, "lng": -92.343039
},{
"label": "La Florida", "lat": 17.183609, "lng": -92.372501
},{
"label": "Guadalupe", "lat": 17.14743, "lng": -92.333636
},{
"label": "Soledad", "lat": 17.182629, "lng": -92.349633
},{
"label": "Reforma", "lat": 17.191849, "lng": -92.344732
},{
"label": "Chililjá", "lat": 17.148745, "lng": -92.334222
},{
"label": "El Recreo", "lat": 17.144945, "lng": -92.385255
},{
"label": "El Arenal", "lat": 17.141516, "lng": -92.31156
},{
"label": "Rosario Saclumil", "lat": 17.194282, "lng": -92.343326
},{
"label": "Acabalná", "lat": 17.160712, "lng": -92.32973
},{
"label": "San José Cacateel", "lat": 17.210232, "lng": -92.370294
},{
"label": "Límbano Utrilla", "lat": 17.189596, "lng": -92.337549
},{
"label": "Las Rocas", "lat": 17.214168, "lng": -92.368353
},{
"label": "El Delirio", "lat": 17.192833, "lng": -92.405212
},{
"label": "Jotolá Bahuitz", "lat": 17.193984, "lng": -92.309198
},{
"label": "Cumbre Yashwinic", "lat": 17.190755, "lng": -92.225605
},{
"label": "San Antonio de la Aurora", "lat": 17.200385, "lng": -92.314164
},{
"label": "El Carmen Dos", "lat": 17.208711, "lng": -92.349509
},{
"label": "Calvario las Delicias Segunda Sección", "lat": 17.179461, "lng": -92.367454
},{
"label": "Majasil Chapultepec", "lat": 17.187901, "lng": -92.385065
},{
"label": "Las Tinieblas", "lat": 17.18323, "lng": -92.328539
},{
"label": "Soledad del Carmen", "lat": 17.183381, "lng": -92.329374
},{
"label": "San Antonio la Aurora 2da. Sección", "lat": 17.204216, "lng": -92.306366
},{
"label": "César Mazariegos", "lat": 17.173341, "lng": -92.302954
},{
"label": "Nuevo Paraíso", "lat": 17.208846, "lng": -92.334951
},{
"label": "San Miguel Ojo de Agua", "lat": 17.219262, "lng": -92.283754
},{
"label": "Nueva Argentina", "lat": 17.136678, "lng": -92.330178
},{
"label": "Calvario las Delicias", "lat": 17.181705, "lng": -92.363058
},{
"label": "Chiviltic", "lat": 17.129715, "lng": -92.429359
},{
"label": "Tzajalumil", "lat": 17.202485, "lng": -92.337241
},{
"label": "Puciltón Uno", "lat": 17.199691, "lng": -92.34248
},{
"label": "Fracción la Peña", "lat": 17.225009, "lng": -92.322003
},{
"label": "La Ventana", "lat": 17.154193, "lng": -92.374285
},{
"label": "Esperanza Buwitz", "lat": 17.188949, "lng": -92.291342
},{
"label": "El Manantial", "lat": 17.184575, "lng": -92.325167
},{
"label": "Linda Vista Jothola", "lat": 17.133281, "lng": -92.318825
},{
"label": "Cerro de Guadalupe", "lat": 17.20777, "lng": -92.366109
},{
"label": "La Unión (Fracción la Estrella)", "lat": 17.202169, "lng": -92.333643
},{
"label": "Fabrica Vieja", "lat": 17.160273, "lng": -92.342316
},{
"label": "Jotola", "lat": 17.169237, "lng": -92.312461
},{
"label": "Camino Real", "lat": 17.162488, "lng": -92.31061
},{
"label": "Tzintón", "lat": 17.198356, "lng": -92.356334
},{
"label": "Arroyo Carrizal", "lat": 17.151439, "lng": -92.350281
},{
"label": "Esperanza Porvenir", "lat": 17.19755, "lng": -92.29707
},{
"label": "Ocot Yashwinic", "lat": 17.177107, "lng": -92.278646
},{
"label": "El Recreo Planada", "lat": 17.223418, "lng": -92.299028
},{
"label": "Ixcamut", "lat": 17.182606, "lng": -92.346857
},{
"label": "Ocotal", "lat": 17.138951, "lng": -92.325138
},{
"label": "Fracción la Unión", "lat": 17.199787, "lng": -92.326741
},{
"label": "Fracción Desierto", "lat": 17.194818, "lng": -92.306444
},{
"label": "Arroyo Limonar", "lat": 17.217722, "lng": -92.30523
},{
"label": "El Prado", "lat": 17.198051, "lng": -92.367022
},{
"label": "San Jorge", "lat": 17.174568, "lng": -92.320299
},{
"label": "El Centenario", "lat": 17.150425, "lng": -92.336873
},{
"label": "Los Alpes", "lat": 17.202204, "lng": -92.302551
},{
"label": "La Gloria Bahuitz", "lat": 17.149266, "lng": -92.325888
},{
"label": "Callejón Lorena Shashijá", "lat": 17.234532, "lng": -92.299055
},{
"label": "San Antonio de la Giralda", "lat": 17.239826, "lng": -92.315763
},{
"label": "Nueva Creación", "lat": 17.175821, "lng": -92.320129
},{
"label": "San Fidencio Wayaquil", "lat": 17.213391, "lng": -92.302821
},{
"label": "San José Yob", "lat": 17.194782, "lng": -92.364259
},{
"label": "Bremen", "lat": 17.216419, "lng": -92.274034
},{
"label": "La Perseverancia", "lat": 17.162286, "lng": -92.279179
},{
"label": "Esperanza Takinukum", "lat": 17.205803, "lng": -92.330981
},{
"label": "El Progreso", "lat": 17.203157, "lng": -92.33394
},{
"label": "San Antonio Buenavista", "lat": 17.168503, "lng": -92.361591
},{
"label": "Nueva Jerusalén", "lat": 17.148305, "lng": -92.339368
},{
"label": "Tres Piedras Tzelej", "lat": 17.186552, "lng": -92.351502
},{
"label": "Porvenir Puciltón", "lat": 17.204422, "lng": -92.34801
},{
"label": "San Antonio Texas", "lat": 17.183135, "lng": -92.298094
},{
"label": "El Porvenir Uno", "lat": 17.151738, "lng": -92.31942
},{
"label": "El Limonar", "lat": 17.158695, "lng": -92.323268
},{
"label": "San Francisco", "lat": 17.182013, "lng": -92.324435
},{
"label": "El Tepeyac", "lat": 17.2086, "lng": -92.372699
},{
"label": "El Encanto", "lat": 17.183903, "lng": -92.344869
},{
"label": "Venecia Seco", "lat": 17.221384, "lng": -92.290237
},{
"label": "El Carmen", "lat": 17.182063, "lng": -92.350745
},{
"label": "La Belleza", "lat": 17.218837, "lng": -92.337437
},{
"label": "El Paraíso", "lat": 17.160025, "lng": -92.329531
},{
"label": "San Francisco Uno", "lat": 17.176497, "lng": -92.324425
},{
"label": "Chupaquil", "lat": 17.145144, "lng": -92.336803
},{
"label": "Los Pajaritos", "lat": 17.157522, "lng": -92.32794
},{
"label": "Buenavista", "lat": 17.221192, "lng": -92.318969
},{
"label": "Yajalón", "lat": 17.17391, "lng": -92.333944
},{
"label": "San Vicente Satélite", "lat": 17.217991, "lng": -92.292625
},{
"label": "José María Morelos y Pavón (Taquinja)", "lat": 17.191681, "lng": -92.333037
},{
"label": "San Vicente Ojo de Agua", "lat": 17.218853, "lng": -92.297531
},{
"label": "La Constancia", "lat": 17.179957, "lng": -92.348889
},{
"label": "San Pedro Jotolá", "lat": 17.202398, "lng": -92.256642
},{
"label": "Aurora 2da. Sección", "lat": 17.190982, "lng": -92.30943
},{
"label": "San Fernando", "lat": 17.192377, "lng": -92.357091
},{
"label": "Ishcamut Dos", "lat": 17.178577, "lng": -92.35681
},{
"label": "Nichtunil", "lat": 17.165802, "lng": -92.307912
},{
"label": "Agua Escondida", "lat": 17.139053, "lng": -92.313825
},{
"label": "San Ramón", "lat": 17.202848, "lng": -92.321722
},{
"label": "Calvario Bahuitz Ojo de Agua", "lat": 17.183971, "lng": -92.381882
},{
"label": "San José Jotolá", "lat": 17.165842, "lng": -92.315525
},{
"label": "Coopropiedad Santa Cruz", "lat": 17.214155, "lng": -92.302711
},{
"label": "Bahuitz Tzonep", "lat": 17.147424, "lng": -92.331802
},{
"label": "San José la Florida Yob", "lat": 17.202882, "lng": -92.374267
},{
"label": "Loma Linda", "lat": 17.188286, "lng": -92.356725
},{
"label": "Santa Rita", "lat": 17.174678, "lng": -92.317255
},{
"label": "Tierra Colorada", "lat": 17.164087, "lng": -92.349319
},{
"label": "San José Colijá", "lat": 17.194903, "lng": -92.358133
},{
"label": "Fracción Arenal", "lat": 17.139994, "lng": -92.319214
},{
"label": "San Pedro Buenavista", "lat": 17.157846, "lng": -92.304731
},{
"label": "Chitaltic", "lat": 17.185054, "lng": -92.36917
},{
"label": "San José de la Ceiba", "lat": 17.212262, "lng": -92.370552
},{
"label": "Fracción Soledad", "lat": 17.155627, "lng": -92.323696
},{
"label": "Tzitzaquil", "lat": 17.173069, "lng": -92.321581
},{
"label": "San Antonio", "lat": 17.202632, "lng": -92.345472
},{
"label": "Chapuyil", "lat": 17.210091, "lng": -92.374049
},{
"label": "Benito Juárez", "lat": 17.167871, "lng": -92.36601
},{
"label": "Santa Rita el Bebedero", "lat": 17.153967, "lng": -92.353978
},{
"label": "El Porvenir", "lat": 17.164862, "lng": -92.300008
},{
"label": "La Unión Takinucum (Buenavista)", "lat": 17.204524, "lng": -92.329441
},{
"label": "Buenavista Takinukum", "lat": 17.208726, "lng": -92.325029
},{
"label": "Buenavista la Cueva", "lat": 17.210323, "lng": -92.330332
},{
"label": "Chitaltic Centro 1ra. Sección", "lat": 17.185019, "lng": -92.361823
},{
"label": "Santa Bárbara", "lat": 17.175724, "lng": -92.308687
},{
"label": "San José", "lat": 17.182934, "lng": -92.34388
},{
"label": "El Esfuerzo", "lat": 17.17079, "lng": -92.362718
},{
"label": "La Laguna", "lat": 17.155577, "lng": -92.314683
},{
"label": "Barranca Navil 2da. Sección", "lat": 17.170348, "lng": -92.317663
},{
"label": "Lucio Blanco", "lat": 17.209348, "lng": -92.222777
},{
"label": "Lindavista Vesubio", "lat": 17.180089, "lng": -92.388553
},{
"label": "Nueva Esperanza", "lat": 17.207728, "lng": -92.265768
},{
"label": "Cuxulja", "lat": 17.194736, "lng": -92.296528
},{
"label": "J. Mariano Abarca", "lat": 17.199537, "lng": -92.376158
},{
"label": "El Mirador", "lat": 17.173828, "lng": -92.315398
},{
"label": "San José el Pulpitillo", "lat": 17.211288, "lng": -92.356129
},{
"label": "Emiliano Zapata", "lat": 17.145843, "lng": -92.418538
},{
"label": "Colipá", "lat": 17.211902, "lng": -92.255571
},{
"label": "Nueva Alianza Sheshal", "lat": 17.185809, "lng": -92.364807
},{
"label": "Nayarit", "lat": 17.1957, "lng": -92.358859
},{
"label": "Sinaí", "lat": 17.156877, "lng": -92.341893
},{
"label": "La Providencia", "lat": 17.216411, "lng": -92.256979
},{
"label": "Carmen Guayaquil", "lat": 17.20942, "lng": -92.352633
},{
"label": "La Clarita", "lat": 17.177145, "lng": -92.36082
},{
"label": "Tierra y Libertad", "lat": 17.209596, "lng": -92.333775
},{
"label": "San Pedro", "lat": 17.185594, "lng": -92.338996
},{
"label": "La Laguna 2da. Sección", "lat": 17.152319, "lng": -92.311387
},{
"label": "Tzintón 2da. Sección", "lat": 17.199173, "lng": -92.357631
},{
"label": "Santa Cruz el Palmar", "lat": 17.104261, "lng": -92.392443
},{
"label": "Santa Cruz de la Florecita", "lat": 17.202453, "lng": -92.339481
},{
"label": "Fracción la Aurora", "lat": 17.196728, "lng": -92.302758
},{
"label": "Santa Cruz", "lat": 17.214734, "lng": -92.296747
},{
"label": "Ojo de Agua", "lat": 17.199014, "lng": -92.246826
},{
"label": "San José Paraíso", "lat": 17.172523, "lng": -92.361783
},{
"label": "Lázaro Cárdenas", "lat": 17.197858, "lng": -92.381731
},{
"label": "Canaán", "lat": 17.194958, "lng": -92.313304
},{
"label": "Majasil", "lat": 17.190029, "lng": -92.390916
},{
"label": "San Vicente", "lat": 17.22003, "lng": -92.296067
},{
"label": "El Azufre", "lat": 17.161093, "lng": -92.333438
},{
"label": "Shashijá", "lat": 17.23657, "lng": -92.295453
},{
"label": "San Pedro Najchitam", "lat": 17.154074, "lng": -92.301563
},{
"label": "La Reforma", "lat": 17.154372, "lng": -92.333791
},{
"label": "Venecia", "lat": 17.219808, "lng": -92.291422
},{
"label": "Aquil Porvenir", "lat": 17.193714, "lng": -92.292761
},{
"label": "La Unión 2da. Sección", "lat": 17.247545, "lng": -92.316279
},{
"label": "Chapapuhil", "lat": 17.18004, "lng": -92.290882
},{
"label": "Santa Lucía Buenavista", "lat": 17.172045, "lng": -92.341735
},{
"label": "El Progreso Piedral", "lat": 17.18727, "lng": -92.341874
},{
"label": "El Milagro", "lat": 17.184242, "lng": -92.332629
},{
"label": "San José Sheshal", "lat": 17.182407, "lng": -92.351434
},{
"label": "Santa Candelaria", "lat": 17.166349, "lng": -92.316525
},{
"label": "San Francisco de Asís", "lat": 17.230579, "lng": -92.314725
},{
"label": "Tulaquil", "lat": 17.183239, "lng": -92.356473
},{
"label": "Las Brisas", "lat": 17.174974, "lng": -92.306091
},{
"label": "Maravilla", "lat": 17.171232, "lng": -92.321244
},{
"label": "Aurora Bahuitz", "lat": 17.193601, "lng": -92.307788
},{
"label": "Cola del Campo", "lat": 17.185474, "lng": -92.346336
},{
"label": "Bawitz (Juan García)", "lat": 17.1484, "lng": -92.330288
},{
"label": "San Francisco 2da. Sección", "lat": 17.213397, "lng": -92.332541
},{
"label": "Uluzas", "lat": 17.199753, "lng": -92.350492
},{
"label": "San Vicente Tzintón", "lat": 17.20746, "lng": -92.364401
},{
"label": "Soledad Takinukum", "lat": 17.183788, "lng": -92.316884
},{
"label": "La Aldea", "lat": 17.215147, "lng": -92.308903
},{
"label": "Agua Blanca", "lat": 17.202284, "lng": -92.258934
},{
"label": "San José Ismocoy", "lat": 17.18881, "lng": -92.358739
}]