[{
"label": "Tochac", "lat": 19.412094, "lng": -98.077132
},{
"label": "Los Gemelos [Rancho]", "lat": 19.40608, "lng": -98.083554
},{
"label": "Tlalcoyotla", "lat": 19.445784, "lng": -98.161796
},{
"label": "Horcasitas", "lat": 19.438283, "lng": -98.178072
},{
"label": "El Porvenir [Rancho]", "lat": 19.451818, "lng": -98.155081
},{
"label": "Ejido de Santa Úrsula", "lat": 19.444333, "lng": -98.153624
},{
"label": "Santa Anita Huiloac", "lat": 19.388708, "lng": -98.149702
},{
"label": "José María Morelos", "lat": 19.46587, "lng": -98.158592
},{
"label": "San José Tetel (La Quebradora)", "lat": 19.436327, "lng": -98.146305
},{
"label": "Atenco", "lat": 19.426922, "lng": -98.146381
},{
"label": "Cuarta Manzana", "lat": 19.459803, "lng": -98.153262
},{
"label": "Guadalupe Texcalac", "lat": 19.439213, "lng": -98.07762
},{
"label": "Unidad Deportiva", "lat": 19.40331, "lng": -98.079493
},{
"label": "Francisco Moreno Morales", "lat": 19.456668, "lng": -98.147647
},{
"label": "La Vía (Colonia el Silbato)", "lat": 19.405969, "lng": -98.086379
},{
"label": "Ciudad de Apizaco", "lat": 19.416335, "lng": -98.140612
},{
"label": "San Luis Apizaquito", "lat": 19.420614, "lng": -98.119841
},{
"label": "Parada de la Virgen", "lat": 19.44933, "lng": -98.149185
},{
"label": "Fraccionamiento Jardines de San Francisco", "lat": 19.458754, "lng": -98.150933
},{
"label": "Jagüey Prieto", "lat": 19.4427, "lng": -98.165316
},{
"label": "Máximo Huerta Cortés", "lat": 19.449533, "lng": -98.176294
},{
"label": "Ejido de Xaltocan", "lat": 19.457568, "lng": -98.177047
},{
"label": "Santa María Texcalac", "lat": 19.421415, "lng": -98.090614
},{
"label": "Primera Sección", "lat": 19.450087, "lng": -98.148869
},{
"label": "Cerrito de Guadalupe", "lat": 19.423239, "lng": -98.131981
},{
"label": "Colonia San Isidro", "lat": 19.411191, "lng": -98.112874
},{
"label": "Ejido de San Dionisio", "lat": 19.466859, "lng": -98.17319
},{
"label": "Rancho Minerva", "lat": 19.44855, "lng": -98.154945
},{
"label": "Actipan", "lat": 19.444751, "lng": -98.149764
}]