[{
"label": "Maricela Muñoz", "lat": 19.598453, "lng": -98.56629
},{
"label": "Fraccionamiento Ángeles", "lat": 19.579376, "lng": -98.575836
},{
"label": "El Carmen", "lat": 19.562373, "lng": -98.485791
},{
"label": "Zoquiapan", "lat": 19.580057, "lng": -98.477971
},{
"label": "Tlazalán", "lat": 19.564175, "lng": -98.448262
},{
"label": "San Isidro [Rancho]", "lat": 19.560769, "lng": -98.574062
},{
"label": "Rancho Cacho", "lat": 19.531025, "lng": -98.566071
},{
"label": "El Mirador Dos", "lat": 19.572763, "lng": -98.513359
},{
"label": "El Paraíso", "lat": 19.597119, "lng": -98.660446
},{
"label": "El Rosario", "lat": 19.559654, "lng": -98.687034
},{
"label": "El Pino", "lat": 19.593056, "lng": -98.552073
},{
"label": "David Sánchez", "lat": 19.551764, "lng": -98.573583
},{
"label": "Candelario Ortiz", "lat": 19.615162, "lng": -98.540094
},{
"label": "La Curva", "lat": 19.565976, "lng": -98.569152
},{
"label": "Enrique Alonso", "lat": 19.546255, "lng": -98.554252
},{
"label": "El Cacalote", "lat": 19.525575, "lng": -98.566457
},{
"label": "Vicente Torres", "lat": 19.587412, "lng": -98.597661
},{
"label": "José Antonio Sánchez", "lat": 19.565547, "lng": -98.556622
},{
"label": "San Isidro", "lat": 19.594775, "lng": -98.512251
},{
"label": "Velázquez", "lat": 19.588633, "lng": -98.488298
},{
"label": "Los Ángeles", "lat": 19.582051, "lng": -98.491742
},{
"label": "La Joya", "lat": 19.55952, "lng": -98.551424
},{
"label": "Cruz Salamanca", "lat": 19.552252, "lng": -98.553854
},{
"label": "Santa Félix", "lat": 19.586431, "lng": -98.518632
},{
"label": "Los Compadres [Rancho]", "lat": 19.575759, "lng": -98.619549
},{
"label": "Los Cerritos [Rancho]", "lat": 19.575459, "lng": -98.537614
},{
"label": "Santa Teresa", "lat": 19.550585, "lng": -98.607418
},{
"label": "Carlos Morales", "lat": 19.546604, "lng": -98.551231
},{
"label": "Rancho Dos Hermanos", "lat": 19.57539, "lng": -98.536147
},{
"label": "José García Sánchez", "lat": 19.555998, "lng": -98.578503
},{
"label": "San Juan [Rancho]", "lat": 19.580363, "lng": -98.58005
},{
"label": "Parada Coecillos", "lat": 19.583926, "lng": -98.537899
},{
"label": "Coecillos", "lat": 19.587538, "lng": -98.528347
},{
"label": "Juan Zavala", "lat": 19.574632, "lng": -98.581311
},{
"label": "El Padrino", "lat": 19.545423, "lng": -98.492422
},{
"label": "Amantla", "lat": 19.628271, "lng": -98.581919
},{
"label": "La Flor", "lat": 19.545889, "lng": -98.609827
},{
"label": "Loma de San Agustín", "lat": 19.537525, "lng": -98.609024
},{
"label": "Los Mejía", "lat": 19.553123, "lng": -98.574913
},{
"label": "Simón Mercader", "lat": 19.611101, "lng": -98.548788
},{
"label": "San Bartolomé del Monte", "lat": 19.561875, "lng": -98.585444
},{
"label": "Puente del Ocomique", "lat": 19.575862, "lng": -98.644395
},{
"label": "Macondo", "lat": 19.569447, "lng": -98.584147
},{
"label": "Analco Dos", "lat": 19.540141, "lng": -98.571882
},{
"label": "Albino Alonso", "lat": 19.575143, "lng": -98.584065
},{
"label": "Los Duraznos", "lat": 19.554913, "lng": -98.562315
},{
"label": "El Piñón", "lat": 19.589669, "lng": -98.600608
},{
"label": "Santa Rosa", "lat": 19.541436, "lng": -98.628378
},{
"label": "San Rodrigo", "lat": 19.560435, "lng": -98.538304
},{
"label": "El Álamo", "lat": 19.585473, "lng": -98.541546
},{
"label": "Loma de Ixtetla", "lat": 19.579121, "lng": -98.584067
},{
"label": "La Palma", "lat": 19.529458, "lng": -98.569364
},{
"label": "San José (Los Hornos)", "lat": 19.569387, "lng": -98.509179
},{
"label": "Guillermo Rodríguez", "lat": 19.539952, "lng": -98.579673
},{
"label": "Pablo Godínez", "lat": 19.557332, "lng": -98.530753
},{
"label": "San Antonio (El Colectivo)", "lat": 19.582806, "lng": -98.528679
},{
"label": "Santo Domingo Tequixtla [Rancho]", "lat": 19.580444, "lng": -98.626271
},{
"label": "Monte de San Agustín", "lat": 19.541208, "lng": -98.611728
},{
"label": "Eugenio Madín", "lat": 19.579093, "lng": -98.587335
},{
"label": "La Ventilla", "lat": 19.57222, "lng": -98.518887
},{
"label": "Las Dalias", "lat": 19.587228, "lng": -98.526031
},{
"label": "San Alejandro [Rancho]", "lat": 19.589602, "lng": -98.539068
},{
"label": "Tirso Hernández", "lat": 19.56863, "lng": -98.517594
},{
"label": "Santiago Cuaula", "lat": 19.600747, "lng": -98.648169
},{
"label": "La Providencia (El Ocote)", "lat": 19.583129, "lng": -98.59816
},{
"label": "Los Montalvo", "lat": 19.609047, "lng": -98.574584
},{
"label": "La Luz [Rancho]", "lat": 19.530178, "lng": -98.566506
},{
"label": "Las Auras", "lat": 19.586593, "lng": -98.591131
},{
"label": "Rodolfo Ávila", "lat": 19.555815, "lng": -98.524267
},{
"label": "Marcelino Cruz", "lat": 19.580595, "lng": -98.600096
},{
"label": "Mario Salazar", "lat": 19.580798, "lng": -98.577604
},{
"label": "La Quebradora", "lat": 19.593837, "lng": -98.607727
},{
"label": "Camino a San Vicente", "lat": 19.585646, "lng": -98.581709
},{
"label": "Santa Isabel Mixtitlán", "lat": 19.510525, "lng": -98.596104
},{
"label": "Luis Madrid", "lat": 19.604386, "lng": -98.602799
},{
"label": "San Felipe Sultepec", "lat": 19.591531, "lng": -98.615718
},{
"label": "Rancho Coecillos", "lat": 19.589695, "lng": -98.537484
},{
"label": "Ángel Pelcastre", "lat": 19.552341, "lng": -98.61359
},{
"label": "Granja del Pozo", "lat": 19.588496, "lng": -98.539819
},{
"label": "Las Colmenas [Rancho]", "lat": 19.54629, "lng": -98.566602
},{
"label": "José Díaz", "lat": 19.54937, "lng": -98.552557
},{
"label": "Esperanza Ortiz", "lat": 19.56839, "lng": -98.58038
},{
"label": "Juan Hernández (Rancho el Solitario)", "lat": 19.581431, "lng": -98.580551
},{
"label": "Rancho Alberto", "lat": 19.597136, "lng": -98.521523
},{
"label": "Pozo San Vicente [Restaurante]", "lat": 19.594055, "lng": -98.603936
},{
"label": "Los Tres Hermanos", "lat": 19.596615, "lng": -98.607293
},{
"label": "Los Capulines", "lat": 19.553195, "lng": -98.544166
},{
"label": "Rancho Pajaritos", "lat": 19.586003, "lng": -98.517977
},{
"label": "Gas Global Corporativo [Gasera]", "lat": 19.632208, "lng": -98.535726
},{
"label": "La Venta", "lat": 19.567778, "lng": -98.683611
},{
"label": "María Rosa Alba", "lat": 19.580549, "lng": -98.580862
},{
"label": "San José", "lat": 19.56497, "lng": -98.497256
},{
"label": "San Marcos Guaquilpan", "lat": 19.599193, "lng": -98.629782
},{
"label": "Pacheco", "lat": 19.528749, "lng": -98.566946
},{
"label": "La Blanca", "lat": 19.574983, "lng": -98.516804
},{
"label": "Jagüey de Enmedio", "lat": 19.551073, "lng": -98.60277
},{
"label": "Barranca del Tizar", "lat": 19.593306, "lng": -98.635209
},{
"label": "Heroica Ciudad de Calpulalpan", "lat": 19.588526, "lng": -98.570476
},{
"label": "Rancho Escondido", "lat": 19.571535, "lng": -98.591609
},{
"label": "San Cristóbal Zacacalco", "lat": 19.568986, "lng": -98.66229
},{
"label": "El Carmen [Rancho]", "lat": 19.598975, "lng": -98.555086
},{
"label": "Juan Ruiz", "lat": 19.583227, "lng": -98.578884
},{
"label": "San Miguel", "lat": 19.603343, "lng": -98.551932
},{
"label": "El Mirador", "lat": 19.570489, "lng": -98.514602
},{
"label": "Las Tres V", "lat": 19.528646, "lng": -98.56993
},{
"label": "Herlinda Hernández", "lat": 19.60555, "lng": -98.557323
},{
"label": "La Tinaja", "lat": 19.60532, "lng": -98.575036
},{
"label": "Ernesto Alonso", "lat": 19.587287, "lng": -98.601062
},{
"label": "Pacheco (De la Rosa)", "lat": 19.528829, "lng": -98.562401
},{
"label": "Sergio Quintos", "lat": 19.574485, "lng": -98.516359
},{
"label": "NCPE Gustavo Díaz Ordaz", "lat": 19.567263, "lng": -98.465653
},{
"label": "Fernando Arroyo", "lat": 19.622625, "lng": -98.539006
},{
"label": "Andrés Ahumada", "lat": 19.616944, "lng": -98.538333
},{
"label": "Guadalupe Hernández", "lat": 19.562971, "lng": -98.572338
},{
"label": "Emilio López", "lat": 19.570492, "lng": -98.574172
},{
"label": "Ángel García", "lat": 19.547895, "lng": -98.580395
},{
"label": "La Providencia", "lat": 19.541543, "lng": -98.564028
},{
"label": "Candelario Hernández", "lat": 19.573626, "lng": -98.547443
},{
"label": "San Juan de los Lagos", "lat": 19.59429, "lng": -98.520919
},{
"label": "San Pedro", "lat": 19.584637, "lng": -98.493941
},{
"label": "Hermanos García", "lat": 19.539351, "lng": -98.61379
},{
"label": "Cola del Potrero", "lat": 19.551981, "lng": -98.518634
},{
"label": "El Triángulo", "lat": 19.555138, "lng": -98.497582
},{
"label": "Los Potrillos [Rancho]", "lat": 19.575928, "lng": -98.583156
},{
"label": "El Rebombeo", "lat": 19.599251, "lng": -98.639289
},{
"label": "El Convento de la Soledad", "lat": 19.537192, "lng": -98.614277
},{
"label": "Rancho Hermenegildo", "lat": 19.545989, "lng": -98.560567
},{
"label": "Los Cerritos", "lat": 19.570898, "lng": -98.54701
},{
"label": "San Antonio (San Pedro)", "lat": 19.576129, "lng": -98.57531
},{
"label": "Los Pinos", "lat": 19.602413, "lng": -98.569201
},{
"label": "Samuel Labastida", "lat": 19.574241, "lng": -98.54075
},{
"label": "El Regalo [Rancho]", "lat": 19.604, "lng": -98.601726
},{
"label": "Santa Cruz", "lat": 19.538361, "lng": -98.598432
},{
"label": "El Tejocote", "lat": 19.569227, "lng": -98.554239
},{
"label": "Gabriel Roldán", "lat": 19.579809, "lng": -98.579764
},{
"label": "Jacarandas", "lat": 19.533664, "lng": -98.573915
},{
"label": "La Hondonada", "lat": 19.527409, "lng": -98.569071
},{
"label": "Rancho Bonito", "lat": 19.597841, "lng": -98.600582
},{
"label": "San Vicente", "lat": 19.593544, "lng": -98.598226
},{
"label": "Dolores", "lat": 19.575639, "lng": -98.534412
},{
"label": "El Alcanfor", "lat": 19.573843, "lng": -98.514057
},{
"label": "Enrique Ávila", "lat": 19.575674, "lng": -98.538112
},{
"label": "Juan Morales (La Ventilla)", "lat": 19.570529, "lng": -98.517144
},{
"label": "Raymundo Álvarez Guerrero", "lat": 19.604897, "lng": -98.551156
},{
"label": "La Ladera", "lat": 19.584124, "lng": -98.652373
},{
"label": "El Caracol", "lat": 19.565914, "lng": -98.550092
},{
"label": "El Durazno", "lat": 19.544978, "lng": -98.60986
},{
"label": "San Juan Temazcales", "lat": 19.545343, "lng": -98.486556
},{
"label": "Las Palomas", "lat": 19.620784, "lng": -98.54154
},{
"label": "Antonio Martínez", "lat": 19.587997, "lng": -98.526521
},{
"label": "Las Calandrias", "lat": 19.54133, "lng": -98.536235
},{
"label": "El Tejocote [Rancho]", "lat": 19.547765, "lng": -98.571716
},{
"label": "José García", "lat": 19.617252, "lng": -98.552948
},{
"label": "Los Palacios", "lat": 19.557076, "lng": -98.532819
},{
"label": "El Ciruelo", "lat": 19.557136, "lng": -98.551689
},{
"label": "Los Díaz", "lat": 19.569897, "lng": -98.544853
},{
"label": "La Ocotera [Rancho]", "lat": 19.552485, "lng": -98.609727
},{
"label": "El Sacrificio", "lat": 19.559669, "lng": -98.52968
},{
"label": "El Zorrillo", "lat": 19.605358, "lng": -98.662633
},{
"label": "Santa Catalina", "lat": 19.599696, "lng": -98.604158
},{
"label": "Los Mogotes", "lat": 19.589306, "lng": -98.607115
},{
"label": "La Loma", "lat": 19.598584, "lng": -98.608914
},{
"label": "Parador Kilómetro 57", "lat": 19.593091, "lng": -98.587785
},{
"label": "Alejandro Hernández", "lat": 19.568933, "lng": -98.514677
},{
"label": "Gonzalo Cerón", "lat": 19.535538, "lng": -98.572493
},{
"label": "Guillermo Cano", "lat": 19.553359, "lng": -98.517437
},{
"label": "Los Márquez", "lat": 19.557278, "lng": -98.524034
},{
"label": "La Esperanza", "lat": 19.530059, "lng": -98.567496
},{
"label": "José Gregorio García Hernández", "lat": 19.559103, "lng": -98.577153
},{
"label": "Hospital General de Calpulalpan", "lat": 19.58268, "lng": -98.536795
},{
"label": "Luis Hernández", "lat": 19.572753, "lng": -98.546846
},{
"label": "San Francisco", "lat": 19.522586, "lng": -98.574367
},{
"label": "La Morena", "lat": 19.583017, "lng": -98.588082
},{
"label": "Analco (Jorge López)", "lat": 19.543827, "lng": -98.573637
},{
"label": "Melitón Islas", "lat": 19.574931, "lng": -98.516009
},{
"label": "San Mateo Aticpac", "lat": 19.611046, "lng": -98.597038
},{
"label": "San Benigno [Rancho]", "lat": 19.600362, "lng": -98.604253
},{
"label": "La Soledad", "lat": 19.538348, "lng": -98.618261
},{
"label": "Loma Bonita", "lat": 19.616721, "lng": -98.540623
},{
"label": "Mazapa", "lat": 19.540759, "lng": -98.556657
},{
"label": "Hermanos Ávila", "lat": 19.573319, "lng": -98.516598
},{
"label": "Arturo Olmedo", "lat": 19.573004, "lng": -98.515676
},{
"label": "El Sabinal", "lat": 19.567078, "lng": -98.581863
},{
"label": "Rancho del Venado", "lat": 19.553371, "lng": -98.573127
}]