[{
"label": "Rancho Mazarraza", "lat": 19.320626, "lng": -97.755037
},{
"label": "Colonia Ignacio Allende", "lat": 19.353954, "lng": -97.785606
},{
"label": "Palma de Tres Brazos (Fracción Santo Domingo)", "lat": 19.372127, "lng": -97.840222
},{
"label": "Plan de Ayala", "lat": 19.309169, "lng": -97.737963
},{
"label": "Cuapiaxtla", "lat": 19.296661, "lng": -97.769375
},{
"label": "Santa Beatriz la Nueva", "lat": 19.348149, "lng": -97.762736
},{
"label": "Colonia Loma Bonita", "lat": 19.330781, "lng": -97.755524
},{
"label": "Santa Rebeca", "lat": 19.308196, "lng": -97.754113
},{
"label": "Santa Fe Uno", "lat": 19.330683, "lng": -97.761543
},{
"label": "Ejido de Allende", "lat": 19.37539, "lng": -97.847839
},{
"label": "La Granja (Camino a Franco)", "lat": 19.355131, "lng": -97.821159
},{
"label": "San Miguel Teometitla", "lat": 19.336256, "lng": -97.77756
},{
"label": "San Felipe Teometitla", "lat": 19.335493, "lng": -97.774888
},{
"label": "San Cristóbal del Río", "lat": 19.36324, "lng": -97.708324
},{
"label": "Granja de Guadalupe", "lat": 19.317488, "lng": -97.751986
},{
"label": "Colonia José María Morelos", "lat": 19.361768, "lng": -97.698171
},{
"label": "Isi Automotive de México [Fábrica]", "lat": 19.306281, "lng": -97.790556
},{
"label": "Colonia Manuel Ávila Camacho", "lat": 19.325165, "lng": -97.751223
},{
"label": "Santa María Zoapila", "lat": 19.34045, "lng": -97.763605
},{
"label": "La Providencia", "lat": 19.338481, "lng": -97.778489
},{
"label": "Rancho Cerón", "lat": 19.366377, "lng": -97.830351
},{
"label": "San Isidro Cuexcontzi", "lat": 19.342293, "lng": -97.709668
},{
"label": "Santa Fe", "lat": 19.32287, "lng": -97.751667
},{
"label": "La Soledad", "lat": 19.363586, "lng": -97.691394
},{
"label": "San Diego Coyotepec", "lat": 19.298341, "lng": -97.732573
},{
"label": "Colonia del Valle", "lat": 19.30499, "lng": -97.735533
},{
"label": "Ex-Hacienda San Francisco Cuexcomatepec", "lat": 19.327373, "lng": -97.712754
},{
"label": "San Rafael Tepatlaxco (Unión y Progreso)", "lat": 19.378733, "lng": -97.851335
},{
"label": "La Asunción Rascona", "lat": 19.313901, "lng": -97.817978
},{
"label": "Izocorral", "lat": 19.341305, "lng": -97.774605
},{
"label": "San Francisco Cuexcontzi", "lat": 19.320862, "lng": -97.711367
},{
"label": "El Tejocote", "lat": 19.317518, "lng": -97.745246
},{
"label": "Tecoac [Granja Porcina]", "lat": 19.34446, "lng": -97.797118
},{
"label": "Egipto", "lat": 19.353011, "lng": -97.732239
}]