[{
"label": "Las Pilas", "lat": 19.453209, "lng": -98.414014
},{
"label": "San Juan Mitepec", "lat": 19.442781, "lng": -98.460888
},{
"label": "Gandhi", "lat": 19.41936, "lng": -98.414271
},{
"label": "Españita", "lat": 19.462299, "lng": -98.423807
},{
"label": "El Potrero", "lat": 19.426072, "lng": -98.415676
},{
"label": "San Pablo", "lat": 19.398842, "lng": -98.431747
},{
"label": "Pablo García Sánchez (Rancho Tecuicuilco)", "lat": 19.476577, "lng": -98.498873
},{
"label": "La Soledad [Rancho]", "lat": 19.459492, "lng": -98.38076
},{
"label": "Rancho Lagunitas", "lat": 19.429102, "lng": -98.492728
},{
"label": "San Miguel", "lat": 19.473472, "lng": -98.427443
},{
"label": "La Reforma", "lat": 19.428451, "lng": -98.425799
},{
"label": "Los Álamos", "lat": 19.461235, "lng": -98.428218
},{
"label": "Francisco I. Madero el Viejo", "lat": 19.489391, "lng": -98.487161
},{
"label": "El Ocotal (Roque Sánchez)", "lat": 19.427814, "lng": -98.487004
},{
"label": "Lindavista", "lat": 19.447749, "lng": -98.493185
},{
"label": "La Joya", "lat": 19.447328, "lng": -98.476255
},{
"label": "El Calicanto", "lat": 19.390917, "lng": -98.4666
},{
"label": "San Miguel el Piñón", "lat": 19.419063, "lng": -98.403702
},{
"label": "La Puerta", "lat": 19.407799, "lng": -98.428561
},{
"label": "San Antonio", "lat": 19.437427, "lng": -98.407576
},{
"label": "Potrero el Piñón", "lat": 19.409669, "lng": -98.42309
},{
"label": "Las Rosas", "lat": 19.388973, "lng": -98.440224
},{
"label": "Álvaro Obregón", "lat": 19.464448, "lng": -98.473923
},{
"label": "La Valentina", "lat": 19.430996, "lng": -98.427197
},{
"label": "Miguel Aldama", "lat": 19.471221, "lng": -98.392044
},{
"label": "San Miguel Pipiyola", "lat": 19.413912, "lng": -98.439101
},{
"label": "San Miguel Tepalca", "lat": 19.432373, "lng": -98.387225
},{
"label": "El Capulín", "lat": 19.420878, "lng": -98.398
},{
"label": "La Constancia", "lat": 19.427362, "lng": -98.412473
},{
"label": "El Relicario", "lat": 19.43341, "lng": -98.404194
},{
"label": "San Francisco Mitepec", "lat": 19.438491, "lng": -98.443288
},{
"label": "San José Bellavista", "lat": 19.430816, "lng": -98.429152
},{
"label": "Rancho Guillén", "lat": 19.462579, "lng": -98.409011
},{
"label": "El Agua Santa (Las Tinas)", "lat": 19.400352, "lng": -98.472131
},{
"label": "Vicente Guerrero", "lat": 19.422234, "lng": -98.489765
},{
"label": "La Concepción", "lat": 19.479717, "lng": -98.491523
},{
"label": "San Agustín", "lat": 19.460062, "lng": -98.488144
},{
"label": "Los Capulines", "lat": 19.422554, "lng": -98.39588
},{
"label": "El Sabinal", "lat": 19.4223, "lng": -98.382872
},{
"label": "La Magdalena Cuextotitla", "lat": 19.463697, "lng": -98.449297
},{
"label": "Barrio de Torres", "lat": 19.476576, "lng": -98.435643
},{
"label": "Rancho Nuevo", "lat": 19.470562, "lng": -98.497891
},{
"label": "El Violín", "lat": 19.474721, "lng": -98.404851
},{
"label": "Asilo de Ancianos San Judas Tadeo", "lat": 19.43242, "lng": -98.408803
}]