[{
"label": "Ignacio Zaragoza", "lat": 19.568208, "lng": -98.378054
},{
"label": "La Laguna", "lat": 19.47475, "lng": -98.340587
},{
"label": "Marcos Robles", "lat": 19.545023, "lng": -98.328063
},{
"label": "San Diego Recoba", "lat": 19.484298, "lng": -98.373101
},{
"label": "Las Tortolas", "lat": 19.433609, "lng": -98.311446
},{
"label": "La Cruz Techalote [Colonia]", "lat": 19.528011, "lng": -98.356292
},{
"label": "El Paraíso", "lat": 19.500486, "lng": -98.322058
},{
"label": "Agua Limpia", "lat": 19.425573, "lng": -98.351603
},{
"label": "La Loma [Rancho]", "lat": 19.518206, "lng": -98.363073
},{
"label": "Los Tesoros", "lat": 19.421083, "lng": -98.36548
},{
"label": "La Unidad", "lat": 19.54915, "lng": -98.325449
},{
"label": "Santa Lucía", "lat": 19.542295, "lng": -98.354595
},{
"label": "Rancho de las Mariposas", "lat": 19.484818, "lng": -98.297348
},{
"label": "Alejandro Carrillo", "lat": 19.461446, "lng": -98.346565
},{
"label": "La Puerta [Rancho]", "lat": 19.528749, "lng": -98.398628
},{
"label": "Santa María Ixcotla", "lat": 19.421985, "lng": -98.315782
},{
"label": "Colonia Adolfo López Mateos", "lat": 19.505207, "lng": -98.393888
},{
"label": "El Carmen (Las Carrozas)", "lat": 19.445616, "lng": -98.346251
},{
"label": "Hacienda San Fernando", "lat": 19.529164, "lng": -98.314476
},{
"label": "Rancho Dos Hermanos", "lat": 19.527954, "lng": -98.39462
},{
"label": "Diego Beristain", "lat": 19.479004, "lng": -98.360543
},{
"label": "El Jardín", "lat": 19.498046, "lng": -98.340605
},{
"label": "San Simeón Xipetzinco", "lat": 19.477603, "lng": -98.294886
},{
"label": "Santa Cruz Tenancingo", "lat": 19.427918, "lng": -98.349049
},{
"label": "Hacienda San Blas Cuaxomulco", "lat": 19.526468, "lng": -98.394757
},{
"label": "San Antonio Techalote", "lat": 19.527571, "lng": -98.360556
},{
"label": "San Sebastián (Teozopilco)", "lat": 19.409194, "lng": -98.31441
},{
"label": "Los Cuates [Rancho]", "lat": 19.551973, "lng": -98.351027
},{
"label": "San Fernando", "lat": 19.528876, "lng": -98.311214
},{
"label": "Hueyotlipan", "lat": 19.469988, "lng": -98.348498
},{
"label": "Onésimo Flores Elizalde (El Cerrito)", "lat": 19.47458, "lng": -98.284536
},{
"label": "San Manuel Tlalpan", "lat": 19.446633, "lng": -98.308059
},{
"label": "San Daniel", "lat": 19.51644, "lng": -98.349453
},{
"label": "Cacho Grande", "lat": 19.476881, "lng": -98.357355
},{
"label": "San Lorenzo Techalote", "lat": 19.496338, "lng": -98.32179
},{
"label": "El Durazno", "lat": 19.524419, "lng": -98.397778
},{
"label": "Las Cruces", "lat": 19.474767, "lng": -98.35934
},{
"label": "El Novillo", "lat": 19.526518, "lng": -98.412457
},{
"label": "Santiago Tlalpan", "lat": 19.479141, "lng": -98.308263
},{
"label": "El Pilar [Rancho]", "lat": 19.537446, "lng": -98.349466
},{
"label": "Santo Tomás (El Nopal) [Rancho]", "lat": 19.541363, "lng": -98.34287
},{
"label": "Rincón del Valle (Las Calaveras)", "lat": 19.465253, "lng": -98.306438
},{
"label": "La Purísima [Rancho]", "lat": 19.558531, "lng": -98.347824
},{
"label": "La Pedrera", "lat": 19.521612, "lng": -98.342394
},{
"label": "San Andrés Cuaximala", "lat": 19.398412, "lng": -98.345262
},{
"label": "Rancho de la Cruz", "lat": 19.510351, "lng": -98.386861
},{
"label": "NCP San Antonio Techalote", "lat": 19.536072, "lng": -98.361893
},{
"label": "Emilio Sánchez Piedras", "lat": 19.514404, "lng": -98.391677
},{
"label": "Ignacio Vázquez (El Xocoyotal)", "lat": 19.401261, "lng": -98.325076
},{
"label": "La Cañada", "lat": 19.468291, "lng": -98.354133
},{
"label": "Loma Bonita", "lat": 19.517811, "lng": -98.360346
},{
"label": "Potrero Grande", "lat": 19.4814, "lng": -98.312881
},{
"label": "El Resumidero", "lat": 19.485003, "lng": -98.344317
}]