[{
"label": "San José Atoyatenco", "lat": 19.250641, "lng": -98.354052
},{
"label": "Cristo Rey", "lat": 19.234936, "lng": -98.31992
},{
"label": "La Remolacha", "lat": 19.209196, "lng": -98.323042
},{
"label": "San Miguel Tlale", "lat": 19.210522, "lng": -98.305613
},{
"label": "Jesús Tepactepec", "lat": 19.229187, "lng": -98.314411
},{
"label": "San Miguel Xochitecatitla", "lat": 19.239052, "lng": -98.356918
},{
"label": "Santa Clara Atoyac", "lat": 19.191391, "lng": -98.330024
},{
"label": "San Antonio Teacalco", "lat": 19.206202, "lng": -98.324336
},{
"label": "Loma Verde", "lat": 19.217967, "lng": -98.344462
},{
"label": "Matamoros", "lat": 19.263086, "lng": -98.335916
},{
"label": "San Miguel del Milagro", "lat": 19.239795, "lng": -98.333257
},{
"label": "Santiago Michac", "lat": 19.220561, "lng": -98.337671
},{
"label": "San Vicente Xiloxochitla", "lat": 19.284602, "lng": -98.315889
},{
"label": "San Bernabé Capula", "lat": 19.233958, "lng": -98.337142
},{
"label": "Los Rodríguez", "lat": 19.216122, "lng": -98.307273
},{
"label": "Ex-Hacienda Santa Elena", "lat": 19.225184, "lng": -98.349136
},{
"label": "El Rosario [Rancho]", "lat": 19.25735, "lng": -98.337232
},{
"label": "Guadalupe Victoria", "lat": 19.232566, "lng": -98.334843
},{
"label": "San Miguel Analco", "lat": 19.180771, "lng": -98.337588
},{
"label": "San Juan Tepactepec", "lat": 19.21286, "lng": -98.306761
},{
"label": "NCP Santa Elena Teacalco", "lat": 19.223673, "lng": -98.356882
},{
"label": "Natívitas", "lat": 19.234508, "lng": -98.315194
},{
"label": "San Isidro", "lat": 19.265729, "lng": -98.344794
},{
"label": "Rutilo Vázquez", "lat": 19.223577, "lng": -98.324349
},{
"label": "Tepenberna", "lat": 19.254365, "lng": -98.339119
},{
"label": "La Zanja", "lat": 19.199788, "lng": -98.303804
},{
"label": "San Rafael Tenanyecac", "lat": 19.245423, "lng": -98.366218
},{
"label": "San Antonio", "lat": 19.205011, "lng": -98.327269
},{
"label": "Zanja Real", "lat": 19.239101, "lng": -98.369225
},{
"label": "Colecturía", "lat": 19.252505, "lng": -98.37427
},{
"label": "Jardínes de Tepactepec", "lat": 19.219673, "lng": -98.310395
},{
"label": "La Loma (La Mina)", "lat": 19.285989, "lng": -98.323917
},{
"label": "Santo Tomás la Concordia", "lat": 19.230048, "lng": -98.319766
},{
"label": "Alejandro Balderas", "lat": 19.28073, "lng": -98.3091
},{
"label": "San Francisco Tenexyecac", "lat": 19.277985, "lng": -98.313271
},{
"label": "El Rancho", "lat": 19.215115, "lng": -98.333488
},{
"label": "Miguel Saloma", "lat": 19.219378, "lng": -98.327169
},{
"label": "La Cabaña", "lat": 19.192196, "lng": -98.337059
},{
"label": "Ex-Hacienda de Segura Michac", "lat": 19.212425, "lng": -98.331462
}]