[{
"label": "Ocopipila", "lat": 19.141545, "lng": -98.171234
},{
"label": "Xahuén Vargas", "lat": 19.138801, "lng": -98.137677
},{
"label": "Cacamila San Antonio", "lat": 19.150626, "lng": -98.126131
},{
"label": "Acopilco", "lat": 19.129025, "lng": -98.192126
},{
"label": "Ahuashuame", "lat": 19.137513, "lng": -98.141445
},{
"label": "Mulatla", "lat": 19.177113, "lng": -98.128127
},{
"label": "Juquila", "lat": 19.16093, "lng": -98.116585
},{
"label": "Ciudad de San Pablo del Monte", "lat": 19.119738, "lng": -98.170416
},{
"label": "Rancho Escondido", "lat": 19.159569, "lng": -98.125076
},{
"label": "Hueyocotl", "lat": 19.159396, "lng": -98.119176
},{
"label": "Tetzacual", "lat": 19.138408, "lng": -98.125408
},{
"label": "San Isidro Buen Suceso", "lat": 19.156543, "lng": -98.10553
},{
"label": "Ocoilacas", "lat": 19.157535, "lng": -98.142833
},{
"label": "Xalpatlaco", "lat": 19.155322, "lng": -98.112795
},{
"label": "Tectepetla", "lat": 19.150403, "lng": -98.141871
},{
"label": "Hueypresa", "lat": 19.153963, "lng": -98.147375
},{
"label": "Papanasno", "lat": 19.184917, "lng": -98.111229
},{
"label": "San José Tecosahuatla", "lat": 19.153775, "lng": -98.150768
},{
"label": "Llepazotla", "lat": 19.170459, "lng": -98.138231
},{
"label": "Moxontitla", "lat": 19.147723, "lng": -98.121153
},{
"label": "Ex-Hacienda Guadalupe Xaltelulco", "lat": 19.175812, "lng": -98.139931
},{
"label": "Xahuentlatempa", "lat": 19.144317, "lng": -98.122083
},{
"label": "Calaquiotli", "lat": 19.182574, "lng": -98.122151
},{
"label": "Pilazol", "lat": 19.157885, "lng": -98.118516
},{
"label": "Xahuentepizila", "lat": 19.147514, "lng": -98.156535
},{
"label": "Sais", "lat": 19.186022, "lng": -98.115106
}]