[{
"label": "Esquibajas", "lat": 19.441394, "lng": -98.506022
},{
"label": "Artemio Torres Zavala", "lat": 19.515833, "lng": -98.467778
},{
"label": "La Curva Dos Hermanos [Rancho]", "lat": 19.509412, "lng": -98.470374
},{
"label": "Dos Potrillos", "lat": 19.471052, "lng": -98.511113
},{
"label": "Parada de Sanctórum", "lat": 19.514186, "lng": -98.463155
},{
"label": "Colectivo", "lat": 19.60657, "lng": -98.475609
},{
"label": "La Trinidad [Rancho]", "lat": 19.481401, "lng": -98.513637
},{
"label": "Juan Antonio", "lat": 19.587424, "lng": -98.435967
},{
"label": "La Presa de Pozuelos", "lat": 19.478126, "lng": -98.516307
},{
"label": "Gilberto Cova", "lat": 19.561333, "lng": -98.413526
},{
"label": "NCP Álvaro Obregón", "lat": 19.58376, "lng": -98.430338
},{
"label": "Presa los Llorones", "lat": 19.521667, "lng": -98.462778
},{
"label": "El Potrero", "lat": 19.467886, "lng": -98.538995
},{
"label": "Doña Evelia (Los Alpinos)", "lat": 19.477979, "lng": -98.503811
},{
"label": "Estación Contadero", "lat": 19.449088, "lng": -98.506566
},{
"label": "La Victoria", "lat": 19.47085, "lng": -98.504738
},{
"label": "Rancho Pachuquilla", "lat": 19.51783, "lng": -98.443091
},{
"label": "Las Palomas", "lat": 19.469629, "lng": -98.512942
},{
"label": "Cuatro Vientos", "lat": 19.477123, "lng": -98.514652
},{
"label": "La Reforma", "lat": 19.457304, "lng": -98.504204
},{
"label": "La Garita", "lat": 19.469218, "lng": -98.507704
},{
"label": "Cerrito de las Biznagas", "lat": 19.510353, "lng": -98.473718
},{
"label": "San Felipe (Ejido Álvaro Obregón)", "lat": 19.608933, "lng": -98.422998
},{
"label": "Sanctórum", "lat": 19.492705, "lng": -98.472041
},{
"label": "Amextitla", "lat": 19.465761, "lng": -98.528948
},{
"label": "San Leonardo Arroyo", "lat": 19.469119, "lng": -98.513895
},{
"label": "Balconcillos", "lat": 19.447045, "lng": -98.512539
},{
"label": "Rancho Guadalupe", "lat": 19.438782, "lng": -98.49717
},{
"label": "Los Alpinos", "lat": 19.483092, "lng": -98.501109
},{
"label": "Santa Teresa", "lat": 19.476092, "lng": -98.513621
},{
"label": "Pozuelos", "lat": 19.490233, "lng": -98.510076
},{
"label": "La Loma", "lat": 19.506779, "lng": -98.469976
},{
"label": "San Nicolás el Grande", "lat": 19.580578, "lng": -98.435789
},{
"label": "El Sabino [Rancho]", "lat": 19.518923, "lng": -98.456423
},{
"label": "La Providencia", "lat": 19.450789, "lng": -98.50282
},{
"label": "Julio Roldán", "lat": 19.462917, "lng": -98.540029
},{
"label": "Celia Pérez", "lat": 19.501342, "lng": -98.470306
},{
"label": "La Esperanza", "lat": 19.482242, "lng": -98.512937
},{
"label": "La Pradera (El Pozo)", "lat": 19.572283, "lng": -98.434534
},{
"label": "El Jagüey", "lat": 19.472103, "lng": -98.512253
},{
"label": "Santa Cecilia [Rancho]", "lat": 19.479583, "lng": -98.513823
},{
"label": "Francisco Villa", "lat": 19.584796, "lng": -98.462702
},{
"label": "Rafael Martínez", "lat": 19.503607, "lng": -98.469706
},{
"label": "San Nicolás (Farfán)", "lat": 19.574861, "lng": -98.432015
},{
"label": "Santa Cruz", "lat": 19.483249, "lng": -98.505283
},{
"label": "San Bartolito", "lat": 19.459502, "lng": -98.50519
}]