[{
"label": "Nicolás Bravo [Granja Avícola]", "lat": 19.423607, "lng": -97.983478
},{
"label": "Los Pinos [Rancho]", "lat": 19.427216, "lng": -97.98297
},{
"label": "Celino Sánchez Conde", "lat": 19.429081, "lng": -98.025676
},{
"label": "San Isidro [Rancho]", "lat": 19.424199, "lng": -97.97971
},{
"label": "El Jagüey Prieto", "lat": 19.432521, "lng": -98.034576
},{
"label": "Guadalupe Texmolac", "lat": 19.420329, "lng": -98.046829
},{
"label": "La Colmena", "lat": 19.42185, "lng": -97.988663
},{
"label": "Rancho José Pilar", "lat": 19.417771, "lng": -97.987534
},{
"label": "Colonia José López Portillo", "lat": 19.429051, "lng": -98.053328
},{
"label": "Xaloztoc", "lat": 19.40418, "lng": -98.048823
},{
"label": "Quimicho", "lat": 19.408071, "lng": -97.993236
},{
"label": "Colonia Venustiano Carranza", "lat": 19.400713, "lng": -98.058654
},{
"label": "Los Corrales", "lat": 19.431281, "lng": -97.999914
},{
"label": "Demetrio Hernández López", "lat": 19.421688, "lng": -97.994361
},{
"label": "San Juan [Rancho]", "lat": 19.418075, "lng": -97.987643
},{
"label": "La Casita", "lat": 19.432399, "lng": -98.008034
},{
"label": "Las Brisas", "lat": 19.421205, "lng": -97.976175
},{
"label": "Colonia Velazco", "lat": 19.430567, "lng": -98.014863
},{
"label": "La Concepción", "lat": 19.416271, "lng": -98.01934
},{
"label": "San Pedro [Rancho]", "lat": 19.417137, "lng": -97.98096
},{
"label": "San José Ocotitla", "lat": 19.433795, "lng": -98.03771
},{
"label": "San Pedro Tlacotepec", "lat": 19.397663, "lng": -98.043284
},{
"label": "Santa Cruz Zacatzontetla", "lat": 19.398736, "lng": -98.035632
},{
"label": "Florencia Sánchez Nava", "lat": 19.415014, "lng": -98.026574
},{
"label": "Rancho R77", "lat": 19.425413, "lng": -97.982615
}]