[{
"label": "La Soledad (El Charco) [Rancho]", "lat": 19.432976, "lng": -98.166991
},{
"label": "San Francisco Tlacuilohcan", "lat": 19.400842, "lng": -98.193529
},{
"label": "San Lorenzo Tlacualoyan", "lat": 19.40122, "lng": -98.176461
},{
"label": "El Llano", "lat": 19.380665, "lng": -98.197171
},{
"label": "Santa María Atlihuetzian", "lat": 19.372579, "lng": -98.177641
},{
"label": "San José Tepoxtla", "lat": 19.382836, "lng": -98.157773
},{
"label": "Barrio de Atencingo", "lat": 19.391133, "lng": -98.170691
},{
"label": "Santa Úrsula Zimatepec", "lat": 19.419789, "lng": -98.164118
},{
"label": "Cuarta Sección", "lat": 19.390318, "lng": -98.159745
},{
"label": "Ciudad Judicial", "lat": 19.386912, "lng": -98.167782
},{
"label": "Chimalpa", "lat": 19.372918, "lng": -98.167877
},{
"label": "Serafín Sánchez García", "lat": 19.440648, "lng": -98.160283
},{
"label": "El Rosario Ocotoxco", "lat": 19.387775, "lng": -98.181009
},{
"label": "San José Tetel", "lat": 19.43153, "lng": -98.155695
},{
"label": "San Benito Xaltocan", "lat": 19.407127, "lng": -98.171509
},{
"label": "San Dionisio Yauhquemehcan", "lat": 19.40501, "lng": -98.184011
},{
"label": "Tepetexco", "lat": 19.391933, "lng": -98.214248
},{
"label": "Hualcaltzinco", "lat": 19.400839, "lng": -98.159971
},{
"label": "Tlatelpa", "lat": 19.39375, "lng": -98.21345
}]