[{
"label": "El Rincón", "lat": 21.214529, "lng": -104.724192
},{
"label": "San José", "lat": 21.075653, "lng": -104.787991
},{
"label": "Tepetiltic", "lat": 21.279444, "lng": -104.681389
},{
"label": "Las Cruces (Salgado)", "lat": 21.165399, "lng": -104.748437
},{
"label": "Cerro Pelón", "lat": 21.100768, "lng": -104.819815
},{
"label": "Las Higueras", "lat": 21.05, "lng": -104.72
},{
"label": "Antonio Sepúlveda [Rancho]", "lat": 21.275851, "lng": -104.74414
},{
"label": "El Potrero", "lat": 21.236944, "lng": -104.792222
},{
"label": "La Regadilla", "lat": 21.209327, "lng": -104.740812
},{
"label": "Casa Blanca", "lat": 21.148323, "lng": -104.715071
},{
"label": "La Taberna", "lat": 21.217795, "lng": -104.76069
},{
"label": "El Paso de las Ramadas", "lat": 21.316264, "lng": -104.776443
},{
"label": "Las Aras", "lat": 21.277079, "lng": -104.694836
},{
"label": "El Paraíso [Balneario]", "lat": 21.182604, "lng": -104.64262
},{
"label": "Cuastecomate", "lat": 21.0443, "lng": -104.753136
},{
"label": "El Molino", "lat": 21.228056, "lng": -104.7475
},{
"label": "La Peña", "lat": 21.097718, "lng": -104.685451
},{
"label": "Los Camichines", "lat": 21.198576, "lng": -104.773384
},{
"label": "El Chorrito", "lat": 21.216389, "lng": -104.827633
},{
"label": "Erick Mendoza (Parque Ecológico)", "lat": 21.215193, "lng": -104.745391
},{
"label": "La Porcina 2", "lat": 21.229417, "lng": -104.83031
},{
"label": "El Establo", "lat": 21.203561, "lng": -104.753578
},{
"label": "Milpillas Bajas", "lat": 21.223258, "lng": -104.825766
},{
"label": "Casa de Cartón [Basurero]", "lat": 21.250278, "lng": -104.740833
},{
"label": "El Platanar", "lat": 21.196638, "lng": -104.656868
},{
"label": "Las Paredes", "lat": 21.102833, "lng": -104.808415
},{
"label": "La Arena", "lat": 21.19025, "lng": -104.722699
},{
"label": "San Pedro Lagunillas", "lat": 21.221906, "lng": -104.75111
},{
"label": "Las Guásimas", "lat": 21.186111, "lng": -104.679167
},{
"label": "Agua Caliente", "lat": 21.191934, "lng": -104.653751
},{
"label": "Los Serafines", "lat": 21.208711, "lng": -104.753045
},{
"label": "Tequilita", "lat": 21.086284, "lng": -104.798879
},{
"label": "La Unión", "lat": 21.271634, "lng": -104.697724
},{
"label": "Amado Nervo (El Conde)", "lat": 21.082182, "lng": -104.732136
},{
"label": "Trillas", "lat": 21.211852, "lng": -104.744494
},{
"label": "Santa María", "lat": 21.130663, "lng": -104.718312
},{
"label": "La Porcina", "lat": 21.200341, "lng": -104.751818
},{
"label": "El Paraíso de Jonás", "lat": 21.211589, "lng": -104.71832
},{
"label": "Huaynamota", "lat": 21.215287, "lng": -104.732304
},{
"label": "Nueva California", "lat": 21.213636, "lng": -104.724234
},{
"label": "La Escondida", "lat": 21.287849, "lng": -104.753163
},{
"label": "Cruz de Pileros", "lat": 21.279069, "lng": -104.733931
},{
"label": "Puerta del Río", "lat": 21.184549, "lng": -104.647048
},{
"label": "La Cabaña", "lat": 21.218713, "lng": -104.743562
},{
"label": "Los Llanitos", "lat": 21.245331, "lng": -104.738872
},{
"label": "Puerta de Compostela", "lat": 21.206306, "lng": -104.772269
}]