[{
"label": "Cerro las Piedras (Piedras de Amolar)", "lat": 21.783889, "lng": -105.021597
},{
"label": "El Rapo", "lat": 21.700378, "lng": -105.390391
},{
"label": "Cañada Grande", "lat": 21.919434, "lng": -105.564118
},{
"label": "Bertha Flores", "lat": 21.779041, "lng": -105.047518
},{
"label": "Las Labores", "lat": 21.905, "lng": -105.572778
},{
"label": "Acatán de las Piñas", "lat": 21.870803, "lng": -104.96918
},{
"label": "La Noria", "lat": 21.810488, "lng": -105.234793
},{
"label": "Florece", "lat": 21.717494, "lng": -105.34759
},{
"label": "El Pasito", "lat": 21.861618, "lng": -105.277676
},{
"label": "El Carrizo", "lat": 21.774999, "lng": -105.269297
},{
"label": "El Capomal", "lat": 21.839604, "lng": -105.121795
},{
"label": "La Curva", "lat": 21.809346, "lng": -105.227045
},{
"label": "Simón Mondragón", "lat": 21.778236, "lng": -105.222378
},{
"label": "Pueblo Nuevo", "lat": 21.771926, "lng": -105.308969
},{
"label": "Javier Domínguez", "lat": 21.875782, "lng": -105.274336
},{
"label": "Vado del Cora (Estación Pani)", "lat": 21.737572, "lng": -105.006363
},{
"label": "El Crucero los Corchos", "lat": 21.696855, "lng": -105.451665
},{
"label": "Agroproductos de Nayarit", "lat": 21.705556, "lng": -105.136944
},{
"label": "Mexcaltitán de Uribe", "lat": 21.90609, "lng": -105.475406
},{
"label": "Nacho Paredes", "lat": 21.8686, "lng": -105.255499
},{
"label": "Francisco Cristerna [Rancho]", "lat": 21.729191, "lng": -105.237753
},{
"label": "Paso Real de Cahuipa", "lat": 21.842222, "lng": -104.964167
},{
"label": "Santa María de Jesús", "lat": 21.735304, "lng": -105.196562
},{
"label": "Tizate [Planta de Hornos]", "lat": 21.79252, "lng": -105.138001
},{
"label": "El Embarcadero de Tuxpan", "lat": 21.9044, "lng": -105.480422
},{
"label": "Aztlán de las Garzas", "lat": 21.825763, "lng": -105.391833
},{
"label": "Campo Experimental Santiago Ixcuintla", "lat": 21.823611, "lng": -105.184444
},{
"label": "Yago", "lat": 21.835268, "lng": -105.06589
},{
"label": "Los Tres Pollos", "lat": 21.73184, "lng": -105.24126
},{
"label": "Santiago Ixcuintla", "lat": 21.808336, "lng": -105.206044
},{
"label": "Colonia Vado del Cora", "lat": 21.738696, "lng": -105.013752
},{
"label": "Rancho de Pedro Díaz", "lat": 21.837391, "lng": -105.231495
},{
"label": "Los Otates [Albergue]", "lat": 21.701636, "lng": -105.384969
},{
"label": "La Atarjea (Alfonso Langarica)", "lat": 21.834722, "lng": -105.195833
},{
"label": "Maravillas (El Rancho de Menchaca)", "lat": 21.829092, "lng": -105.343306
},{
"label": "Rancho de los Zamorano", "lat": 21.842961, "lng": -105.249305
},{
"label": "Mangos Vallarta", "lat": 21.814999, "lng": -105.242428
},{
"label": "Villa Hidalgo", "lat": 21.739426, "lng": -105.234314
},{
"label": "La Ladrillera", "lat": 21.799876, "lng": -105.320518
},{
"label": "La Guinea", "lat": 21.704269, "lng": -105.133959
},{
"label": "Úrsulo Orozco [Rancho]", "lat": 21.827506, "lng": -105.259682
},{
"label": "Los Huanacaxtles", "lat": 21.873589, "lng": -105.274655
},{
"label": "Cerritos", "lat": 21.781451, "lng": -105.270843
},{
"label": "Rancho Ángela", "lat": 21.791034, "lng": -105.141068
},{
"label": "La Floresta", "lat": 21.91778, "lng": -105.370015
},{
"label": "Acaponetilla", "lat": 21.866146, "lng": -105.073206
},{
"label": "El Papalote", "lat": 21.775239, "lng": -105.174257
},{
"label": "El Corte (El Tuchi)", "lat": 21.719163, "lng": -105.243652
},{
"label": "Rancho de Benito Rodríguez", "lat": 21.723079, "lng": -105.240583
},{
"label": "El Manglar", "lat": 21.703403, "lng": -105.456847
},{
"label": "Patroneño I", "lat": 21.764327, "lng": -105.256584
},{
"label": "Rancho de Jorge Hinojosa", "lat": 21.836139, "lng": -105.290239
},{
"label": "La Pedrera", "lat": 21.771739, "lng": -105.165121
},{
"label": "Rancho Porcicola", "lat": 21.858631, "lng": -105.200063
},{
"label": "Baltazar Sánchez [Rancho]", "lat": 21.843785, "lng": -105.274897
},{
"label": "Los Chivos", "lat": 21.839114, "lng": -105.167099
},{
"label": "Ranchito de Antonio Valenzuela", "lat": 21.746486, "lng": -105.224941
},{
"label": "El Mecánico", "lat": 21.906389, "lng": -105.471667
},{
"label": "Rancho Ortega", "lat": 21.83174, "lng": -105.259738
},{
"label": "Valle Zaragoza", "lat": 21.794392, "lng": -105.164302
},{
"label": "Puerta de Mangos", "lat": 21.716247, "lng": -105.334924
},{
"label": "Palmar de Cuautla", "lat": 22.220246, "lng": -105.647248
},{
"label": "Las Parejas", "lat": 21.881423, "lng": -105.037441
},{
"label": "Viviano Bogarín", "lat": 21.786611, "lng": -105.208963
},{
"label": "Rancho de Hilario Ramírez", "lat": 21.848658, "lng": -105.201186
},{
"label": "Loma China (Kika) [Restaurante]", "lat": 21.901887, "lng": -105.475814
},{
"label": "El Limón", "lat": 21.841837, "lng": -105.319955
},{
"label": "El Pulpo", "lat": 21.727947, "lng": -105.17586
},{
"label": "Crucero de Villa Hidalgo", "lat": 21.805489, "lng": -105.102361
},{
"label": "El Ranchito de Pedro Hermosillo", "lat": 21.803894, "lng": -105.284068
},{
"label": "La Presa", "lat": 21.801767, "lng": -105.203058
},{
"label": "Paulino Corona [Comedor]", "lat": 21.825116, "lng": -105.216483
},{
"label": "El Novillero", "lat": 21.823141, "lng": -105.256398
},{
"label": "Sentispac", "lat": 21.805706, "lng": -105.347165
},{
"label": "Colonia Emiliano Zapata", "lat": 21.829169, "lng": -105.220055
},{
"label": "El Puente", "lat": 21.849542, "lng": -105.245894
},{
"label": "El Tambor", "lat": 21.746468, "lng": -105.035114
},{
"label": "San Blas", "lat": 21.750632, "lng": -105.178639
},{
"label": "La Tacuacha (René Becerra)", "lat": 21.838127, "lng": -105.229764
},{
"label": "La Zarda", "lat": 21.873702, "lng": -105.058983
},{
"label": "Ambrosio Ruiz [Rancho]", "lat": 21.842804, "lng": -105.252981
},{
"label": "El Colomo", "lat": 21.796389, "lng": -104.983611
},{
"label": "Puerta Azul", "lat": 21.827795, "lng": -105.17136
},{
"label": "El Canal de las Estrellas", "lat": 21.818142, "lng": -105.191393
},{
"label": "Pozo de Arena (Joaquín Hernández)", "lat": 21.823948, "lng": -105.231296
},{
"label": "Los Corchos", "lat": 21.73367, "lng": -105.472358
},{
"label": "Estación Nanchi (Peñasquillo)", "lat": 21.799276, "lng": -105.063577
},{
"label": "El Matadero", "lat": 21.905543, "lng": -105.479096
},{
"label": "El Rebombeo (Santos Navarro)", "lat": 21.825701, "lng": -105.138064
},{
"label": "Rancho de los Ceceña", "lat": 21.843903, "lng": -105.231189
},{
"label": "La Casa Amarilla", "lat": 21.705066, "lng": -105.371082
},{
"label": "Sauta", "lat": 21.721388, "lng": -105.142457
},{
"label": "La Ceiba", "lat": 21.808056, "lng": -105.237778
},{
"label": "Villa Juárez", "lat": 21.691891, "lng": -105.387086
},{
"label": "Paredones (La Punta de la Laguna)", "lat": 21.871779, "lng": -105.207794
},{
"label": "La Limonera (Librado Lozano)", "lat": 21.756413, "lng": -105.118974
},{
"label": "Emerita", "lat": 21.883211, "lng": -105.015929
},{
"label": "Gavilán Grande", "lat": 21.798888, "lng": -105.292755
},{
"label": "El Botadero", "lat": 21.755345, "lng": -105.286194
},{
"label": "Redención", "lat": 21.852578, "lng": -105.04245
},{
"label": "El Tamarindo", "lat": 21.901172, "lng": -105.474433
},{
"label": "El Sacrificio", "lat": 21.742971, "lng": -105.338851
},{
"label": "Santiago Arambul Hernández", "lat": 21.824536, "lng": -105.194742
},{
"label": "Pantano Grande", "lat": 21.866606, "lng": -105.148434
},{
"label": "La Cuata", "lat": 21.829056, "lng": -105.060639
},{
"label": "J. Guadalupe Hernández González", "lat": 21.79475, "lng": -105.131796
},{
"label": "El Tizate", "lat": 21.801461, "lng": -105.116006
},{
"label": "San Carlos [Productos Agropecuarios]", "lat": 21.834432, "lng": -105.223924
},{
"label": "Alfredo V. Bonfil [Planta de Hornos]", "lat": 21.813056, "lng": -105.118333
},{
"label": "La Cucaracha (La Mina)", "lat": 21.86384, "lng": -105.046867
},{
"label": "La Concepción", "lat": 21.842426, "lng": -105.187194
},{
"label": "María Concepción Castellón", "lat": 21.779138, "lng": -105.050256
},{
"label": "Ojos de Agua", "lat": 21.850556, "lng": -105.176389
},{
"label": "San Manuel (Monte Redondo)", "lat": 21.747222, "lng": -105.147778
},{
"label": "Potrero Grande", "lat": 21.72616, "lng": -105.232813
},{
"label": "Los Ramírez", "lat": 21.833889, "lng": -105.251944
},{
"label": "Gavilán Chico", "lat": 21.811921, "lng": -105.325138
},{
"label": "Los Cortez", "lat": 21.78081, "lng": -105.044173
},{
"label": "Los Tamarindos de Vallarta", "lat": 21.695838, "lng": -105.378144
},{
"label": "Caramota", "lat": 21.881589, "lng": -105.043587
},{
"label": "Las Iglesias (El Salto)", "lat": 21.797841, "lng": -105.005788
},{
"label": "Corral de Piedra", "lat": 21.821894, "lng": -105.018104
},{
"label": "San Valentín", "lat": 21.749615, "lng": -105.149528
},{
"label": "Agustín Corona [Rancho]", "lat": 21.846365, "lng": -105.278945
},{
"label": "El Principio", "lat": 21.730571, "lng": -105.194436
},{
"label": "La Barrosa", "lat": 21.715833, "lng": -105.414722
},{
"label": "La Limonera", "lat": 21.710765, "lng": -105.179402
},{
"label": "El Paraíso", "lat": 21.743265, "lng": -105.079647
},{
"label": "Cecilia Barajas (Higuera del Colorado) [Rancho]", "lat": 21.816788, "lng": -105.226915
},{
"label": "La Algodonera Nayarita", "lat": 21.819918, "lng": -105.187083
},{
"label": "El Bordo", "lat": 21.740558, "lng": -105.237359
},{
"label": "Mayorga [Ganadería]", "lat": 21.771313, "lng": -105.184399
},{
"label": "El Saucillo (La Casa del Cerro)", "lat": 21.717116, "lng": -105.389526
},{
"label": "Jesús González", "lat": 21.826089, "lng": -105.060136
},{
"label": "San Isidro", "lat": 21.795159, "lng": -105.174826
},{
"label": "El Nuevo Mexcaltitán", "lat": 21.905078, "lng": -105.482519
},{
"label": "El Mezcal", "lat": 21.925379, "lng": -105.371361
},{
"label": "Los Páez", "lat": 21.723175, "lng": -105.235024
},{
"label": "La Playa del Colorado", "lat": 21.880422, "lng": -105.57932
},{
"label": "El Saucillo", "lat": 21.770091, "lng": -105.198155
},{
"label": "El Procurador (Andrés Valenzuela)", "lat": 21.775833, "lng": -105.091944
},{
"label": "Zona de Tolerancia", "lat": 21.804407, "lng": -105.232095
},{
"label": "La Perlita", "lat": 21.829722, "lng": -105.194722
},{
"label": "Crucero las Higueras", "lat": 21.75283, "lng": -105.082387
},{
"label": "Hornos de Tabaco", "lat": 21.794457, "lng": -105.181365
},{
"label": "Santa Rosa", "lat": 21.703634, "lng": -105.378284
},{
"label": "El Soyate", "lat": 21.7222, "lng": -105.468975
},{
"label": "Playa los Corchos", "lat": 21.688251, "lng": -105.471437
},{
"label": "Las Higueras", "lat": 21.753123, "lng": -105.088129
},{
"label": "Heliodoro Jiménez [Rancho]", "lat": 21.706459, "lng": -105.135199
},{
"label": "Toro Mocho", "lat": 21.752998, "lng": -105.450464
},{
"label": "Rosymar", "lat": 21.699686, "lng": -105.446283
},{
"label": "La Higuerita (La Escondida)", "lat": 21.898132, "lng": -105.543051
},{
"label": "Pozo de Ibarra", "lat": 21.864646, "lng": -105.278691
},{
"label": "Los Otates", "lat": 21.703056, "lng": -105.376113
},{
"label": "Las Palmas", "lat": 21.783183, "lng": -105.092928
},{
"label": "La Vuelta", "lat": 21.686426, "lng": -105.447893
},{
"label": "El Zopilote (Vicente Sánchez López)", "lat": 21.735, "lng": -105.121944
},{
"label": "Chicamaloya", "lat": 21.803819, "lng": -105.500797
},{
"label": "Rancho de los Lozano", "lat": 21.7565, "lng": -105.227489
},{
"label": "El Cantón de Lozada", "lat": 21.869015, "lng": -104.929901
},{
"label": "El Palomar", "lat": 21.889266, "lng": -105.470844
},{
"label": "Francisco Javier López Cázares", "lat": 21.802245, "lng": -105.234369
},{
"label": "El Tesorero", "lat": 21.847546, "lng": -105.081206
},{
"label": "Alfredo Loera (El Melón)", "lat": 21.780566, "lng": -105.052244
},{
"label": "El Famoso", "lat": 22.144543, "lng": -105.641743
},{
"label": "La Selva", "lat": 21.765162, "lng": -105.106993
},{
"label": "Las Balsas", "lat": 21.726116, "lng": -105.361434
},{
"label": "San Carlos [Empacadora]", "lat": 21.716158, "lng": -105.138081
},{
"label": "San Rafael", "lat": 21.770356, "lng": -105.087085
},{
"label": "Rancho de Ruiz", "lat": 21.844444, "lng": -105.220278
},{
"label": "Crucero de Santiago (El Guapinol)", "lat": 21.854936, "lng": -105.154463
},{
"label": "Palo Alto", "lat": 21.767033, "lng": -105.112337
},{
"label": "Pozo de Villa", "lat": 21.832106, "lng": -105.303807
},{
"label": "El Porvenir", "lat": 21.70625, "lng": -105.459013
},{
"label": "La Quinta (El Rancho de la Higuera)", "lat": 21.969444, "lng": -105.598611
},{
"label": "Rancho Nuevo", "lat": 21.895358, "lng": -105.560247
},{
"label": "Amapa", "lat": 21.783193, "lng": -105.256401
},{
"label": "Flavio Amaya", "lat": 21.831997, "lng": -105.1825
},{
"label": "Los Sauces", "lat": 21.808799, "lng": -105.230673
},{
"label": "El Manguito", "lat": 21.864649, "lng": -104.889768
},{
"label": "Dios Proveerá [Rancho]", "lat": 21.81921, "lng": -105.191815
},{
"label": "San Andrés", "lat": 21.913205, "lng": -105.570722
},{
"label": "Puerta de Palapares", "lat": 22.104755, "lng": -105.629928
},{
"label": "La Atarjea (Héctor León Díaz)", "lat": 21.840825, "lng": -105.203124
},{
"label": "Natividad García Lozano", "lat": 21.779444, "lng": -105.223889
},{
"label": "Ramiro Gutiérrez Rosales", "lat": 21.685883, "lng": -105.39526
},{
"label": "Rancho de los Doctores", "lat": 22.275414, "lng": -105.658105
},{
"label": "Reynosa", "lat": 21.902893, "lng": -105.17034
},{
"label": "Guadalupe Carrillo", "lat": 21.779722, "lng": -105.211111
},{
"label": "Los Tabachines", "lat": 21.725153, "lng": -105.238231
},{
"label": "Mojarritas", "lat": 21.752841, "lng": -105.060871
},{
"label": "Lo de Márquez [Hornos de Tabaco]", "lat": 21.795833, "lng": -105.194722
},{
"label": "La Cornada (El Pelón)", "lat": 21.868722, "lng": -105.044987
},{
"label": "Rancho Bautista", "lat": 21.775827, "lng": -105.280219
},{
"label": "La Palma Sola", "lat": 21.700874, "lng": -105.383031
},{
"label": "Los Pérez", "lat": 21.806622, "lng": -105.417571
},{
"label": "Crucero Bonfil", "lat": 21.815774, "lng": -105.110957
},{
"label": "Mayorquín", "lat": 21.905247, "lng": -105.565061
},{
"label": "Valle Lerma", "lat": 21.812024, "lng": -105.103249
},{
"label": "El Güero Flores", "lat": 21.704633, "lng": -105.230644
},{
"label": "Adolfo Santos [Rancho]", "lat": 21.815214, "lng": -105.25445
},{
"label": "Santa Cruz", "lat": 21.980937, "lng": -105.601376
},{
"label": "Campo de los Limones", "lat": 21.804112, "lng": -105.41935
},{
"label": "El Módulo", "lat": 21.833871, "lng": -105.096958
},{
"label": "Playa el Sesteo", "lat": 21.724697, "lng": -105.488046
},{
"label": "La Providencia (El Rancho del Cuate)", "lat": 21.773056, "lng": -105.187778
},{
"label": "El Cora Viejo", "lat": 21.848923, "lng": -104.94879
},{
"label": "San Vicente", "lat": 21.908057, "lng": -105.474388
},{
"label": "Valle Morelos", "lat": 21.841574, "lng": -105.282013
},{
"label": "El Turco", "lat": 21.736509, "lng": -105.279035
},{
"label": "Granja Míriam", "lat": 21.821562, "lng": -105.184903
},{
"label": "Hacienda Vieja", "lat": 21.850088, "lng": -105.000727
},{
"label": "El Jabalí", "lat": 21.886389, "lng": -104.877778
},{
"label": "Boca de Camichín", "lat": 21.745447, "lng": -105.49019
},{
"label": "Cañada del Tabaco", "lat": 21.709517, "lng": -105.353575
},{
"label": "Agustín Langarica [Rancho]", "lat": 21.834722, "lng": -105.199167
},{
"label": "Las Minas", "lat": 21.767389, "lng": -105.108611
},{
"label": "Puerta Colorada", "lat": 21.902128, "lng": -105.167919
},{
"label": "Cheros [Restaurante]", "lat": 21.773038, "lng": -105.270945
},{
"label": "Triple Ocho", "lat": 21.791775, "lng": -105.297779
},{
"label": "San Miguel Número Dos (El Quemado)", "lat": 21.828661, "lng": -105.390902
},{
"label": "La Esperanza", "lat": 21.749883, "lng": -105.148646
},{
"label": "El Pitayo", "lat": 21.817491, "lng": -105.231385
},{
"label": "La Puerta (La Guitarra)", "lat": 21.752815, "lng": -105.253175
},{
"label": "Las Guásimas", "lat": 21.774606, "lng": -105.144723
},{
"label": "El Verdineño [Campo Experimental]", "lat": 21.703086, "lng": -105.129805
},{
"label": "Aurelio Carrillo", "lat": 21.712729, "lng": -105.341221
},{
"label": "Ceferino Alcantar [Rancho]", "lat": 21.844184, "lng": -105.239209
},{
"label": "El Balastre", "lat": 21.771061, "lng": -105.192257
},{
"label": "La Guadalupana", "lat": 21.892807, "lng": -105.163187
},{
"label": "El Limoncito", "lat": 21.722744, "lng": -105.238866
},{
"label": "Loma Bonita", "lat": 21.838726, "lng": -105.174156
},{
"label": "Sinaloa", "lat": 21.9225, "lng": -105.574722
},{
"label": "SAGARPA Santiago", "lat": 21.822753, "lng": -105.18467
},{
"label": "Los Cuates", "lat": 21.849077, "lng": -105.280046
},{
"label": "Refugio Meza Ortega", "lat": 21.858313, "lng": -105.281217
},{
"label": "Rancho de Pedro Zúñiga", "lat": 21.820273, "lng": -105.24679
}]